# LAS format log file from PETREL
# Project units are specified as depth units
#==================================================================
~Version information
VERS.   2.0:
WRAP.   NO:
#==================================================================
~Well
STRT .m      4670.1455078 :
STOP .m      4804.8671875 :
STEP .m     0.00000000 :
NULL .        -999.250000 :
COMP.           : COMPANY
WELL.  Boreas 1   : WELL
FLD.            : FIELD
LOC.            : LOCATION
SRVC.           : SERVICE COMPANY
DATE.  2017-10-02 11:49:53   : Log Export Date {yyyy-MM-dd HH:mm:ss}
PROV.           : PROVINCE
UWI.   Boreas 1   : UNIQUE WELL ID
API.            : API NUMBER
#==================================================================
~Curve
DEPT .m                   : DEPTH
BIT .in                   : BIT
CAL .in                   : CAL
DRHO .g/cm3               : DRHO
DTC .us/ft                : DTC
DTS .us/ft                : DTS
GR .gAPI                  : GR
NET .m                    : NET
NPHI .m3/m3               : NPHI
PEF .b/e                  : PEF
POTA .%                   : POTA
RESD .ohm.m               : RESD
RESM .ohm.m               : RESM
RESS .ohm.m               : RESS
RHOB .g/cm3               : RHOB
ROP .m/h                  : ROP
THOR .ppm                 : THOR
URAN .ppm                 : URAN
IC4 .%                    : IC4
C2 .%                     : C2
TGAS .%                   : TGAS
C1 .%                     : C1
IC5 .%                    : IC5
NC5 .%                    : NC5
C3 .%                     : C3
NC4 .%                    : NC4
Casing ._                 : Casing
~Parameter
#==================================================================
~Ascii
# ...
 4799.8378906 8.5000000000  -999.250000  -999.250000 53.907470703 112.23870087 61.240798950  -999.250000  -999.250000  -999.250000 0.4399999976 16.493400574 16.772399902 16.499399185  -999.250000 31.606300354 11.385499954 2.2799000740 12.000000954 285.00000000 4629.6000977 3863.0441895 6.9999995232 4.0000000000 71.323997498 13.999999046 7.6300001144
 4799.9902344 8.5000000000  -999.250000  -999.250000 61.564781189 112.27339935 59.463401794  -999.250000  -999.250000  -999.250000 0.4300000072 16.083700180 16.989099503 16.094600677  -999.250000 35.206298828 11.417200089 2.0510001183 12.000000954 285.00000000 4507.6801758 3853.5949707 6.9999995232 4.0000000000 71.019203186 13.999999046 7.6300001144
 4800.1425781 8.5000000000  -999.250000  -999.250000 63.075157166 110.79810333 60.955200195  -999.250000  -999.250000  -999.250000 0.4699999988 16.490299225 17.063299179 16.702100754  -999.250000 35.433071136 11.518300056 2.1129000187 12.285599709 283.85760498 4500.0000000 3802.1630859 6.9999995232 3.4287998676 71.000000000 13.999999046 7.6300001144
 4800.2954102 8.5000000000  -999.250000  -999.250000 64.105476379 108.84929657 62.285499573  -999.250000  -999.250000  -999.250000 0.5199999809 16.062400818 16.736400604 16.247299194  -999.250000 35.433071136 11.294699669 2.2660000324 12.590399742 282.63839722 4500.0000000 3747.9091797 6.9999995232 2.8192002773 71.000000000 13.999999046 7.6300001144
 4800.4477539 8.5000000000  -999.250000  -999.250000 64.856658936 110.74890137 63.496101379  -999.250000  -999.250000  -999.250000 0.4900000095 15.570199966 16.366500854 15.728699684  -999.250000 35.433071136 11.210000038 2.5399999619 12.895199776 281.41918945 4500.0000000 3693.6538086 6.9999995232 2.2095999718 71.000000000 13.999999046 7.6300001144
 4800.6000977 8.5000000000  -999.250000  -999.250000 65.066398621 113.10020447 61.713199615  -999.250000  -999.250000  -999.250000 0.4699999988 15.558600426 15.754799843 14.811800003  -999.250000 33.070865631 11.022299767 2.5037000179 12.799999237 282.39999390 4480.0000000 3656.8000488 6.9999995232 2.2000000477 71.000000000 14.199999809 7.6300001144
 4800.7524414 8.5000000000  -999.250000  -999.250000 64.165061951 112.01300049 61.758598328  -999.250000  -999.250000  -999.250000 0.4699999988 14.379500389 14.689599991 14.081600189  -999.250000 29.470867157 10.328900337 2.6893999577 12.495200157 284.53359985 4449.5200195 3629.0629883 6.9999995232 2.5048003197 71.000000000 14.504799843 7.6300001144
 4800.9047852 8.5000000000  -999.250000  -999.250000 64.747741699 111.55860138 61.225601196  -999.250000  -999.250000  -999.250000 0.4399999976 13.107399940 13.186699867 13.074299812  -999.250000 25.870866776 11.361000061 2.2825000286 12.190400124 286.66720581 4419.0400391 3601.3259277 6.9999995232 2.8095998764 71.000000000 14.809598923 7.6300001144
 4801.0571289 8.5000000000  -999.250000  -999.250000 64.969070435 112.80909729 61.707500458  -999.250000  -999.250000  -999.250000 0.4799999893 13.756999969 14.030599594 13.600199699  -999.250000 22.270866394 11.448300362 2.1970000267 12.114399910 288.22879028 4400.0000000 3578.0512695 6.8856000900 2.8855998516 71.114402771 14.885600090 7.6300001144
 4801.2094727 8.5000000000  -999.250000  -999.250000 63.477828979 112.21130371 62.176200867  -999.250000  -999.250000  -999.250000 0.4499999881 14.047599792 14.703800201 13.957599640  -999.250000 18.670866013 11.550299644 2.2878999710 12.419200897 288.83840942 4400.0000000 3562.2019043 6.5808000565 2.5807998180 71.419197083 14.580800056 7.6300001144
 4801.3618164 8.5000000000  -999.250000  -999.250000 63.588138580 111.81039429 62.065700531  -999.250000  -999.250000  -999.250000 0.4699999988 13.385399818 14.199500084 13.836999893  -999.250000 15.070865631 11.323499680 2.3492999077 12.723999977 289.44799805 4400.0000000 3546.3520508 6.2760000229 2.2760000229 71.723999023 14.276000023 7.6300001144
 4801.5141602 8.5000000000  -999.250000  -999.250000 64.527809143 113.50669861 62.607498169  -999.250000  -999.250000  -999.250000 0.5000000000 13.158100128 13.666299820 13.671199799  -999.250000 11.811023712 11.395899773 2.2276000977 12.971199989 289.94241333 4397.1201172 3530.7897949 6.0576000214 2.0000000000 71.971199036 13.999999046 7.6300001144
 4801.6669922 8.5000000000  -999.250000  -999.250000 65.031921387 113.50639343 62.821601868  -999.250000  -999.250000  -999.250000 0.4699999988 13.551099777 14.143699646 13.856399536  -999.250000 11.811023712 11.455200195 2.2839000225 12.666399956 289.33279419 4366.6401367 3517.9890137 6.6672005653 2.0000000000 71.666397095 13.999999046 7.6300001144
 4801.8193359 8.5000000000  -999.250000  -999.250000 65.118843079 113.13289642 63.374900818  -999.250000  -999.250000  -999.250000 0.4099999964 15.123000145 15.935799599 15.799400330  -999.250000 11.811023712 11.561300278 2.4296000004 12.361598969 288.72320557 4336.1601563 3505.1872559 7.2767996788 2.0000000000 71.361602783 13.999999046 7.6300001144
 4801.9716797 8.5000000000  -999.250000  -999.250000 64.719230652 113.06999969 62.335601807  -999.250000  -999.250000  -999.250000 0.4199999869 15.182999611 16.043199539 16.605899811  -999.250000 11.811023712 11.949899673 2.0943000317 12.056799889 288.11358643 4305.6801758 3492.3854980 7.8863997459 2.0000000000 71.056800842 13.999999046 7.6300001144
 4802.1240234 8.5000000000  -999.250000  -999.250000 63.703842163 111.16179657 58.778499603  -999.250000  -999.250000  -999.250000 0.4000000060 14.892299652 15.528200150 15.577400208  -999.250000 11.811023712 11.663499832 1.8349000216 12.000000954 286.76000977 4275.2001953 3463.4638672 7.7519998550 2.0000000000 70.751998901 13.999999046 7.3038182259
 4802.2763672 8.5000000000  -999.250000  -999.250000 61.665916443 113.09739685 58.841400146  -999.250000  -999.250000  -999.250000 0.4199999869 14.565400124 15.302399635 15.474499702  -999.250000 11.811023712 11.468899727 1.8581999540 12.000000954 285.23599243 4244.7202148 3430.8500977 7.4471998215 2.0000000000 70.447196960 13.999999046 6.9031543732
 4802.4287109 8.5000000000  -999.250000  -999.250000 60.406639099 114.24610138 62.232498169  -999.250000  -999.250000  -999.250000 0.4900000095 14.359600067 14.859399796 14.301400185  -999.250000 11.811023712 12.386599541 1.8653999567 12.000000954 283.71200562 4214.2402344 3398.2368164 7.1423997879 2.0000000000 70.142402649 13.999999046 6.5024905205
 4802.5810547 8.5000000000  -999.250000  -999.250000 61.333209991 110.67099762 66.150299072  -999.250000  -999.250000  -999.250000 0.5000000000 14.888699532 15.350299835 14.527899742  -999.250000 11.811023712 12.184100151 2.4565999508 12.000000954 281.86318970 4183.7597656 3372.6059570 6.9999995232 2.1624000072 69.837600708 13.999999046 6.1018261909
 4802.7333984 8.5000000000  -999.250000  -999.250000 63.474029541 110.93370056 66.063796997  -999.250000  -999.250000  -999.250000 0.4900000095 15.340399742 15.938500404 15.455800056  -999.250000 11.811023712 11.723699570 2.6668000221 12.000000954 279.72961426 4153.2797852 3353.0991211 6.9999995232 2.4672000408 69.532798767 13.999999046 5.7011623383
 4802.8862305 8.5000000000  -999.250000  -999.250000 66.605110168 112.49459839 62.803398132  -999.250000  -999.250000  -999.250000 0.5099999905 17.028799057 16.366399765 16.247200012  -999.250000 11.811023712 11.420000076 2.3594000340 12.000000954 277.59600830 4122.7998047 3333.5920410 6.9999995232 2.7720000744 69.227996826 13.999999046 5.2992138863
 4803.0385742 8.5000000000  -999.250000  -999.250000 68.141899109 113.07579803 61.580501556  -999.250000  -999.250000  -999.250000 0.4799999893 17.934000015 16.694400787 16.861099243  -999.250000 13.625196457 10.928400040 2.4186999798 12.000000954 275.69281006 4100.0000000 3316.3886719 6.9999995232 3.0000002384 69.000000000 13.999999046 5.0000000000
 4803.1909180 8.5000000000  -999.250000  -999.250000 67.989082336 110.83979034 61.232398987  -999.250000  -999.250000  -999.250000 0.4799999893 17.873800278 16.940900803 18.226900101  -999.250000 20.825197220 10.937800407 2.4082000256 12.000000954 274.47360229 4100.0000000 3306.0261230 6.9999995232 3.0000002384 69.000000000 13.999999046 5.0000000000
