# LAS format log file from PETREL
# Project units are specified as depth units
#==================================================================
~Version information
VERS.   2.0:
WRAP.   NO:
#==================================================================
~Well
STRT .m      4670.1455078 :
STOP .m      4804.8671875 :
STEP .m     0.00000000 :
NULL .        -999.250000 :
COMP.           : COMPANY
WELL.  Boreas 1   : WELL
FLD.            : FIELD
LOC.            : LOCATION
SRVC.           : SERVICE COMPANY
DATE.  2017-10-02 11:49:53   : Log Export Date {yyyy-MM-dd HH:mm:ss}
PROV.           : PROVINCE
UWI.   Boreas 1   : UNIQUE WELL ID
API.            : API NUMBER
#==================================================================
~Curve
DEPT .m                   : DEPTH
BIT .in                   : BIT
CAL .in                   : CAL
DRHO .g/cm3               : DRHO
DTC .us/ft                : DTC
DTS .us/ft                : DTS
GR .gAPI                  : GR
NET .m                    : NET
NPHI .m3/m3               : NPHI
PEF .b/e                  : PEF
POTA .%                   : POTA
RESD .ohm.m               : RESD
RESM .ohm.m               : RESM
RESS .ohm.m               : RESS
RHOB .g/cm3               : RHOB
ROP .m/h                  : ROP
THOR .ppm                 : THOR
URAN .ppm                 : URAN
IC4 .%                    : IC4
C2 .%                     : C2
TGAS .%                   : TGAS
C1 .%                     : C1
IC5 .%                    : IC5
NC5 .%                    : NC5
C3 .%                     : C3
NC4 .%                    : NC4
Casing ._                 : Casing
~Parameter
#==================================================================
~Ascii
# ...
 4782.3120117 8.5000000000 8.4566001892 0.0135000004 56.491409302 106.45290375 68.465797424  -999.250000 0.1299999952 4.1922998428 0.4499999881 14.036700249 14.541000366 13.559399605 2.6898999214 20.692913055 9.9844999313 3.8029999733 15.000000000 339.37600708 6550.3999023 5582.0322266 6.9999995232 3.0000002384 83.375999451 16.624000549 7.6300001144
 4782.4643555 8.5000000000 8.4490995407 0.0076000001 56.317878723 111.50229645 68.209503174  -999.250000 0.1312000006 3.9500999451 0.5000000000 14.883899689 15.532799721 14.437700272 2.7081999779 13.492913246 10.419300079 3.5148999691 15.000000000 339.07119751 6428.4799805 5457.9785156 6.9999995232 3.0000002384 83.071197510 16.928800583 7.6300001144
 4782.6166992 8.5000000000 8.4465999603 0.0074999998 56.338840485 113.38939667 70.688499451  -999.250000 0.1326999962 4.1975998878 0.4900000095 13.093899727 13.208499908 13.210900307 2.7416000366 14.570078850 11.272800446 3.5459001064 15.000000000 336.66397095 6329.9199219 5375.9731445 6.9999995232 2.7664000988 82.766403198 16.766399384 7.6300001144
 4782.7690430 8.5000000000 8.4552001953 0.0104999999 56.129798889 111.91629791 72.693702698  -999.250000 0.1298000067 4.4725999832 0.5199999809 12.085499763 12.041099548 11.636099815 2.7600998878 18.170078278 12.165900230 3.3531000614 15.000000000 333.61599731 6238.4799805 5306.7832031 6.9999995232 2.4615998268 82.461601257 16.461599350 7.6300001144
 4782.9213867 8.5000000000 8.4540996552 0.0081000002 55.774780273 111.71289825 72.772399902  -999.250000 0.1310999990 4.7869000435 0.5500000119 11.294799805 11.159999847 10.812600136 2.7249000072 21.770078659 12.659000397 3.0948998928 15.000000000 330.56799316 6147.0400391 5237.5942383 6.9999995232 2.1568000317 82.156799316 16.156799316 7.6300001144
 4783.0742188 8.5000000000 8.4516000748 0.0077000000 56.356609344 110.94360352 69.787200928  -999.250000 0.1312028915 4.3015999794 0.5000000000 12.149000168 12.007100105 11.312700272 2.6915574074 25.370079041 12.695300102 2.8189001083 15.000000000 326.92800903 6026.0000000 5132.1440430 7.2960004807 2.1480000019 81.555999756 16.148000717 7.6300001144
 4783.2265625 8.5000000000 8.4589996338 0.0111999996 56.708148956 112.10980988 67.674797058  -999.250000 0.1320920140 4.1092000008 0.4900000095 13.733699799 13.352399826 12.719799995 2.6783344746 28.970079422 12.252900124 2.8166999817 15.000000000 322.66079712 5873.6000977 4988.2778320 7.9056005478 2.4528000355 80.641601563 16.452800751 7.6300001144
 4783.3789063 8.5000000000 8.4441003799 0.0142000001 60.869659424 112.99590302 65.590202332  -999.250000 0.1296000034 4.0641999245 0.5099999905 14.833700180 14.675700188 13.921600342 2.6891000271 32.570079803 11.827599525 2.6273999214 15.000000000 318.39358521 5721.2001953 4844.4130859 8.5151996613 2.7576000690 79.727203369 16.757600784 7.6300001144
 4783.5312500 8.5000000000 8.4465999603 0.0142000001 59.534698486 111.52680206 67.785301208  -999.250000 0.1301999986 4.1589999199 0.5299999714 15.230999947 15.255499840 15.240699768 2.6968998909 34.696063995 12.347800255 2.7093000412 14.937600136 313.87680054 5575.0400391 4709.2832031 9.0000000000 3.0624001026 78.812797546 16.937599182 7.6300001144
 4783.6835938 8.5000000000 8.4566001892 0.0130000003 58.089439392 112.98619843 66.152297974  -999.250000 0.1296000034 4.3029999733 0.5099999905 15.883000374 16.111700058 15.176899910 2.6940000057 31.096061707 13.034799576 2.2500998974 14.632801056 308.39041138 5453.1201172 4608.0898438 9.0000000000 3.3671998978 77.898399353 16.632799149 7.6300001144
 4783.8359375 8.5000000000 8.4566001892 0.0148000000 67.967941284 114.17030334 67.992698669  -999.250000 0.1254999936 4.4601998329 0.4799999893 16.348199844 16.799400330 15.155200005 2.6984000206 27.496063232 13.167499542 2.4418001175 14.328000069 302.90399170 5331.2001953 4506.8959961 9.0000000000 3.6719999313 76.984001160 16.327999115 7.6300001144
 4783.9882813 8.5000000000 8.4415998459 0.0156999994 64.822540283 114.22829437 65.960098267  -999.250000 0.1260000020 4.8649997711 0.4699999988 16.230400085 17.364999771 15.998600006 2.7007000446 23.896064758 13.374899864 2.0071001053 14.023200035 297.41760254 5209.2797852 4405.7031250 9.0000000000 3.9767999649 76.069602966 16.023199081 7.6300001144
 4784.1406250 8.5000000000 8.4589996338 0.0172000006 64.522186279 113.86260986 65.167098999  -999.250000 0.1289999932 4.8818998337 0.4600000083 14.972399712 15.339300156 14.547800064 2.7004001141 26.948032379 12.986599922 2.0014998913 13.436800003 277.28799438 4833.9199219 4046.5629883 8.1552000046 3.7184000015 72.339202881 15.155200005 7.6300001144
 4784.2929688 8.5000000000 8.4579000473 0.0160000008 60.493728638 112.14289093 66.948303223  -999.250000 0.1319999993 4.9117999077 0.4900000095 13.116900444 13.550600052 13.792200089 2.6918001175 30.548030853 13.097499847 2.0885999203 12.827199936 255.95199585 4437.6801758 3666.1733398 7.2408003807 3.4135999680 68.376800537 14.240799904 7.6300001144
 4784.4458008 8.5000000000 8.4540996552 0.0144999996 53.738491058 113.44319916 66.397102356  -999.250000 0.1292006373 4.6865000725 0.5099999905 12.009900093 12.201999664 12.120900154 2.6938130856 34.148033142 12.568900108 2.0940999985 12.217599869 234.61599731 4041.4399414 3285.7819824 6.3263998032 3.1087999344 64.414398193 13.326399803 7.6300001144
 4784.5981445 8.5000000000 8.4516000748 0.0131000001 51.363330841 113.76660919 68.868896484  -999.250000 0.1294000000 4.7768001556 0.5199999809 13.551199913 13.482299805 12.927000046 2.6979000568 35.433071136 12.946000099 2.2741999626 12.196000099 226.02001953 3880.3996582 3133.7319336 6.0000004768 2.8039999008 62.803997040 13.000000000 7.6300001144
 4784.7504883 8.5000000000 8.4540996552 0.0148000000 52.351181030 110.71109772 68.527000427  -999.250000 0.1297000051 4.7252001762 0.5500000119 13.603500366 15.003499985 13.963000298 2.7123999596 35.433071136 12.916199684 2.1782999039 12.500801086 224.49600220 3849.9199219 3108.4340820 6.0000004768 2.4992001057 62.499202728 13.000000000 7.6300001144
 4784.9028320 8.5000000000 8.4589996338 0.0228000004 53.400779724 111.16510010 70.849296570  -999.250000 0.1307999939 4.7532000542 0.6100000143 15.129599571 16.436300278 15.374300003 2.7230000496 35.433071136 13.661899567 1.9359999895 12.805600166 222.97200012 3819.4399414 3083.1350098 6.0000004768 2.1944000721 62.194400787 13.000000000 7.6300001144
 4785.0551758 8.5000000000 8.4516000748 0.0293000005 55.356246948 113.09010315 70.883201599  -999.250000 0.1309999973 5.1368999481 0.5699999928 15.602100372 17.683000565 16.468000412 2.7283999920 38.040946960 13.107099533 2.3057999611 13.000000000 221.77919006 3777.9199219 3045.9140625 6.1104001999 2.1103999615 61.779205322 13.000000000 7.6300001144
 4785.2075195 8.5000000000 8.4415998459 0.0308999997 56.309638977 112.53790283 68.589897156  -999.250000 0.1312000006 4.8447999954 0.6100000143 16.220600128 18.627199173 17.231599808 2.7218000889 45.240943909 12.904000282 2.0118999481 13.000000000 221.16961670 3716.9599609 2987.6970215 6.4152002335 2.4151999950 61.169601440 13.000000000 7.6300001144
 4785.3598633 8.5000000000 8.4465999603 0.0295000002 55.306209564 113.50959778 67.853500366  -999.250000 0.1271000057 4.8468999863 0.6399999857 17.802099228 18.719999313 17.656600952 2.7109000683 52.440944672 12.068099976 2.2225000858 13.000000000 220.55999756 3656.0000000 2929.4799805 6.7199997902 2.7200000286 60.559997559 13.000000000 7.6300001144
 4785.5122070 8.5000000000 8.4469003677 0.0381000005 54.735019684 115.52529907 67.211700439  -999.250000 0.1265999973 4.7112998962 0.6700000167 20.763299942 22.173299789 20.649200439 2.7207000256 59.640945435 12.602299690 1.8250000477 13.000000000 220.39680481 3600.0002441 2876.0000000 6.9999995232 3.0000002384 60.049598694 13.024800301 7.6300001144
 4785.6650391 8.5000000000 8.4242000580 0.0383000001 53.698230743 113.95279694 64.757400513  -999.250000 0.1262987256 4.8625998497 0.6399999857 25.783899307 26.943500519 23.651800156 2.7174403667 66.840942383 11.747699738 1.9371999502 13.000000000 225.27360535 3600.0002441 2876.0000000 6.9999995232 3.0000002384 60.659194946 13.329601288 7.6300001144
