# LAS format log file from PETREL
# Project units are specified as depth units
#==================================================================
~Version information
VERS.   2.0:
WRAP.   NO:
#==================================================================
~Well
STRT .m      4670.1455078 :
STOP .m      4804.8671875 :
STEP .m     0.00000000 :
NULL .        -999.250000 :
COMP.           : COMPANY
WELL.  Boreas 1   : WELL
FLD.            : FIELD
LOC.            : LOCATION
SRVC.           : SERVICE COMPANY
DATE.  2017-10-02 11:49:53   : Log Export Date {yyyy-MM-dd HH:mm:ss}
PROV.           : PROVINCE
UWI.   Boreas 1   : UNIQUE WELL ID
API.            : API NUMBER
#==================================================================
~Curve
DEPT .m                   : DEPTH
BIT .in                   : BIT
CAL .in                   : CAL
DRHO .g/cm3               : DRHO
DTC .us/ft                : DTC
DTS .us/ft                : DTS
GR .gAPI                  : GR
NET .m                    : NET
NPHI .m3/m3               : NPHI
PEF .b/e                  : PEF
POTA .%                   : POTA
RESD .ohm.m               : RESD
RESM .ohm.m               : RESM
RESS .ohm.m               : RESS
RHOB .g/cm3               : RHOB
ROP .m/h                  : ROP
THOR .ppm                 : THOR
URAN .ppm                 : URAN
IC4 .%                    : IC4
C2 .%                     : C2
TGAS .%                   : TGAS
C1 .%                     : C1
IC5 .%                    : IC5
NC5 .%                    : NC5
C3 .%                     : C3
NC4 .%                    : NC4
Casing ._                 : Casing
~Parameter
#==================================================================
~Ascii
# ...
 4747.2597656 8.5000000000 9.0719003677 0.0179999992 68.722549438  -999.250000 69.392303467  -999.250000 0.3659999967 6.1799998283 0.5299999714 11.598899841 15.802900314 22.871799469 2.6651999950 83.149604797 3.9407000542 0.5174000263 2.0000000000 1.0000000000 0.0000000000 1.0000000000 0.0000000000 0.0000000000 0.0000000000 0.0000000000 7.6300001144
 4747.4125977 8.5000000000 9.0532999039 0.0204000007 68.579032898  -999.250000 67.913696289  -999.250000 0.3393105268 5.5209999084 0.5600000024 11.344799995 16.679700851 21.507200241 2.6535520554 90.349609375 3.3613998890 0.6815000176 2.0000000000 1.0000000000 0.0000000000 1.0000000000 0.0000000000 0.0000000000 0.0000000000 0.0000000000 7.6300001144
 4747.5649414 8.5000000000 8.9065999985 0.0274999999 69.657447815  -999.250000 65.464500427  -999.250000 0.3113999963 6.1230001450 0.4900000095 12.159000397 19.541999817 22.045099258 2.6698000431 92.957481384 3.0999000072 0.9390000105 2.0000000000 1.0000000000 0.0000000000 1.0000000000 0.0000000000 0.0000000000 0.0000000000 0.0000000000 7.6300001144
 4747.7172852 8.5000000000 8.9228000641 0.0372000001 70.485321045  -999.250000 66.422500610  -999.250000 0.3007999957 5.9457998276 0.5299999714 10.139300346 16.063499451 14.005999565 2.6761999130 89.357482910 2.9114000797 0.8946999907 2.0000000000 1.0000000000 0.0000000000 1.0000000000 0.0000000000 0.0000000000 0.0000000000 0.0000000000 7.6300001144
 4747.8696289 8.5000000000 8.8543996811 0.0535999984 70.965957642  -999.250000 65.854698181  -999.250000 0.3036000133 6.2392997742 0.4699999988 5.6212000847 7.3877000809 7.5219001770 2.6858999729 85.757476807 2.7420001030 1.0858000517 2.0000000000 1.0000000000 0.0000000000 1.0000000000 0.0000000000 0.0000000000 0.0000000000 0.0000000000 7.6300001144
 4748.0219727 8.5000000000 8.8791999817 0.0549999997 71.655181885  -999.250000 67.729103088  -999.250000 0.3310000002 6.7776999474 0.4000000060 3.7356998920 4.3597998619 4.7852997780 2.6644999981 82.677169800 2.7920000553 1.2446000576 2.0000000000 1.0000000000 0.0000000000 1.0000000000 0.0000000000 0.0000000000 0.0000000000 0.0000000000 7.6300001144
 4748.1743164 8.5000000000 8.9289999008 0.0489000008 71.249832153  -999.250000 74.223098755  -999.250000 0.3436000049 6.6122999191 0.3300000131 2.9934000969 3.3870000839 3.7739999294 2.6424999237 82.677169800 2.7504000664 1.1715999842 2.0000000000 1.0000000000 0.0000000000 1.0000000000 0.0000000000 0.0000000000 0.0000000000 0.0000000000 7.6300001144
 4748.3266602 8.5000000000 8.9103002548 0.0807000026 72.397666931  -999.250000 73.597297668  -999.250000 0.3470999897 7.1149001122 0.2700000107 2.8101000786 3.1621000767 3.4997999668 2.6630001068 82.677169800 2.4202001095 1.2204999924 2.0000000000 1.0000000000 0.0000000000 1.0000000000 0.0000000000 0.0000000000 0.0000000000 0.0000000000 7.6300001144
 4748.4790039 8.5000000000 8.9512996674 0.1070000008 75.586219788  -999.250000 72.532501221  -999.250000 0.3461999893 6.9426999092 0.1899999976 3.1512000561 3.5497000217 3.7909998894 2.6619000435 82.677169800 2.4340000153 1.2043000460 2.0000000000 1.0000000000 0.0000000000 1.0000000000 0.0000000000 0.0000000000 0.0000000000 0.0000000000 7.6300001144
 4748.6318359 8.5000000000 8.9600000381 0.1059999987 77.050903320  -999.250000 67.954597473  -999.250000 0.3339365423 7.9787001610 0.1500000060 4.2487001419 4.9247999191 5.0265998840 2.6485183239 79.568504333 2.0573000908 1.3161000013 2.0000000000 1.0000000000 0.0000000000 1.0000000000 0.0000000000 0.0000000000 0.0000000000 0.0000000000 7.6300001144
 4748.7841797 8.5000000000 8.9724998474 0.1066000015 76.114959717  -999.250000 65.075103760  -999.250000 0.3142172694 8.3308000565 0.1099999994 6.4794998169 7.7409000397 8.4674997330 2.6542487144 75.968498230 1.9060000181 1.2851999998 2.0000000000 1.0000000000 0.0000000000 1.0000000000 0.0000000000 0.0000000000 0.0000000000 0.0000000000 7.6300001144
 4748.9365234 8.5000000000 8.9228000641 0.1077999994 75.384361267  -999.250000 64.621498108  -999.250000 0.3195999861 6.7133998871 0.1000000015 10.135100365 13.547100067 16.450700760 2.6693999767 72.368507385 2.0292999744 1.2547999620 2.0000000000 1.0000000000 0.0000000000 1.0000000000 0.0000000000 0.0000000000 0.0000000000 0.0000000000 7.6300001144
 4749.0888672 8.5000000000 8.9041004181 0.0991000012 75.582870483  -999.250000 62.553100586  -999.250000 0.3088000119 5.9513998032 0.0500000007 13.596199989 18.777399063 30.777099609 2.6717998981 70.866142273 2.0039000511 1.2312999964 2.0000000000 1.0000000000 0.0000000000 1.0000000000 0.0000000000 0.0000000000 0.0000000000 0.0000000000 7.6300001144
 4749.2412109 8.5000000000 8.8816995621 0.0826999992 73.377708435  -999.250000 61.942600250  -999.250000 0.3140999973 5.5048999786 0.0700000003 17.010299683 23.561100006 31.703800201 2.6656000614 70.866142273 2.2363998890 1.1717000008 2.0000000000 1.0000000000 0.0000000000 1.0000000000 0.0000000000 0.0000000000 0.0000000000 0.0000000000 7.6300001144
 4749.3935547 8.5000000000 8.9041004181 0.0751999989 71.964302063  -999.250000 58.349700928  -999.250000 0.3194999993 6.7790999413 0.0500000007 17.843200684 26.277999878 31.724100113 2.6770999432 70.866142273 2.1935000420 1.2457000017 2.0000000000 1.0000000000 0.0000000000 1.0000000000 0.0000000000 0.0000000000 0.0000000000 0.0000000000 7.6300001144
 4749.5458984 8.5000000000 8.8791999817 0.0710000023 72.612060547  -999.250000 55.053199768  -999.250000 0.3397000134 6.8863000870 0.0700000003 21.448499680 30.524799347 34.122200012 2.6870000362 70.866142273 2.2263998985 1.1691999435 2.0000000000 1.0000000000 0.0000000000 1.0000000000 0.0000000000 0.0000000000 0.0000000000 0.0000000000 7.6300001144
 4749.6982422 8.5000000000 8.8668003082 0.0788000003 72.209396362  -999.250000 60.145099640  -999.250000 0.3438999951 7.6224999428 0.0599999987 25.638399124 43.022098541 28.525400162 2.7014000416 70.866142273 2.0624001026 1.3423000574 2.0000000000 1.0000000000 0.0000000000 1.0000000000 0.0000000000 0.0000000000 0.0000000000 0.0000000000 7.6300001144
 4749.8505859 8.5000000000 8.8357000351 0.0531999990 72.541076660  -999.250000 68.948997498  -999.250000 0.3596000075 6.8214001656 0.0599999987 18.827400208 29.076799393 18.379899979 2.6791000366 70.866142273 2.1891999245 1.3221000433 2.0000000000 1.0000000000 0.0000000000 1.0000000000 0.0000000000 0.0000000000 0.0000000000 0.0000000000 7.6300001144
 4750.0034180 8.5000000000 8.8357000351 0.0212999992 72.322746277  -999.250000 71.823097229  -999.250000 0.3655797839 6.7550001144 0.0700000003 13.797400475 18.488800049 12.553799629 2.6407601833 70.866142273 2.3166999817 1.4342000484 2.0000000000 1.0000000000 0.0000000000 1.0000000000 0.0000000000 0.0000000000 0.0000000000 0.0000000000 7.6300001144
 4750.1557617 8.5000000000 8.8121004105 0.0370000005 71.466529846  -999.250000 67.534400940  -999.250000 0.3592377007 6.4074001312 0.0700000003 11.166000366 13.396800041 10.927800179 2.6283850670 70.866142273 1.9711999893 1.5132999420 2.0000000000 1.0000000000 0.0000000000 1.0000000000 0.0000000000 0.0000000000 0.0000000000 0.0000000000 7.6300001144
 4750.3081055 8.5000000000 8.8046998978 0.0608999990 71.245193481  -999.250000 60.201198578  -999.250000 0.3398000002 6.3923997879 0.0599999987 12.227100372 15.355299950 11.851799965 2.6236999035 70.866142273 2.3980000019 1.2602000237 2.0000000000 1.0000000000 0.0000000000 1.0000000000 0.0000000000 0.0000000000 0.0000000000 0.0000000000 7.6300001144
 4750.4604492 8.5000000000 8.8170995712 0.0601999983 70.823150635  -999.250000 61.542499542  -999.250000 0.3271000087 7.1905999184 0.0599999987 16.291299820 20.480499268 13.339500427 2.6191999912 70.866142273 2.2021000385 1.2092000246 2.0000000000 1.0000000000 0.0000000000 1.0000000000 0.0000000000 0.0000000000 0.0000000000 0.0000000000 7.6300001144
 4750.6127930 8.5000000000 8.8233003616 0.0728000030 69.978958130  -999.250000 65.673599243  -999.250000 0.3140000105 6.9607000351 0.0399999991 15.233200073 17.525699615 12.061200142 2.6514000893 73.530708313 2.1493999958 1.3430999517 2.0000000000 1.0000000000 0.0000000000 1.0000000000 0.0000000000 0.0000000000 0.0000000000 0.0000000000 7.6300001144
