# LAS format log file from PETREL
# Project units are specified as depth units
#==================================================================
~Version information
VERS.   2.0:
WRAP.   NO:
#==================================================================
~Well
STRT .m      4670.1455078 :
STOP .m      4804.8671875 :
STEP .m     0.00000000 :
NULL .        -999.250000 :
COMP.           : COMPANY
WELL.  Boreas 1   : WELL
FLD.            : FIELD
LOC.            : LOCATION
SRVC.           : SERVICE COMPANY
DATE.  2017-10-02 11:49:53   : Log Export Date {yyyy-MM-dd HH:mm:ss}
PROV.           : PROVINCE
UWI.   Boreas 1   : UNIQUE WELL ID
API.            : API NUMBER
#==================================================================
~Curve
DEPT .m                   : DEPTH
BIT .in                   : BIT
CAL .in                   : CAL
DRHO .g/cm3               : DRHO
DTC .us/ft                : DTC
DTS .us/ft                : DTS
GR .gAPI                  : GR
NET .m                    : NET
NPHI .m3/m3               : NPHI
PEF .b/e                  : PEF
POTA .%                   : POTA
RESD .ohm.m               : RESD
RESM .ohm.m               : RESM
RESS .ohm.m               : RESS
RHOB .g/cm3               : RHOB
ROP .m/h                  : ROP
THOR .ppm                 : THOR
URAN .ppm                 : URAN
IC4 .%                    : IC4
C2 .%                     : C2
TGAS .%                   : TGAS
C1 .%                     : C1
IC5 .%                    : IC5
NC5 .%                    : NC5
C3 .%                     : C3
NC4 .%                    : NC4
Casing ._                 : Casing
~Parameter
#==================================================================
~Ascii
# ...
 4694.6821289 8.5000000000 8.6802997589 0.0337999985 89.166679382  -999.250000 130.28770447  -999.250000 0.4970000088 5.5836000443 0.6899999976 1.5123000145 1.5174000263 1.5820000172 2.6268000603 70.866142273 11.673199654 2.8050000668 17.000000000 510.17602539 7763.6005859 6455.8041992 9.0000000000 5.6360006332 120.63600159 22.364000320 7.6300001144
 4694.8344727 8.5000000000 8.7114000320 0.0322999991 89.809837341  -999.250000 124.44309998  -999.250000 0.5117999911 5.6339001656 0.7200000286 1.3905999660 1.3727999926 1.4486999512 2.6142001152 70.866142273 11.497599602 2.6396000385 17.000000000 505.29919434 7733.1201172 6443.9169922 9.0000000000 5.3312001228 120.33119965 22.668800354 7.6300001144
 4694.9868164 8.5000000000 8.6864995956 0.0308999997 88.583213806  -999.250000 116.58719635  -999.250000 0.4900000095 6.1518001556 0.6899999976 1.4641000032 1.4369000196 1.4592000246 2.6184999943 70.866142273 10.853500366 2.5511999130 17.000000000 500.42239380 7702.6401367 6432.0297852 9.0000000000 5.0264000893 120.02639771 22.973600388 7.6300001144
 4695.1391602 8.5000000000 8.6976995468 0.0333000049 89.400466919  -999.250000 107.68060303  -999.250000 0.5066999793 5.8199000359 0.7200000286 1.5062999725 1.4671000242 1.5011999607 2.6375000477 70.866142273 10.521200180 2.5148999691 17.000000000 501.67041016 7700.0000000 6435.7329102 8.7215995789 5.0000000000 120.27838898 22.721599579 7.6300001144
 4695.2915039 8.5000000000 8.6927995682 0.0294000003 91.093719482  -999.250000 106.78569794  -999.250000 0.5029000044 5.8361001015 0.7599999905 1.4315999746 1.4056999683 1.4603999853 2.6266999245 70.866142273 10.043999672 2.3455998898 17.000000000 503.49917603 7700.0000000 6440.9150391 8.4167995453 5.0000000000 120.58319855 22.416799545 7.6300001144
 4695.4438477 8.5000000000 8.7052001953 0.0159000009 94.122695923  -999.250000 111.57589722  -999.250000 0.5005000234 5.2199997902 0.8199999928 1.3595999479 1.3594000340 1.4183000326 2.5715000629 70.866142273 9.6176004410 2.2660999298 17.000000000 505.32800293 7700.0000000 6446.0966797 8.1120004654 5.0000000000 120.88800049 22.111997604 7.6300001144
 4695.5961914 8.5000000000 8.7052001953 0.0113000004 96.114402771  -999.250000 115.16200256  -999.250000 0.4887000024 5.3585000038 0.8500000238 1.3263000250 1.3322999477 1.3937000036 2.5527000427 70.866142273 8.5374002457 2.4705998898 17.192800522 505.22879028 7738.5600586 6470.7500000 7.8071999550 4.8071999550 121.38559723 22.000000000 7.6300001144
 4695.7490234 8.5000000000 8.6927995682 0.0143999998 96.465728760  -999.250000 106.09570313  -999.250000 0.4914820492 5.2330999374 0.8700000048 1.2947000265 1.3200999498 1.3980000019 2.5808591843 70.866142273 8.5600004196 2.1370999813 17.497600555 504.00964355 7799.5200195 6506.7163086 7.5023999214 4.5023999214 121.99520111 22.000000000 7.6300001144
 4695.9013672 8.5000000000 8.6990003586 0.0170000009 95.912162781  -999.250000 91.962799072  -999.250000 0.4858744442 6.0883002281 0.8899999857 1.2541999817 1.3072999716 1.4035999775 2.6305172443 70.866142273 8.0396995544 1.8942999840 17.802400589 502.79040527 7860.4799805 6542.6835938 7.1975994110 4.1975998878 122.60480499 22.000000000 7.6300001144
 4696.0537109 8.5000000000 8.6927995682 0.0148000000 94.690963745  -999.250000 86.460601807  -999.250000 0.4778999984 6.4924998283 0.8899999857 1.2266000509 1.3178999424 1.3913999796 2.6670999527 69.600006104 7.2663002014 1.9156999588 18.000000000 502.53601074 7910.7202148 6575.1118164 7.1072001457 3.8928000927 123.10720062 21.892799377 7.6300001144
 4696.2060547 8.5000000000 8.6976995468 0.0133999996 94.633796692  -999.250000 88.174797058  -999.250000 0.4932000041 7.1377000809 0.8799999952 1.1875000000 1.3077000380 1.3903000355 2.6737999916 66.000000000 6.8731999397 1.7022999525 18.000000000 504.06002808 7941.2001953 6601.0200195 7.4120001793 3.5880000591 123.41200256 21.587999344 7.6300001144
 4696.3583984 8.5000000000 8.6802997589 0.0138999997 93.280639648  -999.250000 94.643402100  -999.250000 0.4986000061 7.0936999321 0.9200000167 1.1610000134 1.3603999615 1.4449000359 2.6877999306 62.400001526 6.6754999161 1.5707000494 18.000000000 505.58404541 7971.6801758 6626.9282227 7.7168002129 3.2832000256 123.71679688 21.283197403 7.6300001144
 4696.5107422 8.5000000000 8.7114000320 0.0175999999 92.320953369  -999.250000 87.986000061  -999.250000 0.4984000027 7.2870998383 0.9399999976 1.1647000313 1.3335000277 1.4471999407 2.7070000172 59.310237885 6.0942001343 1.5311000347 18.000000000 507.28082275 8002.1601563 6653.7431641 8.0215997696 3.0216002464 124.06479645 21.043199539 7.6300001144
 4696.6630859 8.5000000000 8.6864995956 0.0197000001 92.329277039  -999.250000 89.824096680  -999.250000 0.4862999916 7.2027001381 0.9900000095 1.0759999752 1.2173999548 1.3476999998 2.7090001106 62.910232544 6.1409997940 1.6260000467 18.000000000 511.24322510 8032.6401367 6692.4531250 8.3263998032 3.3264002800 124.97920990 21.652799606 7.6300001144
 4696.8154297 8.5000000000 8.7114000320 0.0239000004 90.081703186  -999.250000 85.800399780  -999.250000 0.4860999882 7.1610999107 1.0599999428 1.0138000250 1.1105999947 1.2344000340 2.7198998928 66.510238647 6.3491001129 1.6232999563 18.000000000 515.20562744 8063.1201172 6731.1630859 8.6311998367 3.6311998367 125.89359283 22.262399673 7.6300001144
 4696.9677734 8.5000000000 8.6864995956 0.0236000009 90.273651123  -999.250000 98.397499084  -999.250000 0.4638999999 7.0732002258 1.0700000525 0.9722999930 1.0499000549 1.1809999943 2.7153999805 70.110237122 6.2034001350 1.9427000284 18.000000000 519.16802979 8093.6000977 6769.8725586 8.9359998703 3.9360001087 126.80799866 22.871999741 7.6300001144
 4697.1206055 8.5000000000 8.7076997757 0.0272000004 92.005409241  -999.250000 100.09989929  -999.250000 0.4670329094 7.3870000839 1.1000000238 0.9445000291 1.0277999640 1.1320999861 2.7370181084 76.554328918 6.2027001381 1.7682000399 18.240800858 522.64880371 8100.0000000 6781.8530273 8.7592000961 4.0000000000 127.00000000 23.000000000 7.6300001144
 4697.2729492 8.5000000000 8.6990003586 0.0303000007 93.204338074  -999.250000 103.10479736  -999.250000 0.4460999966 7.4794998169 1.1200000048 0.9017000198 0.9887999892 1.0956000090 2.7427000999 83.754333496 6.4201002121 1.5844000578 18.545600891 526.00158691 8100.0000000 6786.7290039 8.4544000626 4.0000000000 127.00000000 23.000000000 7.6300001144
 4697.4252930 8.5000000000 8.7175998688 0.0342999995 95.398582458  -999.250000 90.891601563  -999.250000 0.4447999895 7.7909998894 1.1699999571 0.8309999704 0.9401000142 1.0299999714 2.7441999912 90.954330444 6.3062000275 1.7188999653 18.850400925 529.35437012 8100.0000000 6791.6059570 8.1496000290 4.0000000000 127.00000000 23.000000000 7.6300001144
 4697.5776367 8.5000000000 8.7175998688 0.0292000007 96.594009399  -999.250000 85.637001038  -999.250000 0.4374000132 7.9239001274 1.2999999523 0.7641000152 0.8858000040 0.9919000268 2.7328999043 92.655120850 6.3653998375 1.7941000462 19.000000000 530.53442383 8131.0405273 6811.3808594 8.0000000000 4.1552000046 127.62080383 23.000000000 7.6300001144
 4697.7299805 8.5000000000 8.7237997055 0.0304000005 97.052146912  -999.250000 84.931396484  -999.250000 0.4438000023 8.7642002106 1.4400000572 0.6877999902 0.8417000175 0.9567000270 2.7284998894 89.055114746 6.5416002274 1.7361999750 19.000000000 529.61999512 8192.0000000 6845.5200195 8.0000000000 4.4600000381 128.83999634 23.000000000 7.6300001144
 4697.8823242 8.5000000000 8.7237997055 0.0339000002 97.482902527  -999.250000 87.703002930  -999.250000 0.4347000122 9.2767000198 1.5000000000 0.6636999846 0.8244000077 0.9599000216 2.7193999290 85.455123901 6.4223999977 1.5930999517 19.000000000 528.70562744 8252.9599609 6879.6582031 8.0000000000 4.7648000717 130.05920410 23.000000000 7.6300001144
 4698.0346680 8.5000000000 8.7325000763 0.0317000002 96.226867676  -999.250000 88.469398499  -999.250000 0.4314000010 9.8557996750 1.5499999523 0.6776000261 0.8618999720 1.0204000473 2.7056999207 81.855117798 6.1595001221 1.5391000509 19.000000000 529.39202881 8306.9599609 6911.8461914 8.0000000000 4.9304003716 131.06959534 23.000000000 7.6300001144
