# LAS format log file from PETREL
# Project units are specified as depth units
#==================================================================
~Version information
VERS.   2.0:
WRAP.   NO:
#==================================================================
~Well
STRT .m      4670.1455078 :
STOP .m      4804.8671875 :
STEP .m     0.00000000 :
NULL .        -999.250000 :
COMP.           : COMPANY
WELL.  Boreas 1   : WELL
FLD.            : FIELD
LOC.            : LOCATION
SRVC.           : SERVICE COMPANY
DATE.  2017-10-02 11:49:53   : Log Export Date {yyyy-MM-dd HH:mm:ss}
PROV.           : PROVINCE
UWI.   Boreas 1   : UNIQUE WELL ID
API.            : API NUMBER
#==================================================================
~Curve
DEPT .m                   : DEPTH
BIT .in                   : BIT
CAL .in                   : CAL
DRHO .g/cm3               : DRHO
DTC .us/ft                : DTC
DTS .us/ft                : DTS
GR .gAPI                  : GR
NET .m                    : NET
NPHI .m3/m3               : NPHI
PEF .b/e                  : PEF
POTA .%                   : POTA
RESD .ohm.m               : RESD
RESM .ohm.m               : RESM
RESS .ohm.m               : RESS
RHOB .g/cm3               : RHOB
ROP .m/h                  : ROP
THOR .ppm                 : THOR
URAN .ppm                 : URAN
IC4 .%                    : IC4
C2 .%                     : C2
TGAS .%                   : TGAS
C1 .%                     : C1
IC5 .%                    : IC5
NC5 .%                    : NC5
C3 .%                     : C3
NC4 .%                    : NC4
Casing ._                 : Casing
~Parameter
#==================================================================
~Ascii
# ...
 4722.7236328 8.5000000000 8.7237997055 0.0537000000 102.83049774  -999.250000 94.950798035  -999.250000 0.3923000097 7.7063999176 1.7899999619 0.7822999954 0.9006000161 1.0795999765 2.6932001114 82.677169800 5.8822999001 1.1585999727 19.000000000 401.86959839 5855.2797852 4870.1679688 8.5528001785 4.5528001785 113.55280304 23.000000000 7.6300001144
 4722.8759766 8.5000000000 8.7363004684 0.0568000004 101.10269928  -999.250000 88.405502319  -999.250000 0.3986999989 8.0658998489 1.7699999809 0.8003000021 0.8932999969 1.0621999502 2.6965999603 82.677169800 5.7681999207 1.2038999796 19.000000000 399.73599243 5824.7993164 4851.8798828 8.2480001450 4.2480001450 113.24800873 23.000000000 7.6300001144
 4723.0283203 8.5000000000 8.7175998688 0.0505999997 98.774147034  -999.250000 90.982498169  -999.250000 0.4036000073 8.1035995483 1.6799999475 0.7538999915 0.8076000214 0.9193000197 2.6889998913 82.677169800 5.3534998894 1.2881000042 19.000000000 397.99996948 5800.0000000 4835.1250000 8.0000000000 4.0000000000 113.00000000 23.000000000 7.6300001144
 4723.1806641 8.5000000000 8.7487001419 0.0370000005 97.776176453  -999.250000 90.599296570  -999.250000 0.4032999873 7.2800998688 1.5800000429 0.6705999970 0.6624000072 0.7462000251 2.6758999825 82.677169800 5.2090001106 1.6190999746 19.000000000 397.99996948 5800.0000000 4825.0668945 8.0000000000 4.0000000000 113.00000000 23.000000000 7.6300001144
 4723.3330078 8.5000000000 8.7114000320 0.0401999988 96.219322205  -999.250000 96.468696594  -999.250000 0.3993000090 7.3708000183 1.6299999952 0.6200000048 0.6137999892 0.6937999725 2.6977000237 82.677169800 5.6143999100 1.5663000345 19.000000000 397.99996948 5800.0000000 4815.0087891 8.0000000000 4.0000000000 113.00000000 23.000000000 7.6300001144
 4723.4858398 8.5000000000 8.7487001419 0.0335999988 99.765319824  -999.250000 99.600601196  -999.250000 0.4016285241 8.0562000275 1.6499999762 0.6578000188 0.6589999795 0.7361999750 2.7063343525 82.677169800 6.1729001999 1.4701999426 19.000000000 397.99996948 5800.0000000 4804.9501953 8.0000000000 4.0000000000 113.00000000 23.000000000 7.6300001144
 4723.6381836 8.5000000000 8.7114000320 0.0309999995 102.76860046  -999.250000 100.55860138  -999.250000 0.4105249047 8.3366003036 1.6599999666 0.7235000134 0.7235999703 0.7803000212 2.7169804573 82.677169800 6.1616001129 1.3409999609 19.000000000 396.89599609 5772.3999023 4787.1640625 8.0000000000 4.0000000000 113.00000000 23.000000000 7.6300001144
 4723.7905273 8.5000000000 8.7375001907 0.0280000009 101.72649384  -999.250000 101.48860168  -999.250000 0.4183000028 7.9031000137 1.5700000525 0.8335000277 0.8008000255 0.8485999703 2.7109000683 82.677169800 6.0384998322 1.4773999453 19.000000000 395.67675781 5741.9199219 4768.5708008 8.0000000000 4.0000000000 113.00000000 23.000000000 7.6300001144
 4723.9428711 8.5000000000 8.7300996780 0.0284000002 100.12300110  -999.250000 100.47699738  -999.250000 0.4289000034 7.4429001808 1.5299999714 0.8996999860 0.8780000210 0.9337000251 2.6865000725 82.677169800 6.1985001564 1.3320000172 19.000000000 394.45761108 5711.4399414 4749.9790039 8.0000000000 4.0000000000 113.00000000 23.000000000 7.6300001144
 4724.0952148 8.5000000000 8.7300996780 0.0148000000 99.026580811  -999.250000 102.39309692  -999.250000 0.4436999857 6.7355999947 1.5900000334 0.8727999926 0.8215000033 0.8978999853 2.6500999928 82.677169800 6.1886000633 1.3269000053 18.809600830 393.23840332 5700.0000000 4734.8129883 8.0000000000 4.0000000000 112.61920166 23.000000000 7.6300001144
 4724.2475586 8.5000000000 8.7363004684 0.0137000000 96.680496216  -999.250000 104.05500031  -999.250000 0.4393000007 6.5240998268 1.6000000238 0.8234999776 0.7728999853 0.8324000239 2.6435000896 82.677169800 6.8661999702 1.1426999569 18.504800797 392.01919556 5700.0000000 4721.7070313 8.0000000000 4.0000000000 112.00960541 23.000000000 7.6300001144
 4724.3999023 8.5000000000 8.7487001419 0.0170000009 94.488334656  -999.250000 106.72480011  -999.250000 0.4361000061 6.4418001175 1.6299999952 0.7698000073 0.7294999957 0.7821999788 2.6549999714 82.677169800 6.9973001480 1.3083000183 18.200000763 390.79998779 5700.0000000 4708.6000977 8.0000000000 4.0000000000 111.40000153 23.000000000 7.6300001144
 4724.5522461 8.5000000000 8.7573995590 0.0157999992 94.588638306  -999.250000 105.83010101  -999.250000 0.4199999869 7.0299000740 1.6200000048 0.7498000264 0.7207999825 0.7800999880 2.6731998920 81.439369202 7.5813999176 1.1621999741 18.104799271 390.20959473 5700.0000000 4703.0390625 8.0000000000 4.0000000000 111.10479736 23.000000000 7.6300001144
 4724.7045898 8.5000000000 8.7673997879 0.0111999996 93.939620972  -999.250000 101.80860138  -999.250000 0.4384999871 6.9586000443 1.5599999428 0.7851999998 0.7616000175 0.7883999944 2.6796998978 77.839370728 7.4079999924 1.2256000042 18.409599304 390.81921387 5700.0000000 4711.8779297 8.0000000000 4.0000000000 111.40959167 23.000000000 7.6300001144
 4724.8574219 8.5000000000 8.7798004150 0.0093999999 99.269813538  -999.250000 101.61699677  -999.250000 0.4320198894 7.5732002258 1.5399999619 0.8242999911 0.8094000220 0.8287000060 2.7103307247 74.239372253 7.0002999306 1.0671000481 18.714399338 391.42880249 5700.0000000 4720.7177734 8.0000000000 4.0000000000 111.71439362 23.000000000 7.6300001144
 4725.0097656 8.5000000000 8.7487001419 0.0082999999 97.835327148  -999.250000 103.27819824  -999.250000 0.4381782711 7.1329002380 1.5099999905 0.8485999703 0.8492000103 0.8597000241 2.7199692726 71.092918396 7.1031999588 1.1914000511 19.000000000 391.84640503 5698.0800781 4727.2529297 8.0000000000 4.0000000000 111.96160126 22.980800629 7.6300001144
 4725.1621094 8.5000000000 8.7798004150 0.0073000002 103.56449890  -999.250000 105.76679993  -999.250000 0.4314000010 7.7849001884 1.5599999428 0.8377000093 0.8431000113 0.8909999728 2.7416000366 74.692909241 6.8585000038 1.3897999525 19.000000000 389.40798950 5667.6000977 4699.5161133 8.0000000000 4.0000000000 111.35199738 22.676000595 7.6300001144
 4725.3144531 8.5000000000 8.7573995590 0.0044999998 102.90809631  -999.250000 103.76640320  -999.250000 0.4467000067 7.2354001999 1.6000000238 0.8719999790 0.8420000076 0.9035000205 2.7335000038 78.292915344 6.9650998116 1.4579999447 19.000000000 386.96960449 5637.1201172 4671.7788086 8.0000000000 4.0000000000 110.74240112 22.371198654 7.6300001144
 4725.4667969 8.5000000000 8.7673997879 0.0057999999 103.18119812  -999.250000 100.12590027  -999.250000 0.4848000109 7.7150998116 1.5800000429 0.8896999955 0.8439000249 0.8992000222 2.7284998894 81.892913818 6.8656997681 1.4577000141 19.000000000 384.53121948 5606.6401367 4644.0419922 8.0000000000 4.0000000000 110.13279724 22.066400528 7.6300001144
 4725.6191406 8.5000000000 8.7610998154 0.0078999996 101.52909088  -999.250000 103.64420319  -999.250000 0.4864999950 7.7354001999 1.5700000525 0.9129999876 0.8524000049 0.8928999901 2.7125999928 82.677169800 6.7199997902 1.6455999613 19.000000000 381.85440063 5600.0000000 4630.8481445 8.2384004593 4.0000000000 109.28479767 22.000000000 7.6300001144
 4725.7714844 8.5000000000 8.7673997879 0.0097000012 100.09190369  -999.250000 101.94100189  -999.250000 0.4945999980 7.7062997818 1.5700000525 0.9362000227 0.8295000196 0.8659999967 2.7161002159 82.677169800 7.1666002274 1.6814999580 19.000000000 379.11123657 5600.0000000 4621.7041016 8.5431995392 4.0000000000 108.37039948 22.000000000 7.6300001144
 4725.9238281 8.5000000000 8.7548999786 0.0109999999 98.606330872  -999.250000 107.88079834  -999.250000 0.4474999905 7.7838997841 1.6100000143 0.8891999722 0.7998999953 0.8307999969 2.7358000278 82.677169800 7.0524001122 1.5340000391 19.000000000 376.36801147 5600.0000000 4612.5600586 8.8479995728 4.0000000000 107.45600128 22.000000000 7.6300001144
 4726.0761719 8.5000000000 8.7722997665 0.0144999996 97.412666321  -999.250000 104.18699646  -999.250000 0.4532000124 7.8657999039 1.5700000525 0.8647999763 0.7845000029 0.8105999827 2.7578001022 82.677169800 6.9138998985 1.4388999939 19.000000000 375.00000000 5600.0000000 4612.2778320 8.8472003937 4.0000000000 107.15279388 22.000000000 7.6300001144
