# LAS format log file from PETREL
# Project units are specified as depth units
#==================================================================
~Version information
VERS.   2.0:
WRAP.   NO:
#==================================================================
~Well
STRT .m      4670.1455078 :
STOP .m      4804.8671875 :
STEP .m     0.00000000 :
NULL .        -999.250000 :
COMP.           : COMPANY
WELL.  Boreas 1   : WELL
FLD.            : FIELD
LOC.            : LOCATION
SRVC.           : SERVICE COMPANY
DATE.  2017-10-02 11:49:53   : Log Export Date {yyyy-MM-dd HH:mm:ss}
PROV.           : PROVINCE
UWI.   Boreas 1   : UNIQUE WELL ID
API.            : API NUMBER
#==================================================================
~Curve
DEPT .m                   : DEPTH
BIT .in                   : BIT
CAL .in                   : CAL
DRHO .g/cm3               : DRHO
DTC .us/ft                : DTC
DTS .us/ft                : DTS
GR .gAPI                  : GR
NET .m                    : NET
NPHI .m3/m3               : NPHI
PEF .b/e                  : PEF
POTA .%                   : POTA
RESD .ohm.m               : RESD
RESM .ohm.m               : RESM
RESS .ohm.m               : RESS
RHOB .g/cm3               : RHOB
ROP .m/h                  : ROP
THOR .ppm                 : THOR
URAN .ppm                 : URAN
IC4 .%                    : IC4
C2 .%                     : C2
TGAS .%                   : TGAS
C1 .%                     : C1
IC5 .%                    : IC5
NC5 .%                    : NC5
C3 .%                     : C3
NC4 .%                    : NC4
Casing ._                 : Casing
~Parameter
#==================================================================
~Ascii
# ...
 4687.6713867 8.5000000000 8.6120004654 0.0092000002 85.412086487  -999.250000 155.30909729  -999.250000 0.3113999963 4.7225999832 1.6000000238 2.7885999680 2.7597999573 2.8689999580 2.6712999344 78.623619080 15.694600105 3.0808999538 24.000001907 775.94079590 11025.440430 8614.6513672 10.000000000 5.3432002068 178.68640137 30.000000000 7.6300001144
 4687.8242188 8.5000000000 8.6056995392 0.0114000002 85.193267822  -999.250000 159.81019592  -999.250000 0.2966733873 4.7465000153 1.6499999762 2.7911000252 2.7797999382 2.8571000099 2.6636292934 75.023628235 14.996000290 3.4890999794 24.000001907 774.11199951 10781.599609 8634.7675781 10.000000000 5.6479997635 179.29600525 30.000000000 7.6300001144
 4687.9765625 8.5000000000 8.6182003021 0.0038999999 85.048576355  -999.250000 155.21189880  -999.250000 0.2883853018 4.6957001686 1.6000000238 2.8094000816 2.7825999260 2.9467999935 2.6416075230 71.423622131 14.928799629 3.4210999012 24.000001907 772.28320313 10537.760742 8654.8847656 10.000000000 5.9527997971 179.90559387 30.000000000 7.6300001144
 4688.1289063 8.5000000000 8.6244001389 0.0074999998 83.620697021  -999.250000 156.64689636  -999.250000 0.2838000059 4.8126997948 1.6100000143 2.8331000805 2.8175001144 2.9302000999 2.6440000534 67.823623657 14.476900101 3.5125000477 23.742399216 760.66558838 10371.200195 8613.1777344 10.000000000 5.4847993851 178.45440674 29.742399216 7.6300001144
 4688.2812500 8.5000000000 8.6182003021 0.0096000005 84.589317322  -999.250000 151.77859497  -999.250000 0.2759000063 5.0079002380 1.6100000143 2.8977999687 2.8606998920 2.9398999214 2.6461999416 64.223617554 15.213299751 3.3468000889 23.437599182 747.25439453 10218.800781 8560.1425781 10.000000000 4.8751997948 176.62556458 29.437601089 7.6300001144
 4688.4335938 8.5000000000 8.5994997025 0.0113000004 86.016036987  -999.250000 154.93150330  -999.250000 0.2784999907 4.6564998627 1.6299999952 3.0107998848 2.9602999687 2.9551000595 2.6461999416 60.623626709 15.439900398 3.5511000156 23.132801056 733.84320068 10066.400391 8507.1074219 10.000000000 4.2656002045 174.79681396 29.132799149 7.6300001144
 4688.5859375 8.5000000000 8.6244001389 0.0121999998 85.669006348  -999.250000 148.22529602  -999.250000 0.2761999965 4.6826000214 1.6299999952 2.8947000504 2.8471999168 2.9001998901 2.6531999111 59.055118561 15.244899750 3.5132999420 23.000000000 725.41998291 9948.4003906 8426.8964844 9.8280000687 4.1719999313 172.96800232 28.827999115 7.6300001144
 4688.7382813 8.5000000000 8.6231002808 0.0141000003 85.339653015  -999.250000 153.75039673  -999.250000 0.2791999876 4.0711002350 1.6299999952 2.8784999847 2.8152000904 2.9974999428 2.6456999779 59.055118561 15.070699692 3.7318000793 23.000000000 720.84802246 9856.9599609 8325.7021484 9.5232000351 4.4767999649 171.13920593 28.523199081 7.6300001144
 4688.8906250 8.5000000000 8.6182003021 0.0182000007 84.090095520  -999.250000 154.90010071  -999.250000 0.2739999890 4.3380999565 1.6200000048 2.9795999527 2.9384999275 3.0659999847 2.6652998924 59.055118561 14.957300186 3.5683000088 23.000000000 716.27600098 9765.5195313 8224.5087891 9.2184000015 4.7815999985 169.31039429 28.218399048 7.6300001144
 4689.0429688 8.5000000000 8.6182003021 0.0201999992 82.243293762  -999.250000 163.82200623  -999.250000 0.2865999937 4.3166999817 1.5499999523 3.0762999058 3.0374000072 3.1342999935 2.6594998837 58.034645081 14.917499542 3.5592999458 22.913600922 710.66723633 9665.4404297 8125.0434570 9.1728000641 5.0864000320 167.56799316 27.913600922 7.6300001144
 4689.1958008 8.5000000000 8.6182003021 0.0219999999 80.909126282  -999.250000 162.97360229  -999.250000 0.2981964946 4.5240998268 1.5000000000 3.1823000908 3.1507999897 3.2198998928 2.6681926250 54.434646606 14.324500084 3.5518999100 22.608800888 702.43762207 9543.5195313 8029.9462891 9.7824001312 5.3912000656 166.04400635 27.608800888 7.6300001144
 4689.3481445 8.5000000000 8.6182003021 0.0177999996 80.328506470  -999.250000 160.48269653  -999.250000 0.2971000075 4.7139000893 1.5499999523 3.2781999111 3.2643001080 3.3510000706 2.6658999920 50.834644318 14.794799805 3.4168000221 22.303998947 694.20800781 9421.5996094 7934.8476563 10.392000198 5.6960000992 164.51998901 27.304000854 7.6300001144
 4689.5004883 8.5000000000 8.6244001389 0.0313000008 80.514907837  -999.250000 155.16220093  -999.250000 0.2881999910 5.0288000107 1.5499999523 3.2880001068 3.2750000954 3.4059000015 2.6879999638 47.244094849 15.547300339 3.5559000969 22.000000000 686.00000000 9300.0000000 7840.0000000 11.000000000 6.0000004768 163.00000000 27.000000000 7.6300001144
 4689.6528320 8.5000000000 8.6231002808 0.0322999991 82.016464233  -999.250000 153.05450439  -999.250000 0.2754999995 4.9646000862 1.6699999571 3.2202000618 3.2318000793 3.3503999710 2.6831998825 47.244094849 15.478099823 3.7641999722 21.388801575 673.47039795 9147.2001953 7703.0908203 10.388799667 5.6943993568 160.24961853 26.694400787 7.6300001144
 4689.8051758 8.5000000000 8.6244001389 0.0333999991 83.165916443  -999.250000 162.88380432  -999.250000 0.2854000032 4.9986000061 1.5700000525 3.1326000690 3.1689000130 3.2518000603 2.6772000790 47.244094849 15.153100014 3.6210999489 20.779199600 660.97357178 8994.7998047 7566.5410156 9.7791986465 5.3895998001 157.50639343 26.389600754 7.6300001144
 4689.9575195 8.5000000000 8.6120004654 0.0340999998 84.243553162  -999.250000 172.04020691  -999.250000 0.2881999910 4.6104001999 1.4800000191 3.0671000481 3.0973000526 3.1691000462 2.6670000553 47.244094849 14.749400139 3.6900000572 20.169599533 648.47680664 8842.4003906 7429.9902344 9.1695995331 5.0847992897 154.76319885 26.084800720 7.6300001144
 4690.1098633 8.5000000000 8.6367998123 0.0353999995 84.337516785  -999.250000 172.43490601  -999.250000 0.2978999913 4.6294999123 1.4099999666 3.0208001137 3.0448000431 3.0694999695 2.6707003117 47.244094849 14.463500023 3.4389998913 20.000000000 634.88000488 8712.0000000 7297.8403320 8.7799997330 4.7800002098 151.58000183 25.559999466 7.6300001144
 4690.2622070 8.5000000000 8.6056995392 0.0215000007 84.884880066  -999.250000 169.50340271  -999.250000 0.3019999862 4.6093997955 1.3799999952 2.9644999504 3.0092000961 3.0427000523 2.6496000290 47.244094849 14.783300400 3.4093000889 20.000000000 620.85919189 8590.0800781 7167.3862305 8.4751996994 4.4752001762 148.22720337 24.950399399 7.6300001144
 4690.4150391 8.5000000000 8.6244001389 0.0137999998 85.208236694  -999.250000 159.83770752  -999.250000 0.3063775599 4.5457000732 1.3600000143 3.0857999325 3.0699999332 3.0631999969 2.6371378899 47.244094849 13.717499733 3.4528000355 20.000000000 606.83837891 8468.1601563 7036.9311523 8.1703996658 4.1704001427 144.87440491 24.340799332 7.6300001144
 4690.5673828 8.5000000000 8.6056995392 0.0164000001 84.175659180  -999.250000 156.85400391  -999.250000 0.2993306816 4.9302000999 1.2699999809 3.1243000031 3.0511999130 3.0697000027 2.6489064693 48.831493378 12.423299789 3.2643001080 19.865598679 598.19360352 8386.5595703 6959.2958984 8.0000000000 4.1343998909 142.59680176 24.000001907 7.6300001144
 4690.7197266 8.5000000000 8.6231002808 0.0140000004 82.375717163  -999.250000 146.89039612  -999.250000 0.2777000070 4.8597002029 1.0700000525 3.0536999702 2.9256000519 2.9625000954 2.6508998871 52.431495667 11.012599945 3.0518000126 19.560800552 596.36480713 8356.0800781 6948.6279297 8.0000000000 4.4391999245 141.68240356 24.000001907 7.6300001144
 4690.8720703 8.5000000000 8.6120004654 0.0119000003 79.123130798  -999.250000 130.14379883  -999.250000 0.2264000028 5.0128002167 0.8399999738 3.1400001049 3.0418999195 3.0160999298 2.6723001003 56.031494141 10.189000130 2.3397998810 19.256000519 594.53601074 8325.5996094 6937.9599609 8.0000000000 4.7439999580 140.76800537 24.000001907 7.6300001144
 4691.0244141 8.5000000000 8.6244001389 0.0127999997 69.311782837  -999.250000 105.14150238  -999.250000 0.1729000062 5.1637001038 0.6299999952 4.1547999382 3.9595000744 3.8296999931 2.6937999725 59.631496429 7.7476000786 2.0095999241 18.951200485 591.97521973 8295.1201172 6922.9980469 7.9512000084 4.9512000084 139.75599670 24.000001907 7.6300001144
