# LAS format log file from PETREL
# Project units are specified as depth units
#==================================================================
~Version information
VERS.   2.0:
WRAP.   NO:
#==================================================================
~Well
STRT .m      4670.1455078 :
STOP .m      4804.8671875 :
STEP .m     0.00000000 :
NULL .        -999.250000 :
COMP.           : COMPANY
WELL.  Boreas 1   : WELL
FLD.            : FIELD
LOC.            : LOCATION
SRVC.           : SERVICE COMPANY
DATE.  2017-10-02 11:49:53   : Log Export Date {yyyy-MM-dd HH:mm:ss}
PROV.           : PROVINCE
UWI.   Boreas 1   : UNIQUE WELL ID
API.            : API NUMBER
#==================================================================
~Curve
DEPT .m                   : DEPTH
BIT .in                   : BIT
CAL .in                   : CAL
DRHO .g/cm3               : DRHO
DTC .us/ft                : DTC
DTS .us/ft                : DTS
GR .gAPI                  : GR
NET .m                    : NET
NPHI .m3/m3               : NPHI
PEF .b/e                  : PEF
POTA .%                   : POTA
RESD .ohm.m               : RESD
RESM .ohm.m               : RESM
RESS .ohm.m               : RESS
RHOB .g/cm3               : RHOB
ROP .m/h                  : ROP
THOR .ppm                 : THOR
URAN .ppm                 : URAN
IC4 .%                    : IC4
C2 .%                     : C2
TGAS .%                   : TGAS
C1 .%                     : C1
IC5 .%                    : IC5
NC5 .%                    : NC5
C3 .%                     : C3
NC4 .%                    : NC4
Casing ._                 : Casing
~Parameter
#==================================================================
~Ascii
# ...
 4757.7753906 8.5000000000 8.6492996216 0.0218000002 65.195327759  -999.250000 85.882400513  -999.250000 0.2732999921 5.5662999153 0.0799999982 33.936199188 45.413600922 22.135200500 2.6814999580 47.244094849 2.3276000023 1.1286000013 12.000000954 240.83439636 4810.2402344 3993.5729980 8.0000000000 3.4488000870 67.346397400 15.000000000 7.6300001144
 4757.9282227 8.5000000000 8.6679000854 0.0267999992 65.012168884  -999.250000 88.189697266  -999.250000 0.2643272281 5.8684000969 0.0900000036 29.177499771 31.392700195 20.346000671 2.6890239716 47.244094849 2.3764998913 0.9904000163 12.000000954 236.87199402 4871.2001953 3961.2639160 8.0000000000 3.1440000534 66.431999207 15.000000000 7.6300001144
 4758.0805664 8.5000000000 8.6555004120 0.0297999997 65.233291626  -999.250000 87.876296997  -999.250000 0.2728335559 5.8035998344 0.0799999982 26.086900711 27.653200150 21.265800476 2.6965432167 45.344882965 2.6089999676 1.0075999498 11.839200020 235.48239136 4883.9199219 3978.9641113 7.8392000198 3.0000002384 65.839202881 15.000000000 7.6300001144
 4758.2329102 8.5000000000 8.6679000854 0.0368999988 65.316810608  -999.250000 80.831802368  -999.250000 0.2833000124 6.8201999664 0.0900000036 28.169700623 28.967899323 21.033599854 2.7100000381 41.744880676 2.3856000900 1.1365000010 11.534399986 236.39680481 4853.4399414 4041.4479980 7.5343999863 3.0000002384 65.534400940 15.000000000 7.6300001144
 4758.3852539 8.5000000000 8.6927995682 0.0307999998 65.954658508  -999.250000 75.083602905  -999.250000 0.2624000013 6.8831000328 0.1199999973 32.962501526 31.774999619 22.055200577 2.7100999355 38.144882202 2.5290000439 1.1452000141 11.229599953 237.31120300 4822.9599609 4103.9321289 7.2295999527 3.0000002384 65.229598999 15.000000000 7.6300001144
 4758.5375977 8.5000000000 8.6828002930 0.0335000008 66.096076965  -999.250000 71.514198303  -999.250000 0.2445999980 6.7307000160 0.1700000018 38.286098480 35.736598969 24.387399673 2.7179999352 35.433071136 2.8354001045 0.9624000192 11.075199127 238.07519531 4822.5600586 4164.9868164 6.9999995232 3.0000002384 65.000000000 15.000000000 7.6300001144
 4758.6899414 8.5000000000 8.7052001953 0.0331000015 66.079559326  -999.250000 75.144302368  -999.250000 0.2339999974 6.6901998520 0.1899999976 33.011901855 28.174400330 17.523599625 2.7144000530 35.433071136 2.6463999748 1.0156999826 11.380000114 238.38000488 4914.0000000 4221.6801758 6.9999995232 3.0000002384 65.000000000 15.000000000 7.6300001144
 4758.8422852 8.5000000000 8.7052001953 0.0270000007 66.388618469  -999.250000 79.306297302  -999.250000 0.2298000008 6.4458999634 0.2000000030 22.816099167 17.962600708 13.173399925 2.6884000301 35.433071136 2.4022998810 1.0385999680 11.684800148 238.68481445 5005.4399414 4278.3730469 6.9999995232 3.0000002384 65.000000000 15.000000000 7.6300001144
 4758.9946289 8.5000000000 8.6990003586 0.0206000004 65.069068909  -999.250000 82.372001648  -999.250000 0.2260999978 6.1718001366 0.2300000042 14.686300278 12.108200073 9.6941003799 2.6723999977 35.433071136 2.4014999866 0.9039000273 11.989600182 238.98959351 5096.8793945 4335.0649414 6.9999995232 3.0000002384 65.000000000 15.000000000 7.6300001144
 4759.1469727 8.5000000000 8.6927995682 0.0245999992 65.447021484  -999.250000 82.773200989  -999.250000 0.2280000001 5.1461000443 0.2599999905 13.406700134 10.956899643 9.7820997238 2.6775000095 38.910236359 2.3515000343 0.8761000037 12.000000954 240.76640320 5188.3198242 4414.4267578 6.9999995232 3.0000002384 65.000000000 15.000000000 7.6300001144
 4759.2998047 8.5000000000 8.7052001953 0.0266999993 64.154281616  -999.250000 87.632797241  -999.250000 0.2383143753 4.9468998909 0.2399999946 17.445800781 13.724900246 12.150600433 2.6925971508 42.510234833 2.3092000484 0.9351999760 12.000000954 242.59519958 5279.7597656 4494.5898438 6.9999995232 3.0000002384 65.000000000 15.000000000 7.6300001144
 4759.4521484 8.5000000000 8.6529998779 0.0263999999 63.583999634  -999.250000 89.548896790  -999.250000 0.2427999973 4.8625998497 0.2899999917 23.038999557 17.224000931 14.013500214 2.6916999817 46.110237122 2.3519999981 0.9815000296 12.000000954 244.42401123 5371.2006836 4574.7519531 6.9999995232 3.0000002384 65.000000000 15.000000000 7.6300001144
 4759.6044922 8.5000000000 8.6740999222 0.0241999999 64.764213562  -999.250000 93.177001953  -999.250000 0.2558000088 5.2361001968 0.2500000000 24.695499420 19.287900925 14.865300179 2.6837000847 47.244094849 2.4737000465 1.0526000261 11.791199684 245.83520508 5420.8798828 4644.2661133 6.9999995232 3.2088000774 65.208801270 15.000000000 7.6300001144
 4759.7568359 8.5000000000 8.6617002487 0.0222999994 63.868030548  -999.250000 94.951202393  -999.250000 0.2694000006 5.6799998283 0.2599999905 19.523599625 15.171699524 13.224599838 2.6735999584 47.244094849 2.7235000134 1.0541000366 11.486399651 247.05439758 5451.3598633 4708.8828125 6.9999995232 3.5136001110 65.513603210 15.000000000 7.6300001144
 4759.9091797 8.5000000000 8.6679000854 0.0296000000 66.093780518  -999.250000 99.358100891  -999.250000 0.2865000069 5.9885001183 0.2399999946 15.979499817 12.460100174 11.684300423 2.6830000877 47.244094849 2.9958999157 0.9764999747 11.181599617 248.27360535 5481.8398438 4773.5009766 6.9999995232 3.8183999062 65.818397522 15.000000000 7.6300001144
 4760.0615234 8.5000000000 8.6617002487 0.0280000009 66.009063721  -999.250000 100.99189758  -999.250000 0.2887000144 6.2680997849 0.2199999988 16.013000488 13.333600044 13.247300148 2.6809999943 47.244094849 2.8076000214 0.9327999949 11.123200417 249.36959839 5512.3198242 4822.8417969 6.9999995232 4.0000000000 66.000000000 15.000000000 7.6300001144
 4760.2138672 8.5000000000 8.6927995682 0.0272000004 69.437042236  -999.250000 98.052101135  -999.250000 0.2939999998 6.0000000000 0.1599999964 17.790599823 15.569999695 15.831700325 2.6896998882 47.244094849 3.0072999001 1.1196000576 11.428000450 250.28399658 5542.7998047 4849.6640625 6.9999995232 4.0000000000 66.000000000 15.000000000 7.6300001144
 4760.3662109 8.5000000000 8.6878004074 0.0298999995 68.006210327  -999.250000 91.970298767  -999.250000 0.3007000089 6.2037000656 0.1599999964 18.081100464 17.385499954 18.283100128 2.7035000324 47.244094849 2.5418000221 1.0795999765 11.732799530 251.19839478 5573.2797852 4876.4858398 6.9999995232 4.0000000000 66.000000000 15.000000000 7.6300001144
 4760.5190430 8.5000000000 8.6927995682 0.0331000015 69.732162476  -999.250000 87.273002625  -999.250000 0.2919192314 6.0447001457 0.1700000018 19.009799957 19.828199387 20.136100769 2.7144525051 47.688190460 2.4979999065 1.0485999584 12.000000954 251.66162109 5603.7597656 4901.6918945 6.9999995232 3.9623999596 65.924797058 15.000000000 7.6300001144
 4760.6713867 8.5000000000 8.6492996216 0.0219000001 66.349426270  -999.250000 87.464698792  -999.250000 0.2978488803 5.9597001076 0.1500000060 18.077199936 21.415899277 22.339099884 2.6997210979 51.288188934 2.4356999397 0.9082000256 12.000000954 248.91839600 5634.2407227 4915.4082031 6.9999995232 3.6575999260 65.315200806 15.000000000 7.6300001144
 4760.8237305 8.5000000000 8.6555004120 0.0315999985 64.496368408  -999.250000 92.487197876  -999.250000 0.2818999887 5.7999000549 0.1599999964 16.467100143 21.614400864 23.134399414 2.7063000202 54.888187408 2.5534000397 0.9545000196 12.000000954 246.17518616 5664.7197266 4929.1240234 6.9999995232 3.3527998924 64.705596924 15.000000000 7.6300001144
 4760.9760742 8.5000000000 8.6367998123 0.0335999988 60.357490540  -999.250000 93.402801514  -999.250000 0.2870000005 5.7926998138 0.2000000030 13.803700447 18.633300781 19.903900146 2.7028999329 58.488189697 2.7295000553 0.8826000094 12.000000954 243.43202209 5695.2001953 4942.8398438 6.9999995232 3.0480003357 64.096000671 15.000000000 7.6300001144
 4761.1284180 8.5000000000 8.6555004120 0.0307999998 66.634956360  -999.250000 91.295196533  -999.250000 0.2854999900 6.1676998138 0.1899999976 11.404700279 15.107299805 16.149099350 2.6974000931 62.088191986 2.6817998886 0.9121999741 12.000000954 244.79759216 5700.0000000 4945.0000000 6.9999995232 3.0000002384 64.513603210 15.000000000 7.6300001144
