# LAS format log file from PETREL
# Project units are specified as depth units
#==================================================================
~Version information
VERS.   2.0:
WRAP.   NO:
#==================================================================
~Well
STRT .m      4670.1455078 :
STOP .m      4804.8671875 :
STEP .m     0.00000000 :
NULL .        -999.250000 :
COMP.           : COMPANY
WELL.  Boreas 1   : WELL
FLD.            : FIELD
LOC.            : LOCATION
SRVC.           : SERVICE COMPANY
DATE.  2017-10-02 11:49:53   : Log Export Date {yyyy-MM-dd HH:mm:ss}
PROV.           : PROVINCE
UWI.   Boreas 1   : UNIQUE WELL ID
API.            : API NUMBER
#==================================================================
~Curve
DEPT .m                   : DEPTH
BIT .in                   : BIT
CAL .in                   : CAL
DRHO .g/cm3               : DRHO
DTC .us/ft                : DTC
DTS .us/ft                : DTS
GR .gAPI                  : GR
NET .m                    : NET
NPHI .m3/m3               : NPHI
PEF .b/e                  : PEF
POTA .%                   : POTA
RESD .ohm.m               : RESD
RESM .ohm.m               : RESM
RESS .ohm.m               : RESS
RHOB .g/cm3               : RHOB
ROP .m/h                  : ROP
THOR .ppm                 : THOR
URAN .ppm                 : URAN
IC4 .%                    : IC4
C2 .%                     : C2
TGAS .%                   : TGAS
C1 .%                     : C1
IC5 .%                    : IC5
NC5 .%                    : NC5
C3 .%                     : C3
NC4 .%                    : NC4
Casing ._                 : Casing
~Parameter
#==================================================================
~Ascii
# ...
 4764.7861328 8.5000000000 8.8108997345 0.0384999998 70.221061707 132.94769287 103.65170288  -999.250000 0.2529000044 6.6069002151 0.4199999869 14.536499977 13.761400223 12.261699677 2.6872000694 52.299213409 2.8273000717 0.7682999969 11.571999550 228.57200623 4742.7998047 4069.8081055 7.4279999733 3.0000002384 63.000003815 14.571999550 7.6300001144
 4764.9384766 8.5000000000 8.8170995712 0.0329999998 71.501602173 133.69839478 102.76940155  -999.250000 0.2370000035 6.0451998711 0.4699999988 12.793700218 11.501899719 11.115099907 2.6596999168 48.699214935 3.0016000271 0.9524999857 11.876799583 228.87680054 4712.3198242 4043.5949707 7.1231999397 3.0000002384 63.000003815 14.876800537 7.6300001144
 4765.0908203 8.5000000000 8.8022003174 0.0275999997 72.428283691 134.09350586 97.910896301  -999.250000 0.2313999981 6.1999001503 0.4799999893 10.989000320 10.067099571 10.605099678 2.6419000626 45.099212646 3.1572999954 1.0090999603 12.000000954 228.09199524 4645.5200195 3978.8830566 7.1816000938 3.1816000938 62.818401337 15.000000000 7.6300001144
 4765.2431641 8.5000000000 8.8170995712 0.0296000000 74.522354126 135.09419250 100.65239716  -999.250000 0.2348999977 5.7737998962 0.4799999893 10.781000137 10.226799965 10.173000336 2.6329998970 41.499214172 3.1932001114 1.1167999506 12.000000954 226.56800842 4554.0800781 3888.0529785 7.4863996506 3.4863998890 62.513599396 15.000000000 7.6300001144
 4765.3955078 8.5000000000 8.8295001984 0.0331999995 76.169479370 134.59849548 102.56849670  -999.250000 0.2454999983 6.5947999954 0.4699999988 12.311100006 11.517200470 10.755800247 2.6477999687 37.899211884 3.2337999344 1.1634999514 12.000000954 225.04400635 4462.6401367 3797.2216797 7.7912001610 3.7911999226 62.208801270 15.000000000 7.6300001144
 4765.5478516 8.5000000000 8.8108997345 0.0346999988 75.941680908 133.97770691 108.89150238  -999.250000 0.2545999885 6.2090001106 0.4600000083 13.734999657 12.670399666 12.084099770 2.6449999809 36.566928864 3.4526000023 1.2271000147 11.904000282 223.71200562 4380.7998047 3722.0400391 7.9039998055 4.0000000000 62.000000000 15.000000000 7.6300001144
 4765.7001953 8.5000000000 8.8170995712 0.0324000008 74.453132629 134.53379822 108.00070190  -999.250000 0.2694999874 6.4246001244 0.4300000072 15.195400238 14.439900398 14.048999786 2.6357998848 40.166927338 3.5878999233 1.2447999716 11.599200249 222.79760742 4319.8398438 3680.8920898 7.5991997719 4.0000000000 62.000000000 15.000000000 7.6300001144
 4765.8530273 8.5000000000 8.8046998978 0.0346000008 74.652252197 134.35270691 104.60890198  -999.250000 0.2776993513 6.1600999832 0.4099999964 16.102899551 15.478300095 16.241800308 2.6215040684 43.766929626 3.2060000896 1.1822999716 11.294400215 221.88319397 4258.8798828 3639.7438965 7.2944002151 4.0000000000 62.000000000 15.000000000 7.6300001144
 4766.0053711 8.5000000000 8.8121004105 0.0344000012 74.344741821 134.86759949 100.39360046  -999.250000 0.2774731517 6.4214000702 0.4099999964 16.004400253 15.488400459 15.358799934 2.6227850914 47.244094849 2.9844999313 1.1994999647 11.000000000 221.05200195 4200.0000000 3598.4497070 6.9999995232 4.0000000000 62.010402679 14.989601135 7.6300001144
 4766.1577148 8.5000000000 8.7983999252 0.0322999991 75.370506287 136.17439270 100.59780121  -999.250000 0.2691000104 6.5206999779 0.4399999976 14.627900124 14.402099609 13.516099930 2.6180999279 47.244094849 3.2551000118 0.9781000018 11.000000000 222.57600403 4200.0000000 3553.0349121 6.9999995232 4.0000000000 62.315196991 14.684800148 7.6300001144
 4766.3100586 8.5000000000 8.8170995712 0.0372000001 76.969909668 136.17640686 102.51750183  -999.250000 0.2596000135 6.6549000740 0.4799999893 14.158399582 14.389200211 12.875300407 2.6438999176 47.244094849 3.1609001160 1.1470999718 11.000000000 224.09999084 4200.0000000 3507.6201172 6.9999995232 4.0000000000 62.619995117 14.380000114 7.6300001144
 4766.4624023 8.5000000000 8.7860002518 0.0388000049 72.503677368 135.11149597 109.84439850  -999.250000 0.2585000098 6.5032000542 0.5299999714 13.994899750 14.439800262 13.558400154 2.6589999199 47.244094849 3.2188000679 1.0180000067 11.000000000 225.62399292 4200.0000000 3462.2048340 6.9999995232 4.0000000000 62.924800873 14.075200081 7.6300001144
 4766.6147461 8.5000000000 8.7860002518 0.0335000008 70.652023315 132.97990417 118.32779694  -999.250000 0.2588000000 6.6223998070 0.5400000215 14.008500099 14.747300148 13.800700188 2.6842000484 47.244094849 3.4539999962 0.9761999846 11.229599953 229.44400024 4245.9199219 3484.7509766 6.9999995232 3.7704000473 63.459201813 13.999999046 7.6300001144
 4766.7670898 8.5000000000 8.7076997757 0.0264999997 70.175453186 129.72760010 130.72149658  -999.250000 0.2603999972 7.1233000755 0.5400000215 14.079000473 14.892900467 14.330599785 2.7042996883 47.244094849 3.7007000446 1.0069999695 11.534399986 234.01600647 4306.8798828 3529.5566406 6.9999995232 3.4656000137 64.068801880 13.999999046 7.6300001144
 4766.9194336 8.5000000000 8.7052001953 0.0274000000 71.095413208 130.96110535 132.28829956  -999.250000 0.2653999925 7.2628002167 0.5899999738 12.004400253 12.808199883 12.496999741 2.7109999657 47.244094849 3.8269999027 1.0088000298 11.839200020 238.58801270 4367.8398438 3574.3620605 6.9999995232 3.1607999802 64.678398132 13.999999046 7.6300001144
 4767.0717773 8.5000000000 8.6927995682 0.0333000049 72.830718994 133.24209595 136.12040710  -999.250000 0.2574999928 7.4612998962 0.5799999833 10.285599709 10.602999687 10.712300301 2.7119998932 45.543308258 3.6600999832 0.9368000031 12.000000954 242.44001770 4414.3999023 3611.2480469 6.9999995232 3.1440000534 65.143997192 14.144001007 7.6300001144
 4767.2246094 8.5000000000 8.7052001953 0.0280000009 71.340080261 134.60400391 128.86230469  -999.250000 0.2533733845 6.8626999855 0.5500000119 9.5220003128 10.231399536 10.167400360 2.7014837265 41.943305969 3.5955998898 0.7213000059 12.000000954 245.48800659 4444.8798828 3639.2900391 6.9999995232 3.4488000870 65.448799133 14.448800087 7.6300001144
 4767.3769531 8.5000000000 8.6864995956 0.0339000002 72.923088074 133.41499329 126.09999847  -999.250000 0.2451172620 6.6631999016 0.5199999809 12.101900101 12.617799759 12.272299767 2.7275965214 38.343307495 3.3166000843 0.7050999999 12.000000954 248.53599548 4475.3598633 3667.3310547 6.9999995232 3.7535998821 65.753601074 14.753600121 7.6300001144
 4767.5292969 8.5000000000 8.6976995468 0.0502999984 69.750007629 132.06300354 109.15049744  -999.250000 0.2504999936 7.1579999924 0.5099999905 14.131400108 15.426300049 14.959799767 2.7576999664 35.433071136 3.3452999592 0.7433999777 12.000000954 251.05838013 4494.1601563 3687.1972656 6.9999995232 4.0000000000 66.058403015 15.000000000 7.6300001144
 4767.6816406 8.5000000000 8.7052001953 0.0364000015 65.642517090 132.30250549 104.52899933  -999.250000 0.2506999969 7.4103999138 0.5000000000 14.341300011 15.278499603 15.730199814 2.7442998886 35.433071136 3.3877000809 0.7394000292 12.000000954 251.36320496 4463.6801758 3672.5659180 6.9999995232 4.0000000000 66.363197327 15.000000000 7.6300001144
 4767.8339844 8.5000000000 8.6927995682 0.0280000009 62.455879211 134.25439453 100.31369781  -999.250000 0.2433999926 9.0131998062 0.4600000083 14.830699921 15.613400459 15.569000244 2.7534000874 35.433071136 3.1946001053 0.9355000257 12.000000954 251.66799927 4433.2001953 3657.9360352 6.9999995232 4.0000000000 66.667999268 15.000000000 7.6300001144
 4767.9863281 8.5000000000 8.6990003586 0.0335000008 57.607604980 136.07049561 95.803298950  -999.250000 0.2339999974 10.738499641 0.4300000072 16.046199799 17.244400024 17.012199402 2.7897000313 35.433071136 3.2258000374 1.0025000572 12.000000954 251.97279358 4402.7202148 3643.3059082 6.9999995232 4.0000000000 66.972801208 15.000000000 7.6300001144
 4768.1386719 8.5000000000 8.6927995682 0.0395000018 54.705501556 136.11869812 93.369499207  -999.250000 0.2175000012 13.109800339 0.4000000060 17.912000656 19.646799088 19.181100845 2.8271000385 38.711811066 3.3712999821 1.0898000002 11.722399712 249.22401428 4316.7202148 3573.4328613 6.9999995232 3.7223999500 66.722396851 15.000000000 7.6300001144
