# LAS format log file from PETREL
# Project units are specified as depth units
#==================================================================
~Version information
VERS.   2.0:
WRAP.   NO:
#==================================================================
~Well
STRT .m      4670.1455078 :
STOP .m      4804.8671875 :
STEP .m     0.00000000 :
NULL .        -999.250000 :
COMP.           : COMPANY
WELL.  Boreas 1   : WELL
FLD.            : FIELD
LOC.            : LOCATION
SRVC.           : SERVICE COMPANY
DATE.  2017-10-02 11:49:53   : Log Export Date {yyyy-MM-dd HH:mm:ss}
PROV.           : PROVINCE
UWI.   Boreas 1   : UNIQUE WELL ID
API.            : API NUMBER
#==================================================================
~Curve
DEPT .m                   : DEPTH
BIT .in                   : BIT
CAL .in                   : CAL
DRHO .g/cm3               : DRHO
DTC .us/ft                : DTC
DTS .us/ft                : DTS
GR .gAPI                  : GR
NET .m                    : NET
NPHI .m3/m3               : NPHI
PEF .b/e                  : PEF
POTA .%                   : POTA
RESD .ohm.m               : RESD
RESM .ohm.m               : RESM
RESS .ohm.m               : RESS
RHOB .g/cm3               : RHOB
ROP .m/h                  : ROP
THOR .ppm                 : THOR
URAN .ppm                 : URAN
IC4 .%                    : IC4
C2 .%                     : C2
TGAS .%                   : TGAS
C1 .%                     : C1
IC5 .%                    : IC5
NC5 .%                    : NC5
C3 .%                     : C3
NC4 .%                    : NC4
Casing ._                 : Casing
~Parameter
#==================================================================
~Ascii
# ...
 4705.1977539 8.5000000000 8.5621995926 0.0197000001 66.771507263  -999.250000 77.698196411  -999.250000 0.1928952038 7.1284999847 0.4000000060 61.467998505 85.998901367 1950.0000000 2.7408354282 40.100788116 3.7372000217 1.3403999805 24.604799271 629.60485840 7560.4804688 5849.7075195 11.000000000 6.3952002525 173.00000000 32.000000000 7.6300001144
 4705.3500977 8.5000000000 8.5684003830 0.0196000002 65.362228394  -999.250000 75.698402405  -999.250000 0.1914000064 7.8305001259 0.3700000048 129.28619385 251.96069336 1950.0000000 2.7518999577 43.700786591 4.0451002121 1.4168000221 24.299999237 629.29992676 7530.0000000 5830.2001953 11.000000000 6.6999998093 173.00000000 32.000000000 7.6300001144
 4705.5024414 8.5000000000 8.5436000824 0.0184000004 63.486480713  -999.250000 69.872802734  -999.250000 0.2029999942 7.7126002312 0.3799999952 72.069503784 183.96429443 1950.0000000 2.7386999130 47.244094849 3.8794999123 1.3751000166 24.004798889 629.00958252 7499.5200195 5810.9658203 11.004799843 6.9952001572 173.00480652 32.000000000 7.6300001144
 4705.6547852 8.5000000000 8.5871000290 0.0218000002 62.224540710  -999.250000 60.100898743  -999.250000 0.1997999996 7.2881999016 0.3700000048 84.999397278 99.284500122 1950.0000000 2.7321000099 47.244094849 3.7467000484 1.5284999609 24.309600830 629.61920166 7469.0400391 5808.8330078 11.309599876 6.6904001236 173.30960083 32.000000000 7.6300001144
 4705.8071289 8.5000000000 9.0258998871 0.0258000009 66.477401733  -999.250000 59.512298584  -999.250000 0.2026000023 6.7551999092 0.3799999952 74.627799988 88.240600586 1950.0000000 2.7234001160 47.244094849 4.0054998398 1.5473999977 24.614400864 630.22882080 7438.5600586 5806.6992188 11.614400864 6.3855996132 173.61439514 32.000000000 7.6300001144
 4705.9594727 8.5000000000 9.5132999420 0.0302000009 66.314056396  -999.250000 57.838901520  -999.250000 0.2037999928 7.3907999992 0.3700000048 97.027397156 90.166603088 1950.0000000 2.7218000889 47.244094849 4.2301998138 1.6009999514 24.919200897 630.83837891 7408.0800781 5804.5649414 11.919199944 6.0808000565 173.91920471 32.000000000 7.6300001144
 4706.1118164 8.5000000000 9.2025003433 0.0256999992 63.680286407  -999.250000 58.066398621  -999.250000 0.2025000006 7.3137001991 0.3199999928 133.71440125 110.30200195 1950.0000000 2.7053999901 47.244094849 4.5647001266 1.7309000492 25.000000000 627.19201660 7400.0000000 5787.6479492 11.551999092 6.0000004768 173.10400391 31.775999069 7.6300001144
 4706.2641602 8.5000000000 9.1029996872 0.0189999994 61.315486908  -999.250000 59.790901184  -999.250000 0.1841000021 7.4229998589 0.3300000131 201.29089355 104.47329712 1950.0000000 2.7009000778 47.244094849 4.3126001358 1.6715999842 25.000000000 622.01037598 7400.0000000 5765.3969727 10.942399979 6.0000004768 171.88479614 31.471200943 7.6300001144
 4706.4169922 8.5000000000 8.9600000381 0.0174000002 56.512725830  -999.250000 60.812000275  -999.250000 0.1664533615 7.8534002304 0.3000000119 236.95939636 98.356498718 1950.0000000 2.7030589581 47.244094849 3.9865999222 1.6141999960 25.000000000 616.82879639 7400.0000000 5743.1469727 10.332800865 6.0000004768 170.66558838 31.166400909 7.6300001144
 4706.5693359 8.5000000000 8.8319997787 0.0182000007 57.810390472  -999.250000 63.115600586  -999.250000 0.1518999934 7.7189998627 0.2899999917 692.95068359 131.36770630 1950.0000000 2.7213997841 48.878742218 3.7427000999 1.4838999510 24.861600876 613.58477783 7413.8398438 5743.1791992 10.138400078 6.0000004768 169.72320557 31.000000000 7.6300001144
 4706.7216797 8.5000000000 8.6120004654 0.0219999999 54.589668274  -999.250000 59.486598969  -999.250000 0.1458999962 7.7093000412 0.2700000107 1950.0000000 179.97320557 1950.0000000 2.7291998863 52.478740692 3.6930000782 1.6175999641 24.556800842 612.67041016 7444.3198242 5770.0009766 10.443201065 6.0000004768 169.11360168 31.000000000 7.6300001144
 4706.8740234 8.5000000000 8.5747003555 0.0264999997 54.828659058  -999.250000 55.042900085  -999.250000 0.1529999971 6.8288998604 0.3000000119 1950.0000000 350.82791138 1950.0000000 2.7337000370 56.078739166 3.9605998993 1.4750000238 24.252000809 611.75598145 7474.7998047 5796.8242188 10.748000145 6.0000004768 168.50398254 31.000000000 7.6300001144
 4707.0263672 8.5000000000 8.5747003555 0.0335999988 56.398200989  -999.250000 52.778499603  -999.250000 0.1668999940 6.2487001419 0.2800000012 1950.0000000 613.94921875 1950.0000000 2.7339999676 59.055118561 3.8196001053 1.4682999849 24.000001907 610.89440918 7505.2797852 5826.3393555 11.000000000 5.9471993446 168.00000000 31.052799225 7.6300001144
 4707.1787109 8.5000000000 8.5809001923 0.0463000014 58.758338928  -999.250000 52.958599091  -999.250000 0.1838999987 6.3597002029 0.2300000042 225.82600403 258.97961426 1950.0000000 2.7578999996 59.055118561 3.8552000523 1.4644999504 24.000001907 610.28479004 7535.7597656 5868.7075195 11.000000000 5.6423997879 168.00000000 31.357599258 7.6300001144
 4707.3310547 8.5000000000 8.5684003830 0.0511000007 62.124629974  -999.250000 54.951599121  -999.250000 0.1976000071 6.6634998322 0.2199999988 68.877700806 111.51619720 1950.0000000 2.7693998814 59.055118561 4.0240001678 1.4659999609 24.000001907 609.67517090 7566.2402344 5911.0742188 11.000000000 5.3376002312 168.00000000 31.662399292 7.6300001144
 4707.4833984 8.5000000000 8.5385999680 0.0438000001 62.040649414  -999.250000 55.068099976  -999.250000 0.1975000054 6.9072999954 0.2599999905 30.132900238 60.261100769 1950.0000000 2.7713999748 59.055118561 4.2000999451 1.3367999792 24.000001907 609.06561279 7596.7202148 5953.4404297 11.000000000 5.0328001976 168.00000000 31.967201233 7.6300001144
 4707.6362305 8.5000000000 8.5497999191 0.0388000049 61.930408478  -999.250000 58.608898163  -999.250000 0.1898769140 6.6500000954 0.3000000119 15.775099754 35.872001648 1841.2030029 2.7619917393 62.267719269 3.5980999470 1.2858999968 24.000001907 607.36798096 7627.2006836 5987.3759766 11.000000000 5.0000000000 167.18400574 31.728002548 7.6300001144
 4707.7885742 8.5000000000 8.5249004364 0.0458000004 61.767219543  -999.250000 57.765598297  -999.250000 0.1827150136 6.3215999603 0.3600000143 10.004899979 26.615200043 865.78027344 2.7593698502 65.867721558 3.2876000404 1.1344000101 24.000001907 605.53918457 7657.6796875 6020.2939453 11.000000000 5.0000000000 166.26962280 31.423200607 7.6300001144
 4707.9409180 8.5000000000 8.5747003555 0.0408000015 61.461978912  -999.250000 59.900100708  -999.250000 0.1873999983 6.0938000679 0.3899999857 7.4072999954 24.387300491 309.37899780 2.7500000000 69.467712402 3.1858999729 0.9907000065 24.000001907 603.71038818 7688.1601563 6053.2128906 11.000000000 5.0000000000 165.35519409 31.118400574 7.6300001144
 4708.0932617 8.5000000000 8.5621995926 0.0463999994 64.953720093  -999.250000 60.263698578  -999.250000 0.1894000024 6.1289000511 0.4399999976 6.4342999458 23.268400192 107.99610138 2.7486000061 70.866142273 3.4375998974 1.0257999897 24.000001907 601.50878906 7700.0000000 6076.0649414 11.000000000 5.1863999367 164.62719727 31.000000000 7.6300001144
 4708.2456055 8.5000000000 8.6056995392 0.0734999999 70.326522827  -999.250000 67.012298584  -999.250000 0.2027000040 6.6725997925 0.5199999809 6.5644998550 19.384399414 66.652099609 2.7767000198 70.866142273 3.7221000195 1.2164000273 24.000001907 599.07037354 7700.0000000 6092.5249023 11.000000000 5.4911999702 164.01757813 31.000000000 7.6300001144
 4708.3979492 8.5000000000 8.6082000732 0.0753000006 77.147972107  -999.250000 67.560302734  -999.250000 0.2374999970 7.6595001221 0.6600000262 4.5798997879 26.610300064 49.300201416 2.7765998840 70.866142273 4.3794999123 1.1047999859 24.000001907 596.63201904 7700.0000000 6108.9843750 11.000000000 5.7960000038 163.40798950 31.000000000 7.6300001144
 4708.5502930 8.5000000000 8.6244001389 0.0663999990 86.952911377  -999.250000 66.539199829  -999.250000 0.2840000093 7.5685000420 0.8600000143 7.4405999184 14.195099831 38.681701660 2.7337000370 70.866142273 4.6079998016 1.2458000183 24.000001907 594.49597168 7700.0000000 6125.2421875 11.000000000 6.0000004768 162.89920044 31.000000000 7.6300001144
