# LAS format log file from PETREL
# Project units are specified as depth units
#==================================================================
~Version information
VERS.   2.0:
WRAP.   NO:
#==================================================================
~Well
STRT .m      4670.1455078 :
STOP .m      4804.8671875 :
STEP .m     0.00000000 :
NULL .        -999.250000 :
COMP.           : COMPANY
WELL.  Boreas 1   : WELL
FLD.            : FIELD
LOC.            : LOCATION
SRVC.           : SERVICE COMPANY
DATE.  2017-10-02 11:49:53   : Log Export Date {yyyy-MM-dd HH:mm:ss}
PROV.           : PROVINCE
UWI.   Boreas 1   : UNIQUE WELL ID
API.            : API NUMBER
#==================================================================
~Curve
DEPT .m                   : DEPTH
BIT .in                   : BIT
CAL .in                   : CAL
DRHO .g/cm3               : DRHO
DTC .us/ft                : DTC
DTS .us/ft                : DTS
GR .gAPI                  : GR
NET .m                    : NET
NPHI .m3/m3               : NPHI
PEF .b/e                  : PEF
POTA .%                   : POTA
RESD .ohm.m               : RESD
RESM .ohm.m               : RESM
RESS .ohm.m               : RESS
RHOB .g/cm3               : RHOB
ROP .m/h                  : ROP
THOR .ppm                 : THOR
URAN .ppm                 : URAN
IC4 .%                    : IC4
C2 .%                     : C2
TGAS .%                   : TGAS
C1 .%                     : C1
IC5 .%                    : IC5
NC5 .%                    : NC5
C3 .%                     : C3
NC4 .%                    : NC4
Casing ._                 : Casing
~Parameter
#==================================================================
~Ascii
# ...
 4729.7338867 8.5000000000 8.7425003052 0.0335000008 88.373443604  -999.250000 84.242500305  -999.250000 0.3914000094 6.5044999123 1.0700000525 1.5185999870 1.3733999729 1.5644999743 2.6988000870 82.677169800 8.0465002060 2.8348000050 17.000000000 340.12799072 5200.0000000 4334.9799805 8.4680004120 4.0000000000 97.532012939 21.000000000 7.6300001144
 4729.8862305 8.5000000000 8.7735996246 0.0270000007 89.974830627  -999.250000 81.996101379  -999.250000 0.4032999873 6.1125001907 0.9900000095 1.6387000084 1.3690999746 1.5415999889 2.6747000217 82.677169800 8.0339002609 2.4166998863 17.000000000 338.90881348 5200.0000000 4330.4082031 8.7728004456 4.0000000000 97.227203369 21.000000000 7.6300001144
 4730.0385742 8.5000000000 8.7548999786 0.0178999994 92.677688599  -999.250000 91.527099609  -999.250000 0.4068999887 6.2211999893 0.9800000191 1.6230000257 1.4089000225 1.5771000385 2.6277000904 82.677169800 7.2774000168 2.1500000954 15.836000443 311.84878540 4804.2402344 3991.4580078 8.3791999817 3.7671999931 89.550399780 19.447999954 7.6300001144
 4730.1914063 8.5000000000 8.8108997345 0.0205000006 97.325447083  -999.250000 95.728698730  -999.250000 0.3785463274 6.1215000153 0.9700000286 1.6527999640 1.4924000502 1.6245000362 2.5957801342 82.677169800 6.5057997704 1.8439999819 11.263999939 209.13121033 3249.7600098 2673.5019531 5.9408001900 2.8527998924 60.289600372 13.352000237 7.6300001144
 4730.3437500 8.5000000000 8.8022003174 0.0188999996 86.884391785  -999.250000 97.130699158  -999.250000 0.3930000067 6.9271998405 0.9399999976 1.7193000317 1.5609999895 1.7087999582 2.5896000862 82.677169800 6.9042000771 1.6237000227 6.6919999123 106.41359711 1695.2800293 1355.5469971 3.5023996830 1.9384001493 31.028799057 7.2560000420 7.6300001144
 4730.4960938 8.5000000000 8.8170995712 0.0148999998 75.624809265  -999.250000 90.563201904  -999.250000 0.4092999995 6.7623000145 0.9200000167 1.8073999882 1.6102999449 1.7962000370 2.5901000500 82.677169800 6.8035998344 1.3904999495 2.1199998856 3.6960000992 140.80000305 37.591999054 1.0640000105 1.0240000486 1.7680002451 1.1599999666 7.6300001144
 4730.6484375 8.5000000000 8.7860002518 0.0357000008 70.007270813  -999.250000 90.385398865  -999.250000 0.4070999920 6.6553001404 0.9599999785 2.1092998981 1.7856999636 1.9564000368 2.5966000557 82.677169800 6.7300000191 1.2894999981 2.0000000000 0.7031999230 100.00000000 2.4063999653 1.0000000000 1.0000000000 0.7031999230 0.7031999826 7.6300001144
 4730.8007813 8.5000000000 8.7673997879 0.0438000001 70.429718018  -999.250000 85.020401001  -999.250000 0.4110000134 7.2291998863 0.9800000191 2.3217000961 2.0030000210 2.3334000111 2.5894999504 82.677169800 6.7659001350 1.2208000422 2.0000000000 0.3984000087 100.00000000 1.7968000174 1.0000000000 1.0000000000 0.3984000087 0.3984000087 7.6300001144
 4730.9531250 8.5000000000 8.7237997055 0.0342000015 75.050819397  -999.250000 85.429702759  -999.250000 0.4025000036 8.5745000839 1.0700000525 2.2613999844 1.9133000374 2.3320000172 2.5692999363 82.677169800 6.9562001228 1.1373000145 2.0000000000 0.0936000124 100.00000000 1.1871999502 1.0000000000 1.0000000000 0.0936000124 0.0936000049 7.6300001144
 4731.1054688 8.5000000000 8.7300996780 0.0533000007 85.552139282  -999.250000 86.387702942  -999.250000 0.4086000025 9.6997003555 1.2000000477 2.1493999958 1.8650000095 2.1245000362 2.6010000706 80.182678223 7.3408999443 1.0708999634 2.0000000000 0.0000000000 100.00000000 1.0000000000 1.0000000000 0.7888000011 0.0000000000 0.0000000000 7.6300001144
 4731.2578125 8.5000000000 8.7076997757 0.0553000011 97.621719360  -999.250000 88.495399475  -999.250000 0.4296000004 7.9616999626 1.2200000286 2.0692000389 1.9029999971 2.1977000237 2.6013998985 76.582679749 7.0219001770 1.3976000547 2.0000000000 0.0000000000 100.00000000 1.0000000000 1.0000000000 0.4839999974 0.0000000000 0.0000000000 7.6300001144
 4731.4101563 8.5000000000 8.6802997589 0.0282000005 100.13311005  -999.250000 91.013099670  -999.250000 0.4273000062 6.6586999893 1.2300000191 2.2820999622 2.2216999531 2.3942999840 2.5780999660 72.982673645 6.9291000366 1.9197000265 2.0000000000 0.0000000000 100.00000000 1.0000000000 1.0000000000 0.1791999936 0.0000000000 0.0000000000 7.6300001144
 4731.5629883 8.5000000000 8.7175998688 0.0151000004 94.412872314  -999.250000 92.624000549  -999.250000 0.4304901063 6.7599000931 1.2599999905 2.5376000404 2.2790999413 1.9680000544 2.5707461834 70.866142273 6.5799999237 1.8607000113 2.0000000000 0.1255999953 100.00000000 1.0000000000 1.0000000000 0.1255999953 0.0000000000 0.1255999953 7.6300001144
 4731.7153320 8.5000000000 8.6927995682 0.0195000004 88.969070435  -999.250000 101.12329865  -999.250000 0.4273999929 6.6480998993 1.3700000048 1.8895000219 1.7555999756 1.5123000145 2.5851998329 70.866142273 6.6540999413 1.9335000515 2.0000000000 0.4303999841 100.00000000 1.0000000000 1.0000000000 0.4303999841 0.0000000000 0.4303999841 7.6300001144
 4731.8676758 8.5000000000 8.7363004684 0.0170000009 89.801406860  -999.250000 103.61419678  -999.250000 0.4419000149 6.2136001587 1.3500000238 1.2568000555 1.1713999510 1.1385999918 2.5897998810 70.866142273 6.1244001389 2.1256999969 2.0000000000 0.7351999879 100.00000000 1.0000000000 1.0000000000 0.7351999879 0.0000000000 0.7351999879 7.6300001144
 4732.0200195 8.5000000000 8.7425003052 0.0286999997 94.089073181  -999.250000 105.11119843  -999.250000 0.4533999860 6.2328000069 1.3500000238 0.9172000289 0.8571000099 0.8554000258 2.6236999035 71.338584900 5.5184001923 2.3022000790 1.9600000381 0.9599999785 100.00000000 1.0000000000 0.9599999785 0.9599999785 0.0000000000 0.9599999785 7.6300001144
 4732.1723633 8.5000000000 8.7972002029 0.0449000001 95.999702454  -999.250000 106.95860291  -999.250000 0.4361999929 7.0925002098 1.2599999905 0.7437000275 0.7102000117 0.7167999744 2.6568999290 74.938583374 4.8319001198 2.3060998917 1.6552000046 0.6552000046 100.00000000 1.0000000000 0.6552000046 0.6552000046 0.0000000000 0.6552000046 7.6300001144
 4732.3247070 8.5000000000 8.7983999252 0.0518000014 100.04209900  -999.250000 110.21589661  -999.250000 0.4514999986 9.5472002029 1.1100000143 0.7092999816 0.6941999793 0.7117000222 2.6768999100 78.538581848 4.1676998138 2.4526000023 1.3503999710 0.3504000008 100.00000000 1.0000000000 0.3504000008 0.3504000008 0.0000000000 0.3504000008 7.6300001144
 4732.4770508 8.5000000000 8.8295001984 0.0489000008 99.752410889  -999.250000 108.64089966  -999.250000 0.4417000115 9.7697000504 0.9800000191 0.7422000170 0.7483999729 0.7713999748 2.6670999527 82.138580322 3.7920999527 2.3396000862 1.0456000566 0.0456000008 100.00000000 1.0000000000 0.0456000008 0.0456000008 0.0000000000 0.0456000008 7.6300001144
 4732.6293945 8.5000000000 8.8357000351 0.0595000014 98.442543030  -999.250000 97.910896301  -999.250000 0.4478000104 9.0761003494 0.9300000072 0.7652999759 0.7868999839 0.8065999746 2.6989998817 82.677169800 3.5873000622 2.2706000805 1.2591999769 0.2592000067 100.00000000 1.2592000961 0.0000000000 0.2592000067 0.2592000067 0.2592000067 7.6300001144
 4732.7822266 8.5000000000 8.7972002029 0.0644999966 97.396400452  -999.250000 86.780197144  -999.250000 0.4676541686 7.8278999329 0.8600000143 0.7059999704 0.7462999821 0.7692999840 2.7395529747 82.677169800 3.6960000992 2.0680000782 1.5640000105 0.5640000105 100.00000000 1.5640000105 0.0000000000 0.5640000105 0.5640000105 0.5640000105 7.6300001144
 4732.9345703 8.5000000000 8.6802997589 0.0639000013 94.316688538  -999.250000 79.115898132  -999.250000 0.4846316278 7.3053998947 0.8600000143 0.6556000113 0.6863999963 0.6934000254 2.8185205460 82.677169800 3.5713000298 2.0694999695 1.8688000441 0.8687999845 100.00000000 1.8688000441 0.0000000000 0.8687999845 0.8687999845 0.8687999845 7.6300001144
 4733.0869141 8.5000000000 8.6990003586 0.0740000010 90.320541382  -999.250000 79.367996216  -999.250000 0.5256999731 7.7007999420 0.8199999928 0.6126000285 0.6280000210 0.6510000229 2.9184999466 82.677169800 3.5601999760 1.7970000505 2.1735999584 0.8263999820 100.00000000 2.0000000000 0.0000000000 0.8263999820 1.0000000000 0.8263999820 7.6300001144
