# LAS format log file from PETREL
# Project units are specified as depth units
#==================================================================
~Version information
VERS.   2.0:
WRAP.   NO:
#==================================================================
~Well
STRT .m      4670.1455078 :
STOP .m      4804.8671875 :
STEP .m     0.00000000 :
NULL .        -999.250000 :
COMP.           : COMPANY
WELL.  Boreas 1   : WELL
FLD.            : FIELD
LOC.            : LOCATION
SRVC.           : SERVICE COMPANY
DATE.  2017-10-02 11:49:53   : Log Export Date {yyyy-MM-dd HH:mm:ss}
PROV.           : PROVINCE
UWI.   Boreas 1   : UNIQUE WELL ID
API.            : API NUMBER
#==================================================================
~Curve
DEPT .m                   : DEPTH
BIT .in                   : BIT
CAL .in                   : CAL
DRHO .g/cm3               : DRHO
DTC .us/ft                : DTC
DTS .us/ft                : DTS
GR .gAPI                  : GR
NET .m                    : NET
NPHI .m3/m3               : NPHI
PEF .b/e                  : PEF
POTA .%                   : POTA
RESD .ohm.m               : RESD
RESM .ohm.m               : RESM
RESS .ohm.m               : RESS
RHOB .g/cm3               : RHOB
ROP .m/h                  : ROP
THOR .ppm                 : THOR
URAN .ppm                 : URAN
IC4 .%                    : IC4
C2 .%                     : C2
TGAS .%                   : TGAS
C1 .%                     : C1
IC5 .%                    : IC5
NC5 .%                    : NC5
C3 .%                     : C3
NC4 .%                    : NC4
Casing ._                 : Casing
~Parameter
#==================================================================
~Ascii
 4670.1455078 8.5000000000 8.5559997559 0.0186000001 86.464317322  -999.250000 154.91659546  -999.250000 0.2901000082 4.2990999222  -999.250000 2.3587000370 2.3986001015 2.4228999615 2.6542999744 62.494491577  -999.250000  -999.250000 30.000000000 1063.3520508 15067.040039 13072.790039 11.708800316 6.9999995232 249.67039490 38.417598724 7.6300001144
 4670.2978516 8.5000000000 8.5932998657 0.0149999997 85.725723267  -999.250000 156.19360352  -999.250000 0.2816999853 4.5416002274  -999.250000 2.3022999763 2.3341999054 2.3164999485 2.6524999142 66.094490051  -999.250000  -999.250000 30.000000000 1051.1600342 14823.201172 12910.330078 11.404000282 6.9999995232 247.23199463 37.807998657 7.6300001144
 4670.4501953 8.5000000000 8.5733995438 0.0192000009 86.423439026  -999.250000 154.85229492  -999.250000 0.2784000039 4.6733999252  -999.250000 2.2918999195 2.3203001022 2.3403000832 2.6682999134 69.694488525  -999.250000  -999.250000 30.000000000 1038.9680176 14579.360352 12747.871094 11.099199295 6.9999995232 244.79359436 37.198398590 7.6300001144
 4670.6030273 8.5000000000 8.5809001923 0.0225000009 86.383644104  -999.250000 152.59399414  -999.250000 0.2846935987 4.7849998474  -999.250000 2.2704000473 2.2809998989 2.3396000862 2.6742000580 68.437797546  -999.250000  -999.250000 29.588800430 1028.0100098 14417.758789 12599.190430 11.205599785 6.7944002151 242.76638794 36.794399261 7.6300001144
 4670.7553711 8.5000000000 8.5809001923 0.0249000005 85.300529480  -999.250000 146.71850586  -999.250000 0.2827236354 5.0191001892  -999.250000 2.2053999901 2.2137999535 2.2005999088 2.6741721630 64.837799072  -999.250000  -999.250000 28.979200363 1017.6459351 14295.839844 12457.150391 11.510399818 6.4896001816 240.93760681 36.489601135 7.6300001144
 4670.9077148 8.5000000000 8.5684003830 0.0196000002 84.727867126  -999.250000 140.50399780  -999.250000 0.2901000082 4.7815999985  -999.250000 2.0652000904 2.0423998833 2.0971999168 2.6654999256 61.237792969  -999.250000  -999.250000 28.369602203 1007.2830811 14173.919922 12315.121094 11.815199852 6.1848001480 239.10879517 36.184799194 7.6300001144
 4671.0600586 8.5000000000 8.5733995438 0.0288999993 84.393386841  -999.250000 136.61599731  -999.250000 0.2851000130 4.7342000008  -999.250000 2.0676000118 2.0631000996 2.1364998817 2.6849999428 59.055118561  -999.250000  -999.250000 27.999998093 998.35998535 14088.000000 12186.759766 12.000000954 6.1199998856 237.27998352 36.000000000 7.6300001144
 4671.2124023 8.5000000000 8.5621995926 0.0299999993 83.255233765  -999.250000 130.94290161  -999.250000 0.2937000096 4.6663999557  -999.250000 2.1026999950 2.0971000195 2.2158000469 2.7005000114 59.055118561  -999.250000  -999.250000 27.999998093 991.65441895 14057.519531 12079.469727 12.000000954 6.4247999191 235.45120239 36.000000000 7.6300001144
 4671.3647461 8.5000000000 8.5871000290 0.0262000002 82.918121338  -999.250000 127.38549805  -999.250000 0.2861999869 5.2416000366  -999.250000 2.1507999897 2.1377999783 2.1765999794 2.7026998997 59.055118561  -999.250000  -999.250000 27.999998093 984.94885254 14027.040039 11972.179688 12.000000954 6.7295999527 233.62239075 36.000000000 7.6300001144
 4671.5170898 8.5000000000 8.5559997559 0.0263999999 84.286949158  -999.250000 127.49349976  -999.250000 0.2953999937 5.1040000916  -999.250000 2.3115999699 2.3001000881 2.3652000427 2.6977000237 59.461418152  -999.250000  -999.250000 27.999998093 978.93121338 13993.120117 11875.071289 11.965600014 6.9656000137 232.00000000 35.965599060 7.6300001144
 4671.6694336 8.5000000000 8.5733995438 0.0275999997 84.454612732  -999.250000 138.53160095  -999.250000 0.2939000130 4.9795999527  -999.250000 2.6280000210 2.6375999451 2.6029000282 2.6879999638 63.061420441  -999.250000  -999.250000 27.999998093 978.32159424 13932.160156 11858.000000 11.660799980 6.6607999802 232.00000000 35.660800934 7.6300001144
 4671.8217773 8.5000000000 8.5621995926 0.0265999995 85.323730469  -999.250000 141.02239990  -999.250000 0.3181000054 4.2414999008  -999.250000 2.9547998905 2.9686999321 3.0350000858 2.6661999226 66.661415100  -999.250000  -999.250000 27.999998093 977.71191406 13871.200195 11840.940430 11.355999947 6.3559999466 232.00000000 35.355998993 7.6300001144
 4671.9746094 8.5000000000 8.5932998657 0.0283000004 84.454551697  -999.250000 143.68080139  -999.250000 0.3183631301 4.1553997993  -999.250000 3.0137000084 3.0027000904 3.1772000790 2.6571297646 70.261421204  -999.250000  -999.250000 27.999998093 977.10241699 13810.240234 11823.870117 11.051198959 6.0511999130 232.00000000 35.051200867 7.6300001144
 4672.1269531 8.5000000000 8.5621995926 0.0361000001 86.419166565  -999.250000 143.29760742  -999.250000 0.3068568707 4.2374000549  -999.250000 2.9690999985 2.9904999733 3.1473999023 2.6664328575 73.861419678  -999.250000  -999.250000 28.253597260 976.23919678 13800.000000 11797.420898 11.253600121 6.2536001205 231.49279785 35.253601074 7.6300001144
 4672.2792969 8.5000000000 8.5932998657 0.0392999984 87.256973267  -999.250000 152.79060364  -999.250000 0.2933999896 4.5387997627  -999.250000 2.9210999012 2.9361000061 3.0355999470 2.6767001152 77.461418152  -999.250000  -999.250000 28.558399200 975.32482910 13800.000000 11769.070313 11.558400154 6.5584001541 230.88319397 35.558399200 7.6300001144
 4672.4316406 8.5000000000 8.5621995926 0.0428999998 87.397872925  -999.250000 150.13220215  -999.250000 0.2976000011 4.4735999107  -999.250000 2.7999000549 2.7885000706 2.8822000027 2.6854000092 81.061416626  -999.250000  -999.250000 28.863199234 974.41040039 13800.000000 11740.720703 11.863200188 6.8632001877 230.27360535 35.863201141 7.6300001144
 4672.5839844 8.5000000000 8.6033000946 0.0399999991 85.456916809  -999.250000 147.65049744  -999.250000 0.3048999906 4.5282998085  -999.250000 2.6891999245 2.6979000568 2.7643001080 2.6949999332 80.692909241  -999.250000  -999.250000 28.832000732 972.82397461 13783.200195 11718.759766 11.831998825 6.8319997787 229.66400146 35.832000732 7.6300001144
 4672.7363281 8.5000000000 8.5684003830 0.0392999984 84.481475830  -999.250000 150.03709412  -999.250000 0.3089999855 5.0156002045  -999.250000 2.6802000999 2.6874001026 2.7516999245 2.7160000801 77.092910767  -999.250000  -999.250000 28.527200699 970.69042969 13752.718750 11702.000000 11.527199745 6.5272002220 229.05439758 35.527198792 7.6300001144
 4672.8886719 8.5000000000 8.5871000290 0.0373999998 85.558937073  -999.250000 143.13929749  -999.250000 0.3043999970 5.1609001160  -999.250000 2.8129999638 2.8264000416 2.8889999390 2.7249999046 73.492912292  -999.250000  -999.250000 28.222400665 968.55682373 13722.239258 11685.229492 11.222399712 6.2224001884 228.44477844 35.222400665 7.6300001144
 4673.0410156 8.5000000000 8.5621995926 0.0297999997 82.426383972  -999.250000 141.50219727  -999.250000 0.3082000017 4.8308000565  -999.250000 3.0311999321 3.0299000740 3.1006999016 2.7086000443 70.866142273  -999.250000  -999.250000 27.999998093 967.08239746 13708.240234 11674.730469 10.917599678 6.0000004768 228.00000000 34.917598724 7.6300001144
 4673.1933594 8.5000000000 8.5833997726 0.0197000001 83.849662781  -999.250000 131.34710693  -999.250000 0.3012999892 4.6905999184  -999.250000 3.1851999760 3.2358999252 3.3245000839 2.6882998943 70.866142273  -999.250000  -999.250000 27.999998093 967.38720703 13738.718750 11681.130859 10.612798691 6.0000004768 228.00000000 34.612800598 7.6300001144
 4673.3461914 8.5000000000 8.5747003555 0.0138999997 83.474128723  -999.250000 139.39450073  -999.250000 0.3084795475 5.0152001381  -999.250000 3.2404000759 3.3187000751 3.4240000248 2.6781013012 70.866142273  -999.250000  -999.250000 27.999998093 967.69207764 13769.200195 11687.530273 10.307999611 6.0000004768 228.00000000 34.307998657 7.6300001144
 4673.4985352 8.5000000000 8.5809001923 0.0178999994 83.082557678  -999.250000 141.03160095  -999.250000 0.3021000028 5.1080999374  -999.250000 3.2671000957 3.3412001133 3.4467000961 2.6784999371 70.866142273  -999.250000  -999.250000 27.999998093 967.99676514 13799.679688 11693.929688 10.003199577 6.0000004768 228.00000000 34.003200531 7.6300001144
