# LAS format log file from PETREL
# Project units are specified as depth units
#==================================================================
~Version information
VERS.   2.0:
WRAP.   NO:
#==================================================================
~Well
STRT .m      4670.1455078 :
STOP .m      4804.8671875 :
STEP .m     0.00000000 :
NULL .        -999.250000 :
COMP.           : COMPANY
WELL.  Boreas 1   : WELL
FLD.            : FIELD
LOC.            : LOCATION
SRVC.           : SERVICE COMPANY
DATE.  2017-10-02 11:49:53   : Log Export Date {yyyy-MM-dd HH:mm:ss}
PROV.           : PROVINCE
UWI.   Boreas 1   : UNIQUE WELL ID
API.            : API NUMBER
#==================================================================
~Curve
DEPT .m                   : DEPTH
BIT .in                   : BIT
CAL .in                   : CAL
DRHO .g/cm3               : DRHO
DTC .us/ft                : DTC
DTS .us/ft                : DTS
GR .gAPI                  : GR
NET .m                    : NET
NPHI .m3/m3               : NPHI
PEF .b/e                  : PEF
POTA .%                   : POTA
RESD .ohm.m               : RESD
RESM .ohm.m               : RESM
RESS .ohm.m               : RESS
RHOB .g/cm3               : RHOB
ROP .m/h                  : ROP
THOR .ppm                 : THOR
URAN .ppm                 : URAN
IC4 .%                    : IC4
C2 .%                     : C2
TGAS .%                   : TGAS
C1 .%                     : C1
IC5 .%                    : IC5
NC5 .%                    : NC5
C3 .%                     : C3
NC4 .%                    : NC4
Casing ._                 : Casing
~Parameter
#==================================================================
~Ascii
# ...
 4792.8276367 8.5000000000  -999.250000  -999.250000 67.773742676 115.56109619 69.286300659  -999.250000  -999.250000  -999.250000 0.7599999905 22.720300674 24.069200516 20.184499741  -999.250000 27.694490433 14.126299858 1.4550000429 13.344799995 267.41360474 3865.5200195 2925.9287109 6.3447999954 2.6552000046 69.689598083 14.344799995 7.6300001144
 4792.9799805 8.5000000000  -999.250000  -999.250000 68.495918274 115.09019470 65.293800354  -999.250000  -999.250000  -999.250000 0.6600000262 23.445999146 26.487699509 23.058599472  -999.250000 24.094488144 13.471899986 1.5068999529 13.039999962 265.27999878 3896.0000000 2901.2399902 6.0399999619 2.9600000381 69.080001831 14.039999962 7.6300001144
 4793.1323242 8.5000000000  -999.250000  -999.250000 64.335456848 111.93060303 66.195800781  -999.250000  -999.250000  -999.250000 0.6399999857 19.632900238 23.471599579 21.000000000  -999.250000 23.622047424 13.864999771 1.5814000368 12.735198975 265.52960205 3847.0400391 2893.7629395 6.2648005486 3.0000002384 69.000000000 13.999999046 7.6300001144
 4793.2846680 8.5000000000  -999.250000  -999.250000 61.901000977 109.03099823 63.141998291  -999.250000  -999.250000  -999.250000 0.5799999833 18.444000244 20.881700516 18.839099884  -999.250000 23.622047424 13.388299942 1.4663000107 12.430399895 266.13919067 3786.0800781 2888.8857422 6.5696001053 3.0000002384 69.000000000 13.999999046 7.6300001144
 4793.4370117 8.5000000000  -999.250000  -999.250000 58.877868652 107.42829895 62.893901825  -999.250000  -999.250000  -999.250000 0.6100000143 18.339899063 20.643100739 19.668500900  -999.250000 23.622047424 13.340100288 1.3801000118 12.125599861 266.74880981 3725.1201172 2884.0100098 6.8744006157 3.0000002384 69.000000000 13.999999046 7.6300001144
 4793.5898438 8.5000000000  -999.250000  -999.250000 59.260234833 107.66400146 60.361801147  -999.250000  -999.250000  -999.250000 0.5699999928 20.331899643 22.888900757 21.393199921  -999.250000 21.505512238 11.864199638 1.7453999519 12.000000954 265.38720703 3664.1596680 2860.3168945 6.9999995232 2.8208000660 68.820800781 13.999999046 7.6300001144
 4793.7421875 8.5000000000  -999.250000  -999.250000 63.465950012 107.39469910 60.113098145  -999.250000  -999.250000  -999.250000 0.6200000048 22.898599625 24.969200134 23.928300858  -999.250000 17.905511856 11.479100227 1.7190999985 12.000000954 262.64401245 3603.1999512 2823.4362793 6.9999995232 2.5160000324 68.515998840 13.999999046 7.6300001144
 4793.8945313 8.5000000000  -999.250000  -999.250000 66.975387573 104.55190277 58.664199829  -999.250000  -999.250000  -999.250000 0.6100000143 25.432699203 26.890399933 23.202100754  -999.250000 14.305512428 10.645000458 1.8278000355 12.000000954 259.90078735 3542.2399902 2786.5549316 6.9999995232 2.2111999989 68.211196899 13.999999046 7.6300001144
 4794.0468750 8.5000000000  -999.250000  -999.250000 65.605873108 104.26599884 56.246498108  -999.250000  -999.250000  -999.250000 0.5500000119 28.302600861 28.592899323 23.968399048  -999.250000 12.916535378 10.401900291 1.7352000475 12.000000954 256.68960571 3490.6398926 2752.3886719 6.9999995232 2.0936000347 67.625602722 13.999999046 7.6300001144
 4794.1992188 8.5000000000  -999.250000  -999.250000 63.388549805 105.87609863 56.823501587  -999.250000  -999.250000  -999.250000 0.5799999833 24.866199493 24.492200851 20.988300323  -999.250000 16.516534805 10.006400108 1.7868000269 12.000000954 252.42237854 3460.1599121 2724.3469238 6.9999995232 2.3984000683 66.406402588 13.999999046 7.6300001144
 4794.3515625 8.5000000000  -999.250000  -999.250000 61.693820953 106.55829620 56.785800934  -999.250000  -999.250000  -999.250000 0.5699999928 22.519800186 21.121299744 18.739799500  -999.250000 20.116535187 9.7824001312 1.9256000519 12.000000954 248.15519714 3429.6799316 2696.3059082 6.9999995232 2.7032001019 65.187202454 13.999999046 7.6300001144
 4794.5039063 8.5000000000  -999.250000  -999.250000 60.878231049 103.04689789 57.894001007  -999.250000  -999.250000  -999.250000 0.5500000119 21.795400620 20.562299728 18.026599884  -999.250000 23.527559280 9.8016996384 2.0717000961 12.000000954 244.06399536 3401.6000977 2669.9519043 6.9999995232 3.0000002384 64.015998840 13.999999046 7.6300001144
 4794.6562500 8.5000000000  -999.250000  -999.250000 60.205379486 104.30919647 57.687301636  -999.250000  -999.250000  -999.250000 0.5400000215 22.003200531 20.255699158 18.919399261  -999.250000 19.927558899 9.8183002472 2.1082999706 12.000000954 246.50239563 3462.5600586 2706.2229004 6.9999995232 3.0000002384 64.625602722 13.999999046 7.6300001144
 4794.8085938 8.5000000000  -999.250000  -999.250000 59.640319824 104.39379883 55.741001129  -999.250000  -999.250000  -999.250000 0.5500000119 23.219699860 21.278200150 19.270399094  -999.250000 16.327560425 9.0135002136 2.1716001034 12.000000954 248.94079590 3523.5200195 2742.4936523 6.9999995232 3.0000002384 65.235198975 13.999999046 7.6300001144
 4794.9614258 8.5000000000  -999.250000  -999.250000 60.418991089 102.34249878 55.101501465  -999.250000  -999.250000  -999.250000 0.5699999928 26.975799561 25.524299622 22.739000320  -999.250000 12.727559090 8.7568998337 2.1017999649 12.000000954 251.37919617 3584.4799805 2778.7661133 6.9999995232 3.0000002384 65.844802856 13.999999046 7.6300001144
 4795.1137695 8.5000000000  -999.250000  -999.250000 61.434520721 102.25620270 50.751598358  -999.250000  -999.250000  -999.250000 0.5099999905 35.737201691 35.942401886 27.431600571  -999.250000 11.811023712 8.1829996109 1.9005000591 12.227198601 253.59040833 3622.7199707 2815.0371094 6.7727999687 3.0000002384 66.227203369 13.999999046 7.6300001144
 4795.2661133 8.5000000000  -999.250000  -999.250000 64.261589050 103.27410889 49.976600647  -999.250000  -999.250000  -999.250000 0.4900000095 46.063701630 46.724201202 34.811401367  -999.250000 11.811023712 7.9552001953 1.9493000507 12.531999588 255.72399902 3653.1999512 2851.3081055 6.4679999352 3.0000002384 66.531997681 13.999999046 7.6300001144
 4795.4184570 8.5000000000  -999.250000  -999.250000 62.113121033 103.33499146 48.953899384  -999.250000  -999.250000  -999.250000 0.4199999869 33.608200073 38.821399689 30.511100769  -999.250000 11.811023712 7.9742999077 1.9837000370 12.836799622 257.85760498 3683.6799316 2887.5793457 6.1631999016 3.0000002384 66.836799622 13.999999046 7.6300001144
 4795.5708008 8.5000000000  -999.250000  -999.250000 59.274429321 102.07588959 49.447299957  -999.250000  -999.250000  -999.250000 0.4199999869 25.951499939 26.611600876 23.518999100  -999.250000 11.811023712 8.1337003708 2.0543999672 13.000000000 259.00000000 3700.0000000 2908.8408203 6.0000004768 2.8584001064 66.858398438 13.999999046 7.6300001144
 4795.7231445 8.5000000000  -999.250000  -999.250000 54.943988800 102.17900085 49.836498260  -999.250000  -999.250000  -999.250000 0.4000000060 19.892499924 21.048700333 19.386299133  -999.250000 11.811023712 8.2918996811 2.2365000248 13.000000000 259.00000000 3700.0000000 2912.8032227 6.0000004768 2.5536000729 66.553596497 13.999999046 7.6300001144
 4795.8754883 8.5000000000  -999.250000  -999.250000 55.885150909 102.73840332 51.614299774  -999.250000  -999.250000  -999.250000 0.3600000143 20.875699997 20.953599930 19.500799179  -999.250000 11.811023712 8.8671998978 2.4030001163 13.000000000 259.00000000 3700.0000000 2916.7661133 6.0000004768 2.2488000393 66.248802185 13.999999046 7.6300001144
 4796.0278320 8.5000000000  -999.250000  -999.250000 59.379169464 103.60009766 52.788101196  -999.250000  -999.250000  -999.250000 0.3499999940 21.862199783 22.373100281 20.577499390  -999.250000 12.472440720 9.1128997803 2.4653999805 12.944001198 258.72000122 3694.3999023 2918.4877930 6.0560002327 2.0559999943 65.944000244 13.944000244 7.6300001144
 4796.1801758 8.5000000000  -999.250000  -999.250000 62.499610901 103.26068878 53.368801117  -999.250000  -999.250000  -999.250000 0.3300000131 21.263399124 21.946100235 20.275499344  -999.250000 16.072441101 9.5258998871 2.3831000328 12.639200211 257.19601440 3663.9199219 2910.2580566 6.3607997894 2.3608000278 65.639198303 13.639200211 7.6300001144
