# LAS format log file from PETREL
# Project units are specified as depth units
#==================================================================
~Version information
VERS.   2.0:
WRAP.   NO:
#==================================================================
~Well
STRT .m      4670.1455078 :
STOP .m      4804.8671875 :
STEP .m     0.00000000 :
NULL .        -999.250000 :
COMP.           : COMPANY
WELL.  Boreas 1   : WELL
FLD.            : FIELD
LOC.            : LOCATION
SRVC.           : SERVICE COMPANY
DATE.  2017-10-02 11:49:53   : Log Export Date {yyyy-MM-dd HH:mm:ss}
PROV.           : PROVINCE
UWI.   Boreas 1   : UNIQUE WELL ID
API.            : API NUMBER
#==================================================================
~Curve
DEPT .m                   : DEPTH
BIT .in                   : BIT
CAL .in                   : CAL
DRHO .g/cm3               : DRHO
DTC .us/ft                : DTC
DTS .us/ft                : DTS
GR .gAPI                  : GR
NET .m                    : NET
NPHI .m3/m3               : NPHI
PEF .b/e                  : PEF
POTA .%                   : POTA
RESD .ohm.m               : RESD
RESM .ohm.m               : RESM
RESS .ohm.m               : RESS
RHOB .g/cm3               : RHOB
ROP .m/h                  : ROP
THOR .ppm                 : THOR
URAN .ppm                 : URAN
IC4 .%                    : IC4
C2 .%                     : C2
TGAS .%                   : TGAS
C1 .%                     : C1
IC5 .%                    : IC5
NC5 .%                    : NC5
C3 .%                     : C3
NC4 .%                    : NC4
Casing ._                 : Casing
~Parameter
#==================================================================
~Ascii
# ...
 4677.1557617 8.5000000000 8.5809001923 0.0293000005 85.914848328  -999.250000 138.08850098  -999.250000 0.2750999928 4.4580998421  -999.250000 3.0999999046 3.1422998905 3.2392001152 2.6635999680 59.055118561  -999.250000  -999.250000 27.687999725 952.32000732 13437.600586 11396.370117 11.000000000 6.0000004768 220.68800354 35.000000000 7.6300001144
 4677.3085938 8.5000000000 8.5833997726 0.0295000002 86.733276367  -999.250000 143.64509583  -999.250000 0.2863111794 4.4488000870  -999.250000 3.0634999275 3.1113998890 3.1856000423 2.6488802433 59.055118561  -999.250000  -999.250000 27.383199692 947.74804688 13376.639648 11362.539063 11.000000000 6.0000004768 220.38319397 35.000000000 7.6300001144
 4677.4609375 8.5000000000 8.5684003830 0.0270000007 84.039505005  -999.250000 144.15480042  -999.250000 0.2897999883 4.2741999626  -999.250000 3.0316998959 3.0818998814 3.1551001072 2.6426999569 59.055118561  -999.250000  -999.250000 27.078399658 943.17602539 13315.679688 11328.702148 11.000000000 6.0000004768 220.07841492 35.000000000 7.6300001144
 4677.6132813 8.5000000000 8.5747003555 0.0280000009 85.088317871  -999.250000 142.68170166  -999.250000 0.2996000051 4.0692000389  -999.250000 3.0285000801 3.0824000835 3.1661999226 2.6426000595 59.055118561  -999.250000  -999.250000 27.000000000 939.73602295 13300.000000 11309.129883 10.773599625 6.0000004768 219.54721069 35.000000000 7.6300001144
 4677.7656250 8.5000000000 8.5747003555 0.0254999995 85.027931213  -999.250000 141.72369385  -999.250000 0.2842000127 4.0661001205  -999.250000 3.0241999626 3.0817000866 3.1598000526 2.6449999809 59.055118561  -999.250000  -999.250000 27.000000000 936.68804932 13300.000000 11294.500000 10.468799591 6.0000004768 218.93760681 35.000000000 7.6300001144
 4677.9179688 8.5000000000 8.5559997559 0.0256999992 85.152847290  -999.250000 138.65420532  -999.250000 0.2854999900 4.0682997704  -999.250000 3.0492999554 3.1031000614 3.1970999241 2.6456999779 59.055118561  -999.250000  -999.250000 27.000000000 933.64001465 13300.000000 11279.870117 10.163999557 6.0000004768 218.32800293 35.000000000 7.6300001144
 4678.0703125 8.5000000000 8.5882997513 0.0234999992 84.213432312  -999.250000 144.01910400  -999.250000 0.2741999924 4.3067998886  -999.250000 2.9486000538 3.0062000751 3.0873000622 2.6398999691 59.055118561  -999.250000  -999.250000 27.000000000 931.29602051 13300.000000 11267.349609 10.000000000 6.0000004768 218.00000000 34.859199524 7.6300001144
 4678.2226563 8.5000000000 8.5559997559 0.0210999995 85.816673279  -999.250000 145.74360657  -999.250000 0.2926999927 4.4657998085  -999.250000 2.8162000179 2.8471000195 2.9458000660 2.6310999393 59.055118561  -999.250000  -999.250000 27.000000000 929.77203369 13300.000000 11257.291016 10.000000000 6.0000004768 218.00000000 34.554401398 7.6300001144
 4678.3750000 8.5000000000 8.5871000290 0.0195000004 87.716758728  -999.250000 148.40390015  -999.250000 0.2939000130 4.5980000496  -999.250000 2.7695000172 2.8020999432 2.8826000690 2.6308999062 59.055118561  -999.250000  -999.250000 27.000000000 928.24810791 13300.000000 11247.240234 10.000000000 6.0000004768 218.00000000 34.249599457 7.6300001144
 4678.5278320 8.5000000000 8.5621995926 0.0203000009 88.797637939  -999.250000 156.06809998  -999.250000 0.3012647331 4.3543000221  -999.250000 2.9066998959 2.9298000336 3.0222001076 2.6353111267 59.707088470  -999.250000  -999.250000 27.000000000 927.05517578 13294.481445 11238.669922 10.055199623 6.0000004768 218.00000000 34.000000000 7.6300001144
 4678.6801758 8.5000000000 8.5871000290 0.0208000001 87.975471497  -999.250000 158.99150085  -999.250000 0.2902814746 4.1230001450  -999.250000 2.9962999821 3.0497999191 3.1944000721 2.6387822628 63.307086945  -999.250000  -999.250000 27.000000000 927.35998535 13264.000000 11236.838867 10.359999657 6.0000004768 218.00000000 34.000000000 7.6300001144
 4678.8325195 8.5000000000 8.5684003830 0.0198999997 88.241409302  -999.250000 159.17619324  -999.250000 0.2845000029 3.9007000923  -999.250000 2.9718999863 3.0157999992 3.1781001091 2.6333000660 66.907089233  -999.250000  -999.250000 27.000000000 927.66473389 13233.519531 11235.010742 10.664799690 6.0000004768 218.00000000 34.000000000 7.6300001144
 4678.9848633 8.5000000000 8.5871000290 0.0211999994 88.351455688  -999.250000 159.37699890  -999.250000 0.2820999920 3.8808000088  -999.250000 2.8675999641 2.9277000427 3.0339999199 2.6342000961 70.507087708  -999.250000  -999.250000 27.000000000 927.96966553 13203.040039 11233.179688 10.969598770 6.0000004768 218.00000000 34.000000000 7.6300001144
 4679.1372070 8.5000000000 8.5559997559 0.0267999992 86.791450500  -999.250000 155.87869263  -999.250000 0.2865999937 4.2498998642  -999.250000 2.8492999077 2.8800001144 2.9321000576 2.6445000172 70.866142273  -999.250000  -999.250000 27.000000000 925.53039551 13172.559570 11206.379883 11.000000000 6.2744007111 217.17680359 34.000000000 7.6300001144
 4679.2895508 8.5000000000 8.5932998657 0.0228000004 86.765747070  -999.250000 152.01060486  -999.250000 0.3005000055 4.2743000984  -999.250000 2.9567999840 2.9993000031 3.0583000183 2.6403000355 70.866142273  -999.250000  -999.250000 27.000000000 922.78710938 13142.080078 11176.819336 11.000000000 6.5791997910 216.26239014 34.000000000 7.6300001144
 4679.4418945 8.5000000000 8.5559997559 0.0211999994 86.364761353  -999.250000 147.21130371  -999.250000 0.3025999963 4.5068998337  -999.250000 3.1229999065 3.1742999554 3.3106999397 2.6322999001 70.866142273  -999.250000  -999.250000 27.000000000 920.04400635 13111.599609 11147.249023 11.000000000 6.8839998245 215.34800720 34.000000000 7.6300001144
 4679.5942383 8.5000000000 8.5809001923 0.0175000001 86.714393616  -999.250000 148.36090088  -999.250000 0.3147999942 4.4958000183  -999.250000 3.2084999084 3.2514998913 3.4107999802 2.6170001030 68.636222839  -999.250000  -999.250000 27.188800812 919.18878174 13099.999023 11129.389648 10.811200142 6.6223998070 215.00000000 34.188800812 7.6300001144
 4679.7465820 8.5000000000 8.5783996582 0.0189999994 86.844085693  -999.250000 155.41700745  -999.250000 0.3041000068 4.5928997993  -999.250000 3.1170001030 3.1493000984 3.2627000809 2.6140999794 65.036224365  -999.250000  -999.250000 27.493600845 919.49359131 13099.999023 11118.718750 10.506400108 6.0128002167 215.00000000 34.493598938 7.6300001144
 4679.8994141 8.5000000000 8.5747003555 0.0189999994 87.003433228  -999.250000 158.96830750  -999.250000 0.3006468117 4.5114998817  -999.250000 2.9484999180 2.9693999290 3.0910000801 2.6244554520 61.436218262  -999.250000  -999.250000 27.798400879 919.79840088 13099.999023 11108.059570 10.201600075 5.4032001495 215.00000000 34.798400879 7.6300001144
 4680.0517578 8.5000000000 8.5871000290 0.0240000002 87.093551636  -999.250000 158.96830750  -999.250000 0.2841271460 4.2987999916  -999.250000 2.7859001160 2.7955000401 2.9063000679 2.6417338848 59.055118561  -999.250000  -999.250000 27.999998093 920.00000000 13089.679688 11101.000000 10.103199959 5.0000000000 215.00000000 35.000000000 7.6300001144
 4680.2041016 8.5000000000 8.5621995926 0.0225000009 88.017532349  -999.250000 159.17260742  -999.250000 0.2926000059 4.4833998680  -999.250000 2.7521998882 2.7676000595 2.8533999920 2.6522998810 59.055118561  -999.250000  -999.250000 27.999998093 920.00000000 13059.200195 11101.000000 10.407999992 5.0000000000 215.00000000 35.000000000 7.6300001144
 4680.3564453 8.5000000000 8.6056995392 0.0274000000 90.196929932  -999.250000 154.94929504  -999.250000 0.2892000079 4.9551000595  -999.250000 2.9079000950 2.9151999950 3.0020999908 2.6659998894 59.055118561  -999.250000  -999.250000 27.999998093 920.00000000 13028.719727 11101.000000 10.712800026 5.0000000000 215.00000000 35.000000000 7.6300001144
 4680.5087891 8.5000000000 8.5684003830 0.0311999992 90.492813110  -999.250000 150.35420227  -999.250000 0.2942999899 5.5630002022  -999.250000 3.0631000996 3.0792999268 3.1947999001 2.6910998821 59.055118561  -999.250000  -999.250000 27.964799881 919.84161377 12998.240234 11098.549805 11.000000000 5.0000000000 214.96479797 34.982398987 7.6300001144
