# LAS format log file from PETREL
# Project units are specified as depth units
#==================================================================
~Version information
VERS.   2.0:
WRAP.   NO:
#==================================================================
~Well
STRT .m      4670.1455078 :
STOP .m      4804.8671875 :
STEP .m     0.00000000 :
NULL .        -999.250000 :
COMP.           : COMPANY
WELL.  Boreas 1   : WELL
FLD.            : FIELD
LOC.            : LOCATION
SRVC.           : SERVICE COMPANY
DATE.  2017-10-02 11:49:53   : Log Export Date {yyyy-MM-dd HH:mm:ss}
PROV.           : PROVINCE
UWI.   Boreas 1   : UNIQUE WELL ID
API.            : API NUMBER
#==================================================================
~Curve
DEPT .m                   : DEPTH
BIT .in                   : BIT
CAL .in                   : CAL
DRHO .g/cm3               : DRHO
DTC .us/ft                : DTC
DTS .us/ft                : DTS
GR .gAPI                  : GR
NET .m                    : NET
NPHI .m3/m3               : NPHI
PEF .b/e                  : PEF
POTA .%                   : POTA
RESD .ohm.m               : RESD
RESM .ohm.m               : RESM
RESS .ohm.m               : RESS
RHOB .g/cm3               : RHOB
ROP .m/h                  : ROP
THOR .ppm                 : THOR
URAN .ppm                 : URAN
IC4 .%                    : IC4
C2 .%                     : C2
TGAS .%                   : TGAS
C1 .%                     : C1
IC5 .%                    : IC5
NC5 .%                    : NC5
C3 .%                     : C3
NC4 .%                    : NC4
Casing ._                 : Casing
~Parameter
#==================================================================
~Ascii
# ...
 4740.2495117 8.5000000000 8.6492996216 0.0423000008 87.877433777  -999.250000 65.991699219  -999.250000 0.3892000020 6.7880001068 0.5500000119 22.401899338 20.858100891 19.264299393 2.6493999958 47.244094849 3.9851999283 0.6912000179 2.0000000000 1.0000000000 100.00000000 1.0000000000 0.4991999865 1.0000000000 1.0000000000 0.0000000000 7.6300001144
 4740.4018555 8.5000000000 8.6492996216 0.0351000018 86.842529297  -999.250000 62.728298187  -999.250000 0.3824000061 6.6149001122 0.4799999893 45.210201263 35.597599030 21.347200394 2.6398000717 47.244094849 3.7586998940 0.6992999911 2.0000000000 1.0000000000 100.00000000 1.0000000000 0.8040000200 1.0000000000 1.0000000000 0.0000000000 7.6300001144
 4740.5541992 8.5000000000 8.6305999756 0.0250000004 84.781776428  -999.250000 65.184700012  -999.250000 0.3591000140 5.9720997810 0.4499999881 35.130901337 31.686700821 19.488599777 2.6250998974 48.529136658 3.7488000393 0.6581000090 2.0000000000 0.8912000060 100.00000000 1.0000000000 0.8912000060 0.8912000060 0.8912000060 0.0000000000 7.6300001144
 4740.7070313 8.5000000000 8.6555004120 0.0299999993 83.936950684  -999.250000 67.484001160  -999.250000 0.3278653622 5.6216998100 0.3899999857 28.705699921 26.914199829 18.194000244 2.6463627815 52.129135132 3.9614999294 0.6754999757 2.0000000000 0.5863999724 100.00000000 1.0000000000 0.5863999724 0.5863999724 0.5863999724 0.0000000000 7.6300001144
 4740.8593750 8.5000000000 8.6281003952 0.0335999988 81.290893555  -999.250000 69.408599854  -999.250000 0.3171159625 5.3894000053 0.3300000131 13.824999809 16.841899872 19.306400299 2.6659283638 55.729137421 4.0254001617 0.8784000278 2.0000000000 0.2815999985 100.00000000 1.0000000000 0.2815999985 0.2815999985 0.2815999985 0.0000000000 7.6300001144
 4741.0117188 8.5000000000 8.6056995392 0.0296999998 79.822929382  -999.250000 64.655899048  -999.250000 0.3221000135 5.6104001999 0.3100000024 13.815999985 13.286199570 24.938999176 2.6747999191 59.877166748 3.5371999741 0.9963999987 2.0000000000 0.0000000000 100.00000000 1.0463999510 0.0231999997 0.0000000000 0.0000000000 0.0231999997 7.6300001144
 4741.1640625 8.5000000000 8.6120004654 0.0324999988 78.685432434  -999.250000 61.015399933  -999.250000 0.3228999972 5.8218002319 0.3300000131 30.351499557 17.414400101 29.519599915 2.6763000488 70.677169800 3.2597999573 1.0612000227 2.0000000000 0.0000000000 100.00000000 1.6559998989 0.3280000091 0.0000000000 0.0000000000 0.3280000091 7.6300001144
 4741.3164063 8.5000000000 8.5621995926 0.0370999984 76.701339722  -999.250000 58.973098755  -999.250000 0.3156999946 6.5324001312 0.3300000131 40.840301514 36.522300720 36.946701050 2.6844000816 81.477165222 3.5276999474 1.0022000074 2.0000000000 0.0000000000 100.00000000 2.2655999660 0.6327999830 0.0000000000 0.0000000000 0.6327999830 7.6300001144
 4741.4687500 8.5000000000 8.5436000824 0.0322999991 73.933692932  -999.250000 59.267601013  -999.250000 0.3127999902 7.4338002205 0.3799999952 63.660900116 102.57820129 65.773803711 2.6898999214 92.277168274 3.7550001144 1.0333000422 2.0000000000 0.0000000000 100.00000000 2.8752002716 0.9376000762 0.0000000000 0.0000000000 0.9376000762 7.6300001144
 4741.6210938 8.5000000000 8.5385999680 0.0331999995 71.005958557  -999.250000 58.467800140  -999.250000 0.3222000003 7.7144999504 0.3700000048 199.78089905 177.45869446 109.72270203 2.6928000450 83.036224365 3.7469999790 1.1591000557 2.0000000000 0.0000000000 100.00000000 2.5151998997 0.7576000094 0.0000000000 0.0000000000 1.0000000000 7.6300001144
 4741.7734375 8.5000000000 8.5374002457 0.0364999995 68.406028748  -999.250000 59.736499786  -999.250000 0.3280999959 7.5609998703 0.3899999857 87.515502930 226.92210388 208.13250732 2.6995000839 68.636222839 3.6984999180 1.1485999823 2.0000000000 0.0000000000 100.00000000 1.9055999517 0.4528000057 0.0000000000 0.0000000000 1.0000000000 7.6300001144
 4741.9257813 8.5000000000 8.5312004089 0.0285999998 64.602218628  -999.250000 60.937500000  -999.250000 0.3253999949 7.5959000587 0.3799999952 47.064701080 131.00990295 194.34700012 2.6877999306 54.236221313 3.7223000526 1.1017999649 2.0000000000 0.0000000000 100.00000000 1.2960000038 0.1480000019 0.0000000000 0.0000000000 1.0000000000 7.6300001144
 4742.0786133 8.5000000000 8.5374002457 0.0226000007 66.145202637  -999.250000 66.571197510  -999.250000 0.3022602499 7.1887998581 0.4099999964 41.105201721 82.897598267 284.32540894 2.6937894821 45.392124176 3.8814001083 0.9922000170 2.0000000000 0.1568000019 100.00000000 2.0975999832 0.1568000019 0.1568000019 0.0000000000 0.8432000279 7.6300001144
 4742.2309570 8.5000000000 8.5312004089 0.0267999992 62.341724396  -999.250000 67.344802856  -999.250000 0.2898533642 7.2954998016 0.4399999976 32.866100311 76.520599365 350.44711304 2.7215733528 41.792125702 3.8736000061 0.9677000046 2.0000000000 0.4615999758 100.00000000 4.2312002182 0.4616000056 0.4616000056 0.0000000000 0.5383999944 7.6300001144
 4742.3833008 8.5000000000 8.6579999924 0.0252000000 61.480640411  -999.250000 70.602096558  -999.250000 0.2752999961 7.0528998375 0.5099999905 28.909099579 60.028400421 321.70089722 2.7444999218 38.192127228 3.4888999462 0.9632999897 2.0000000000 0.7664000392 100.00000000 6.3647999763 0.7663999796 0.7663999796 0.0000000000 0.2336000055 7.6300001144
 4742.5356445 8.5000000000 8.8233003616 0.0298999995 59.239200592  -999.250000 71.738601685  -999.250000 0.2574999928 7.5896000862 0.5500000119 23.045499802 35.803199768 247.09460449 2.7614998817 37.114959717 3.5808999538 0.8464999795 2.0000000000 1.0000000000 100.00000000 7.7863998413 1.0000000000 1.0000000000 0.0711999983 0.0711999983 7.6300001144
 4742.6879883 8.5000000000 8.5497999191 0.0335999988 60.493137360  -999.250000 71.308296204  -999.250000 0.2434999943 7.4429001808 0.5699999928 17.711900711 25.018199921 188.08189392 2.7362000942 44.314960480 3.4605000019 0.8256000280 2.0000000000 1.0000000000 100.00000000 6.8719997406 1.0000000000 1.0000000000 0.3760000169 0.3759999871 7.6300001144
 4742.8403320 8.5000000000 8.4751996994 0.0425000004 60.200195313  -999.250000 72.989097595  -999.250000 0.2371000051 7.8004999161 0.5799999833 17.400100708 23.066499710 159.95379639 2.7228000164 51.514961243 3.8410000801 0.7159000039 2.0000000000 1.0000000000 100.00000000 5.9576005936 1.0000000000 1.0000000000 0.6808000207 0.6808000207 7.6300001144
 4742.9926758 8.5000000000 8.4876003265 0.0383000001 57.685672760  -999.250000 70.659103394  -999.250000 0.2318000048 8.0977001190 0.6000000238 22.592699051 26.144500732 146.29350281 2.7139000893 58.714962006 3.7344000340 0.8654000163 2.0000000000 1.0000000000 100.00000000 5.0432000160 1.0000000000 1.0000000000 0.9855999947 0.9855999947 7.6300001144
 4743.1450195 8.5000000000 8.4813995361 0.0548000000 56.695159912  -999.250000 71.425598145  -999.250000 0.2194000036 7.8530998230 0.5799999833 21.754600525 30.025899887 156.33900452 2.7623000145 59.055118561 3.5522999763 1.0327999592 2.0000000000 1.0000000000 100.00000000 3.8384001255 1.0000000000 0.7095999718 0.7095999718 0.7095999718 7.6300001144
 4743.2973633 8.5000000000 8.5062999725 0.0610999987 56.163581848  -999.250000 68.356002808  -999.250000 0.2162999958 6.4426999092 0.5699999928 26.821899414 33.557201385 193.35949707 2.8015000820 59.055118561 3.7497000694 0.7911999822 2.0000000000 1.0000000000 100.00000000 2.6191999912 1.0000000000 0.4047999978 0.4047999680 0.4047999978 7.6300001144
 4743.4501953 8.5000000000 8.4988002777 0.0522999987 53.085060120  -999.250000 71.996597290  -999.250000 0.2282814682 6.3519001007 0.5299999714 21.352399826 30.258100510 186.62370300 2.8155739307 59.055118561 3.4886999130 0.7257999778 2.0000000000 1.0000000000 100.00000000 1.3999999762 1.0000000000 0.0999999940 0.0999999940 0.0999999940 7.6300001144
 4743.6025391 8.5000000000 8.4876003265 0.0399000011 55.565170288  -999.250000 71.613296509  -999.250000 0.2536999881 6.4839000702 0.5099999905 21.831199646 33.190101624 162.11129761 2.8074998856 61.474014282 3.5769999027 0.6715000272 2.0000000000 1.0000000000 100.00000000 1.0000000000 1.0000000000 0.0000000000 0.0000000000 0.2047999948 7.6300001144
