# LAS format log file from PETREL
# Project units are specified as depth units
#==================================================================
~Version information
VERS.   2.0:
WRAP.   NO:
#==================================================================
~Well
STRT .m      4670.1455078 :
STOP .m      4804.8671875 :
STEP .m     0.00000000 :
NULL .        -999.250000 :
COMP.           : COMPANY
WELL.  Boreas 1   : WELL
FLD.            : FIELD
LOC.            : LOCATION
SRVC.           : SERVICE COMPANY
DATE.  2017-10-02 11:49:53   : Log Export Date {yyyy-MM-dd HH:mm:ss}
PROV.           : PROVINCE
UWI.   Boreas 1   : UNIQUE WELL ID
API.            : API NUMBER
#==================================================================
~Curve
DEPT .m                   : DEPTH
BIT .in                   : BIT
CAL .in                   : CAL
DRHO .g/cm3               : DRHO
DTC .us/ft                : DTC
DTS .us/ft                : DTS
GR .gAPI                  : GR
NET .m                    : NET
NPHI .m3/m3               : NPHI
PEF .b/e                  : PEF
POTA .%                   : POTA
RESD .ohm.m               : RESD
RESM .ohm.m               : RESM
RESS .ohm.m               : RESS
RHOB .g/cm3               : RHOB
ROP .m/h                  : ROP
THOR .ppm                 : THOR
URAN .ppm                 : URAN
IC4 .%                    : IC4
C2 .%                     : C2
TGAS .%                   : TGAS
C1 .%                     : C1
IC5 .%                    : IC5
NC5 .%                    : NC5
C3 .%                     : C3
NC4 .%                    : NC4
Casing ._                 : Casing
~Parameter
#==================================================================
~Ascii
# ...
 4775.3017578 8.5000000000 8.5684003830 0.0175999999 54.332118988 109.45429993 28.060600281  -999.250000 0.0910594240 3.8833999634 0.0799999982 45.644100189 49.787899017 43.070499420 2.5325942039 35.433071136 5.0949001312 1.4105000496 13.000000000 348.36483765 5979.3598633 4933.2021484 8.0000000000 4.0000000000 84.793601990 17.000000000 7.6300001144
 4775.4541016 8.5000000000 8.5497999191 0.0149999997 55.687450409 110.04920959 24.857599258  -999.250000 0.0784000009 3.4858000278 0.0500000007 56.693500519 65.779800415 53.683300018 2.5308001041 35.433071136 5.0139999390 1.1253999472 13.000000000 345.01199341 5918.3999023 4876.2041016 8.0000000000 4.0000000000 84.183998108 17.000000000 7.6300001144
 4775.6064453 8.5000000000 8.5038003922 0.0264999997 56.406169891 109.10990143 22.903099060  -999.250000 0.0742999986 3.4842998981 0.0399999991 61.375499725 74.707603455 58.998901367 2.5301001072 35.433071136 4.8948001862 0.9472000003 12.787199974 342.72320557 5857.4404297 4829.2080078 7.7871999741 3.7871999741 84.000000000 17.000000000 7.6300001144
 4775.7587891 8.5000000000 8.4939002991 0.0217000004 56.993209839 111.15959930 21.972200394  -999.250000 0.0732000023 3.4507999420 0.0500000007 55.058898926 85.088699341 67.378501892 2.5341999531 35.433071136 4.5487999916 0.9794999957 12.482399940 340.89440918 5796.4799805 4786.5361328 7.4823999405 3.4823999405 84.000000000 17.000000000 7.6300001144
 4775.9111328 8.5000000000 8.5062999725 0.0195000004 55.808799744 111.46009827 21.974899292  -999.250000 0.0750999972 3.4193000793 0.0599999987 57.858501434 119.58159637 79.600799561 2.5234999657 35.433071136 4.6728000641 0.9078000188 12.177599907 339.06561279 5735.5200195 4743.8637695 7.1775999069 3.1775999069 84.000000000 17.000000000 7.6300001144
 4776.0634766 8.5000000000 8.4939002991 0.0239000004 55.845901489 109.25779724 21.888599396  -999.250000 0.0680000037 3.3738999367 0.0700000003 73.507797241 88.727096558 82.308403015 2.5311000347 35.433071136 4.8443999290 0.7348999977 12.000000954 337.49121094 5674.5600586 4699.4111328 7.1272006035 3.1271998882 83.745597839 17.000000000 7.6300001144
 4776.2158203 8.5000000000 8.5062999725 0.0275999997 55.450580597 109.45010376 20.961700439  -999.250000 0.0659999996 3.3684000969 0.0700000003 63.867900848 60.241600037 77.445602417 2.5418999195 35.433071136 4.2973999977 0.8198999763 12.000000954 336.27203369 5613.6000977 4652.4721680 7.4320001602 3.4319999218 83.136001587 17.000000000 7.6300001144
 4776.3681641 8.5000000000 8.4876003265 0.0160000008 55.030498505 112.31030273 22.057399750  -999.250000 0.0807999969 3.1814999580 0.0799999982 40.727699280 49.043399811 59.149700165 2.5432999134 35.433071136 4.4658999443 0.9172999859 12.000000954 335.05279541 5552.6401367 4605.5332031 7.7368006706 3.7367999554 82.526397705 17.000000000 7.6300001144
 4776.5209961 8.5000000000 8.4788999557 0.0194000024 55.055400848 110.69989777 25.395099640  -999.250000 0.1154006347 3.3376998901 0.1199999973 23.134799957 29.823799133 27.015699387 2.5907728672 34.941730499 4.8994002342 1.1080000401 12.000000954 333.75036621 5495.8398438 4561.1728516 8.0000000000 4.0000000000 82.000000000 16.958400726 7.6300001144
 4776.6733398 8.5000000000 8.4751996994 0.0256999992 55.278358459 105.69329834 35.592998505  -999.250000 0.1780000031 3.6203000546 0.1800000072 13.263500214 14.425600052 14.241999626 2.6447000504 31.341733932 6.4679999352 1.6742999554 12.000000954 331.92160034 5465.3598633 4533.1308594 8.0000000000 4.0000000000 82.000000000 16.653600693 7.6300001144
 4776.8256836 8.5000000000 8.4939002991 0.0188999996 55.409038544 102.82009888 46.689498901  -999.250000 0.2152000070 4.5202999115 0.2599999905 9.5736999512 10.134099960 10.256899834 2.6961998940 27.741731644 8.6392002106 2.1231999397 12.000000954 330.09280396 5434.8798828 4505.0898438 8.0000000000 4.0000000000 82.000000000 16.348800659 7.6300001144
 4776.9780273 8.5000000000 8.4503002167 0.0204000007 55.603610992 105.65560150 55.815799713  -999.250000 0.2310000062 5.4998002052 0.3600000143 10.305100441 10.753399849 10.652700424 2.7514998913 24.141731262 9.7287998199 2.5878999233 12.000000954 328.26400757 5404.3994141 4477.0478516 8.0000000000 4.0000000000 82.000000000 16.044000626 7.6300001144
 4777.1303711 8.5000000000 8.4639997482 0.0313000008 56.198364258 109.36239624 64.166397095  -999.250000 0.2178000063 6.2954998016 0.4300000072 12.369299889 12.957599640 12.743000031 2.7853000164 23.622047424 10.366299629 3.2590999603 12.000000954 326.17440796 5373.9204102 4446.9199219 8.0000000000 4.0000000000 81.217597961 16.000000000 7.6300001144
 4777.2827148 8.5000000000 8.4566001892 0.0269000009 56.980091095 115.43710327 71.978202820  -999.250000 0.1969999969 6.2741999626 0.4600000083 13.502400398 14.499799728 14.240200043 2.7899000645 23.622047424 11.531700134 3.6909999847 12.000000954 324.04080200 5343.4399414 4416.4399414 8.0000000000 4.0000000000 80.303192139 16.000000000 7.6300001144
 4777.4350586 8.5000000000 8.4689998627 0.0118000004 57.843318939 116.88849640 78.350898743  -999.250000 0.1862999946 5.4942998886 0.5500000119 13.159600258 14.741600037 14.632399559 2.7434999943 23.622047424 12.288100243 3.9305000305 12.000000954 321.90716553 5312.9599609 4385.9599609 8.0000000000 4.0000000000 79.388809204 16.000000000 7.6300001144
 4777.5874023 8.5000000000 8.4566001892 0.0153999999 57.169231415 113.27458954 76.289001465  -999.250000 0.1904000044 4.7883000374 0.5400000215 12.998000145 14.152899742 14.587699890 2.7439999580 23.622047424 11.852399826 3.8712999821 12.000000954 320.12399292 5282.4799805 4348.8217773 8.1752004623 4.0000000000 79.000000000 16.000000000 7.6300001144
 4777.7402344 8.5000000000 8.4503002167 0.0121999998 56.296230316 115.26010132 76.246597290  -999.250000 0.1920352578 4.3977999687 0.5400000215 12.598199844 13.882200241 13.671299934 2.7106156349 23.622047424 11.541000366 4.0419998169 12.000000954 318.60003662 5252.0000000 4306.7597656 8.4799995422 4.0000000000 79.000000000 16.000000000 7.6300001144
 4777.8925781 8.5000000000 8.4628000259 0.0065000001 55.740810394 119.62529755 74.548599243  -999.250000 0.2030197978 4.0602002144 0.5699999928 12.639399529 13.595700264 12.904600143 2.6843392849 23.622047424 11.358499527 3.7788999081 12.000000954 317.07598877 5221.5200195 4264.6982422 8.7847995758 4.0000000000 79.000000000 16.000000000 7.6300001144
 4778.0449219 8.5000000000 8.4540996552 0.0077000000 55.053161621 118.59529877 77.455398560  -999.250000 0.2091999948 4.0106000900 0.6000000238 13.073100090 13.501000404 13.169099808 2.6654000282 24.680315018 11.483099937 3.9110999107 12.000000954 315.82080078 5191.0400391 4229.8930664 8.9104003906 4.0000000000 79.000000000 15.910400391 7.6300001144
 4778.1972656 8.5000000000 8.4503002167 0.0208000001 55.244651794 116.60879517 74.848396301  -999.250000 0.2133000046 4.4170999527 0.5500000119 13.734000206 14.347100258 13.818400383 2.7007000446 28.280317307 11.696299553 3.5492000580 12.000000954 315.21124268 5160.5600586 4212.5190430 8.6056003571 4.0000000000 79.000000000 15.605600357 7.6300001144
 4778.3496094 8.5000000000 8.4566001892 0.0263999999 55.397060394 113.35069275 73.749099731  -999.250000 0.2046000063 5.2623000145 0.5299999714 14.679800034 15.330599785 14.571800232 2.7395999432 31.880315781 11.609100342 3.4528000355 12.000000954 314.60159302 5130.0800781 4195.1459961 8.3008003235 4.0000000000 79.000000000 15.300800323 7.6300001144
 4778.5019531 8.5000000000 8.4628000259 0.0353000015 55.637451172 112.92890167 72.397598267  -999.250000 0.1976000071 4.9664998055 0.4900000095 13.213899612 13.800600052 13.695300102 2.7560999393 35.433071136 10.852100372 3.5508999825 12.000000954 313.98001099 5099.6000977 4177.6401367 8.0000000000 4.0000000000 78.991996765 15.000000000 7.6300001144
 4778.6542969 8.5000000000 8.4316997528 0.0384000018 56.205009460 115.29329681 73.464401245  -999.250000 0.1852999926 4.5606999397 0.5000000000 12.370100021 12.741100311 12.227000237 2.7530000210 35.433071136 11.660799980 3.2685000896 12.000000954 312.45599365 5069.1201172 4150.2080078 8.0000000000 4.0000000000 78.382400513 15.000000000 7.6300001144
