# LAS format log file from PETREL
# Project units are specified as depth units
#==================================================================
~Version information
VERS.   2.0:
WRAP.   NO:
#==================================================================
~Well
STRT .m      4670.1455078 :
STOP .m      4804.8671875 :
STEP .m     0.00000000 :
NULL .        -999.250000 :
COMP.           : COMPANY
WELL.  Boreas 1   : WELL
FLD.            : FIELD
LOC.            : LOCATION
SRVC.           : SERVICE COMPANY
DATE.  2017-10-02 11:49:53   : Log Export Date {yyyy-MM-dd HH:mm:ss}
PROV.           : PROVINCE
UWI.   Boreas 1   : UNIQUE WELL ID
API.            : API NUMBER
#==================================================================
~Curve
DEPT .m                   : DEPTH
BIT .in                   : BIT
CAL .in                   : CAL
DRHO .g/cm3               : DRHO
DTC .us/ft                : DTC
DTS .us/ft                : DTS
GR .gAPI                  : GR
NET .m                    : NET
NPHI .m3/m3               : NPHI
PEF .b/e                  : PEF
POTA .%                   : POTA
RESD .ohm.m               : RESD
RESM .ohm.m               : RESM
RESS .ohm.m               : RESS
RHOB .g/cm3               : RHOB
ROP .m/h                  : ROP
THOR .ppm                 : THOR
URAN .ppm                 : URAN
IC4 .%                    : IC4
C2 .%                     : C2
TGAS .%                   : TGAS
C1 .%                     : C1
IC5 .%                    : IC5
NC5 .%                    : NC5
C3 .%                     : C3
NC4 .%                    : NC4
Casing ._                 : Casing
~Parameter
#==================================================================
~Ascii
# ...
 4712.2080078 8.5000000000 8.6492996216 0.0410000011 86.495887756  -999.250000 65.530296326  -999.250000 0.4454999864 6.3193998337 0.9800000191 1.2848999500 1.3731000423 1.6010999680 2.5957999229 70.866142273 5.0303997993 1.1608999968 13.583999634 612.23999023 8341.5996094 6683.5434570 10.583998680 5.5840001106 160.83198547 20.751998901 7.6300001144
 4712.3603516 8.5000000000 8.6555004120 0.0452999994 85.534896851  -999.250000 68.142997742  -999.250000 0.4469999969 6.7754001617 0.9700000286 1.1914000511 1.2635999918 1.4486000538 2.5952000618 70.866142273 4.9230999947 1.2470999956 13.279199600 616.81201172 8372.0800781 6739.6269531 10.279199600 5.2792000771 161.44160461 19.837600708 7.6300001144
 4712.5126953 8.5000000000 8.6429996490 0.0439000018 86.140380859  -999.250000 68.333900452  -999.250000 0.4603999853 6.8118000031 0.9499999881 1.1599999666 1.2282999754 1.3803000450 2.5852999687 70.563774109 4.9088001251 1.3552999496 13.383999825 625.24957275 8400.0000000 6855.6909180 10.051199913 5.0255999565 162.89599609 19.409599304 7.6300001144
 4712.6650391 8.5000000000 8.6628999710 0.0425999984 86.057853699  -999.250000 72.932403564  -999.250000 0.4697000086 7.3255000114 0.9700000286 1.1804000139 1.2460999489 1.4334000349 2.5845000744 66.963783264 5.0928997993 1.1499999762 17.955999374 675.84631348 8400.0000000 7625.9208984 10.660799026 5.3303995132 173.56399536 24.286399841 7.6300001144
 4712.8173828 8.5000000000 8.6429996490 0.0489999987 88.638931274  -999.250000 69.936500549  -999.250000 0.4528000057 6.9629001617 0.9700000286 1.2490999699 1.3157999516 1.5629999638 2.5922000408 63.363780975 4.8421998024 1.1355999708 22.527999878 726.44317627 8400.0000000 8396.1503906 11.270400047 5.6352000237 184.23199463 29.163200378 7.6300001144
 4712.9702148 8.5000000000 8.6617002487 0.0544999987 93.716796875  -999.250000 70.702903748  -999.250000 0.4345612228 7.2157998085 0.9599999785 1.3592000008 1.4449000359 1.7215000391 2.6285049915 59.763778687 4.8702998161 1.1604000330 27.100002289 777.03991699 8400.0000000 9166.3798828 11.880000114 5.9400000572 194.89999390 34.040000916 7.6300001144
 4713.1225586 8.5000000000 8.6367998123 0.0545999967 96.375465393  -999.250000 63.805099487  -999.250000 0.4536392987 6.9373002052 0.8999999762 1.4064999819 1.4857000113 1.8413000107 2.6611881256 64.837799072 4.9144001007 1.1117999554 27.755199432 775.73919678 8742.7197266 9190.7041016 11.755200386 6.2448000908 194.79678345 34.755199432 7.6300001144
 4713.2749023 8.5000000000 8.6679000854 0.0516000018 90.987091064  -999.250000 63.272300720  -999.250000 0.4659000039 7.3956999779 0.8999999762 1.4217000008 1.4944000244 1.8093999624 2.6886999607 72.037796021 4.4492001534 1.1332999468 27.450399399 761.71838379 9169.4404297 9032.2080078 11.450400352 6.5496001244 192.05360413 34.450401306 7.6300001144
 4713.4272461 8.5000000000 8.6529998779 0.0542999990 90.185371399  -999.250000 66.357498169  -999.250000 0.4546999931 7.8548998833 0.8799999952 1.3825000525 1.4581999779 1.7482000589 2.6888000965 79.237792969 4.3727998734 1.2817000151 27.145599365 747.69757080 9596.1601563 8873.7119141 11.145600319 6.8544001579 189.31039429 34.145599365 7.6300001144
 4713.5795898 8.5000000000 8.6679000854 0.0370000005 88.377151489  -999.250000 69.656196594  -999.250000 0.4205999970 7.2947998047 0.9399999976 1.2993999720 1.3715000153 1.6606999636 2.6335000992 84.557487488 4.4660000801 1.4376000166 26.840801239 735.10955811 9784.0800781 8721.9023438 11.000000000 6.9999995232 187.20399475 33.840801239 7.6300001144
 4713.7319336 8.5000000000 8.6492996216 0.0320000015 89.917686462  -999.250000 71.146896362  -999.250000 0.4020999968 6.0535998344 0.9599999785 1.2395999432 1.3029999733 1.4929000139 2.5948998928 88.157478333 4.6887998581 1.4103000164 26.535999298 723.83197021 9753.5996094 8576.2080078 11.000000000 6.9999995232 185.67999268 33.535999298 7.6300001144
 4713.8842773 8.5000000000 8.6492996216 0.0324999988 88.920997620  -999.250000 69.977798462  -999.250000 0.4381999969 5.3762998581 0.9700000286 1.2041000128 1.2747000456 1.3214999437 2.5552000999 91.757484436 4.5033998489 1.2375999689 26.231199265 712.55438232 9723.1201172 8430.5136719 11.000000000 6.9999995232 184.15600586 33.231201172 7.6300001144
 4714.0366211 8.5000000000 8.6492996216 0.0432999991 95.245376587  -999.250000 66.679100037  -999.250000 0.4377999902 5.5623998642 0.9599999785 1.2063000202 1.2743999958 1.3897000551 2.5617001057 94.488189697 4.8375000954 0.9998000264 25.926399231 701.79193115 9677.9199219 8294.3867188 11.000000000 6.9264001846 182.55839539 33.000000000 7.6300001144
 4714.1889648 8.5000000000 8.6555004120 0.0419999994 95.841163635  -999.250000 64.010498047  -999.250000 0.4489000142 6.7850999832 0.9300000072 1.3344999552 1.3890000582 1.5975999832 2.5585000515 94.488189697 4.6406998634 1.0620000362 25.621599197 692.64801025 9586.4804688 8188.3168945 11.000000000 6.6215996742 180.72958374 33.000000000 7.6300001144
 4714.3417969 8.5000000000 8.6555004120 0.0509000011 90.841316223  -999.250000 64.010498047  -999.250000 0.4330319464 7.3407001495 0.9300000072 1.5532000065 1.6734999418 1.9263000488 2.5829982758 94.488189697 4.6946001053 1.0687999725 25.316797256 683.50402832 9495.0400391 8082.2465820 11.000000000 6.3168001175 178.90080261 33.000000000 7.6300001144
 4714.4941406 8.5000000000 8.6529998779 0.0425000004 92.747467041  -999.250000 67.076202393  -999.250000 0.4429999888 6.9116001129 0.9399999976 1.6721999645 1.6965999603 2.0443999767 2.5824999809 94.488189697 4.7674999237 1.1887999773 25.011999130 674.36010742 9403.5996094 7976.1757813 11.000000000 6.0119996071 177.07202148 33.000000000 7.6300001144
 4714.6464844 8.5000000000 8.6679000854 0.0428999998 93.287612915  -999.250000 71.852500916  -999.250000 0.4415999949 6.2664999962 0.9599999785 1.5002000332 1.4795000553 1.8442000151 2.5994000435 91.029922485 5.2859997749 1.2661000490 24.707199097 663.45922852 9282.8798828 7840.2402344 11.585600853 6.5855994225 174.36480713 33.000000000 7.6300001144
 4714.7988281 8.5000000000 8.6492996216 0.0384000018 96.959770203  -999.250000 75.527496338  -999.250000 0.4453999996 6.3031997681 1.0199999809 1.3140000105 1.2716000080 1.4925999641 2.5971000195 87.429924011 5.0974001884 1.4357000589 24.402399063 652.48638916 9160.9599609 7703.0800781 12.195199966 7.1951994896 171.62159729 33.000000000 7.6300001144
 4714.9511719 8.5000000000 8.6617002487 0.0326999985 102.35260010  -999.250000 77.443603516  -999.250000 0.4377999902 6.2157001495 1.0099999905 1.1635999680 1.0887000561 1.1844999790 2.5771000385 83.829917908 5.4786000252 1.4107999802 24.097600937 641.51361084 9039.0400391 7565.9199219 12.804799080 7.8048000336 168.87838745 33.000000000 7.6300001144
 4715.1035156 8.5000000000 8.6802997589 0.0260000005 101.22779846  -999.250000 79.168098450  -999.250000 0.4393999875 5.7467999458 1.0000000000 0.9889000058 0.9424999952 0.9998999834 2.5441999435 82.677169800 5.5904002190 1.4479999542 23.792800903 633.64880371 8917.1201172 7470.2001953 13.207199097 7.7927999496 167.17120361 32.585601807 7.6300001144
 4715.2558594 8.5000000000 8.7052001953 0.0362999998 96.054740906  -999.250000 79.516799927  -999.250000 0.4291999936 5.6335000992 0.9599999785 0.9455999732 0.8977000117 0.9535999894 2.5357000828 82.677169800 6.0967998505 1.4450000525 23.488002777 627.24798584 8795.2001953 7394.0004883 13.512000084 7.4879999161 165.95199585 31.975999832 7.6300001144
 4715.4082031 8.5000000000 8.6927995682 0.0302000009 87.865646362  -999.250000 77.858200073  -999.250000 0.4244000018 5.9436998367 0.9300000072 1.0889999866 1.0191999674 1.0877000093 2.5204999447 82.677169800 5.8997001648 1.5582000017 23.183200836 620.84722900 8673.2802734 7317.7998047 13.816800117 7.1831994057 164.73280334 31.366399765 7.6300001144
 4715.5610352 8.5000000000 8.7076997757 0.0318999998 83.654212952  -999.250000 77.858200073  -999.250000 0.4026586711 6.5622000694 0.8199999928 1.3775999546 1.3959000111 1.5197000504 2.5257244110 79.804725647 5.4776000977 1.6618000269 23.000000000 613.35198975 8563.5195313 7229.9262695 13.635199547 6.9999995232 163.14880371 30.878400803 7.6300001144
