# LAS format log file from PETREL
# Project units are specified as depth units
#==================================================================
~Version information
VERS.   2.0:
WRAP.   NO:
#==================================================================
~Well
STRT .m      4697.8823242 :
STOP .m      5330.6469727 :
STEP .m     0.00000000 :
NULL .        -999.250000 :
COMP.           : COMPANY
WELL.  Kronos 1   : WELL
FLD.            : FIELD
LOC.            : LOCATION
SRVC.           : SERVICE COMPANY
DATE.  2017-10-02 11:49:53   : Log Export Date {yyyy-MM-dd HH:mm:ss}
PROV.           : PROVINCE
UWI.   Kronos 1   : UNIQUE WELL ID
API.            : API NUMBER
#==================================================================
~Curve
DEPT .m                   : DEPTH
BIT .in                   : BIT
CAL .in                   : CAL
DRHO .g/cm3               : DRHO
DTC .us/ft                : DTC
DTS .us/ft                : DTS
GR .gAPI                  : GR
NET .m                    : NET
NPHI .m3/m3               : NPHI
PEF .b/e                  : PEF
POTA .%                   : POTA
RESD .ohm.m               : RESD
RESM .ohm.m               : RESM
RESS .ohm.m               : RESS
RHOB .g/cm3               : RHOB
ROP .m/h                  : ROP
THOR .ppm                 : THOR
URAN .ppm                 : URAN
WOB .kN                   : WOB
RFT .bar                  : RFT
IC5 .%                    : IC5
TGAS .%                   : TGAS
IC4 .%                    : IC4
C3 .%                     : C3
C1 .%                     : C1
NC5 .%                    : NC5
NC4 .%                    : NC4
C2 .%                     : C2
Casing ._                 : Casing
~Parameter
#==================================================================
~Ascii
# ...
 4738.1157227 6.0000000000  -999.250000 0.1135232896 69.988365173 136.83189392 42.254173279 0.0000000000 0.3738572598 9.2877130508 0.5454487801 2.4434294701 2.4213404655 2.4016354084 2.6336867809 18.019275665 2.8927841187 0.3796556890 23.006259918  -999.250000 0.0000000000 729.29681396 0.0000000000 40.074218750 235.54589844 1.0000000000 11.768554688 13.652832031 7.0000000000
 4738.2685547 6.0000000000  -999.250000 0.1118799001 72.765243530 143.61900330 37.842620850 0.0000000000 0.3749004900 8.9176826477 0.6431500316 2.7280309200 2.6618769169 2.4396939278 2.6275899410 19.112365723 3.2072072029 0.4419330060 24.097480774  -999.250000 0.0000000000 724.40618896 0.0000000000 38.851562500 238.90820313 1.0000000000 11.462890625 13.194335938 7.0000000000
 4738.4208984 6.0000000000  -999.250000  -999.250000 73.867721558 144.85728455 35.942668915 0.0000000000 0.3967109025 9.0224781036 0.6452689767 2.5634300709 2.5304629803 2.2791690826 2.6287600994 20.201963425 3.3978242874 0.3707691431 25.185214996  -999.250000 0.0000000000 719.53118896 0.0000000000 37.632812500 242.25976563 1.0000000000 11.158203125 12.737304688 7.0000000000
 4738.5732422 6.0000000000  -999.250000  -999.250000 73.385131836 143.88546753 36.779109955 0.0000000000 0.4019393921 9.2004184723 0.5822960138 2.3874380589 2.3102269173 2.1419460773 2.6328699589 21.291561127 3.1754989624 0.3402338028 26.272949219  -999.250000 0.0000000000 714.65625000 0.0000000000 36.414062500 245.61134338 1.0000000000 10.853515625 12.280273438 7.0000000000
 4738.7255859 6.0000000000  -999.250000  -999.250000 72.529159546 143.06059265 37.615550995 0.0000000000 0.4071679115 9.3783597946 0.5273814201 2.2114450932 2.0899910927 2.0047230721 2.6369791031 22.381158829 2.7818710804 0.3571105897 27.360683441  -999.250000 0.0000000000 709.78125000 0.0000000000 35.195312500 248.96290588 1.0000000000 10.548828125 11.823242188 7.0000000000
 4738.8779297 6.0000000000  -999.250000  -999.250000 72.388977051 143.21409607 38.451988220 0.0000000000 0.4123963118 9.5563001633 0.5073701143 2.0354530811 1.8697559834 1.8674999475 2.6410889626 23.470756531 2.7104890347 0.3075439036 28.448417664  -999.250000 0.0000000000 704.90625000 0.0000000000 33.976562500 252.31446838 1.0000000000 10.244140625 11.366210938 7.0000000000
 4739.0302734 6.0000000000  -999.250000 0.1094511971 73.027770996 143.95260620 38.611679077 0.0000000000 0.4192062914 9.4367818832 0.5222393274 2.0984420776 2.2716419697 2.5433630943 2.6330480576 24.469970703 2.7809970379 0.2366369963 29.132305145  -999.250000 0.0000000000 701.66601563 0.0000000000 32.969726563 256.24121094 1.0000000000 10.000000000 11.000000000 7.0000000000
 4739.1826172 6.0000000000  -999.250000 0.1129155010 73.870018005 144.96530151 38.128650665 0.0000000000 0.4242152274 9.3962554932 0.5529618859 2.4772009850 2.7961440086 3.3527550697 2.6251661777 25.104736328 2.7758910656 0.2404460013 28.187772751  -999.250000 0.0000000000 705.01757813 0.0000000000 32.817382813 262.48730469 1.0000000000 10.000000000 11.000000000 7.0000000000
 4739.3349609 6.0000000000  -999.250000 0.1192970499 74.511581421 146.66459656 40.622348785 0.0000000000 0.4036952555 9.7475090027 0.5648301840 3.1097397804 3.3455002308 3.6074507236 2.6287434101 25.739501953 2.7863860130 0.3054979146 27.243242264  -999.250000 0.0000000000 708.36914063 0.0000000000 32.665039063 268.73339844 1.0000000000 10.000000000 11.000000000 7.0000000000
 4739.4873047 6.0000000000  -999.250000 0.1296811849 74.878845215 149.50990295 46.839313507 0.0000000000 0.3866324723 10.374148369 0.5747823715 3.3894841671 3.4699773788 3.5056977272 2.6427359581 26.374267578 2.9190371037 0.3714140058 26.298711777  -999.250000 0.0000000000 711.72070313 0.0000000000 32.512695313 274.97949219 1.0000000000 10.000000000 11.000000000 7.0000000000
 4739.6401367 6.0000000000  -999.250000 0.1398275942 75.043441772 153.23098755 52.387008667 0.0000000000 0.3957313001 10.875419617 0.6167954803 2.9306759834 2.9095859528 3.0514059067 2.6517720222 27.011068344 3.1623568535 0.4827846289 25.351152420  -999.250000 0.0000000000 715.08300781 0.0000000000 32.359863281 281.24560547 1.0000000000 10.000000000 11.000000000 7.0000000000
 4739.7924805 6.0000000000  -999.250000 0.1427311003 75.407203674 156.65768433 53.596599579 0.0000000000 0.4059602916 10.996529579 0.6979009509 2.9707379341 3.5340158939 4.6306600571 2.6454460621 27.645833969 3.5177018642 0.6161985397 24.406621933  -999.250000 0.0000000000 718.43457031 0.0000000000 32.207519531 287.49169922 1.0000000000 10.000000000 11.000000000 7.0000000000
 4739.9448242 6.0000000000  -999.250000 0.1373866946 76.549041748 158.49212646 50.562328339 0.0000000000 0.3843061030 10.671699524 0.7693977952 3.8872039318 5.1483812332 6.9903249741 2.6339740753 28.280599594 3.8618080616 0.7191045284 23.462091446  -999.250000 0.0000000000 721.78613281 0.0000000000 32.055175781 293.73779297 1.0000000000 10.000000000 11.000000000 7.0000000000
 4740.0971680 6.0000000000  -999.250000 0.1310064048 78.315719604 158.18850708 46.353290558 0.0000000000 0.3859019876 10.337479591 0.7765297294 4.0873270035 5.5078282356 6.5915360451 2.6276071072 28.596572876 3.7797970772 0.8218215704 23.510616302  -999.250000 0.0000000000 721.83398438 0.0000000000 31.805664063 297.45751953 1.0000000000 9.9028320313 10.514160156 7.0000000000
 4740.2495117 6.0000000000  -999.250000 0.1291031986 79.550407410 156.01879883 43.070438385 0.0000000000 0.3867768943 10.088520050 0.7300000191 3.8059198856 4.7469801903 5.2457041740 2.6311500072 28.731521606 3.4804909229 0.8295333982 24.123037338  -999.250000 0.0000000000 720.00585938 0.0000000000 31.500976563 299.74267578 1.0000000000 9.7504882813 9.7524414063 7.0000000000
 4740.4018555 6.0000000000  -999.250000 0.1326961964 79.309463501 152.76539612 41.214458466 0.0000000000 0.3830172122 10.072819710 0.6742833853 3.4627199173 3.9636681080 4.6658420563 2.6395010948 28.866472244 3.3510379791 0.7607663274 24.735458374  -999.250000 0.0000000000 718.17773438 0.0000000000 31.196289063 302.02783203 1.0000000000 9.5981445313 8.9907226563 7.0000000000
 4740.5541992 6.0000000000  -999.250000 0.1353662014 77.922767639 149.57710266 41.185119629 0.0000000000 0.3825617731 10.160588264 0.6320825219 3.5791039467 4.0605092049 5.1351909637 2.6441042423 29.001422882 3.2541921139 0.7085475922 25.347881317  -999.250000 0.0000000000 716.34954834 0.0000000000 30.891603470 304.31298828 1.0000000000 9.4458007813 8.2290039063 7.0000000000
 4740.7065430 6.0000000000  -999.250000 0.1365363449 76.424278259 147.49049377 42.207012177 0.0000000000 0.3730149865 10.398226738 0.5899087191 3.8837416172 4.3159770966 5.5615105629 2.6420137882 29.136373520 3.1640689373 0.6817027926 25.960302353  -999.250000 0.0000000000 714.52142334 0.0000000000 30.586915970 306.59814453 1.0000000000 9.2934570313 7.4672851563 7.0000000000
 4740.8588867 6.0000000000  -999.250000 0.1349781156 75.407592773 146.86839294 43.138713837 0.0000000000 0.3704700768 10.584841728 0.5433877110 3.8283421993 4.1646351814 5.0644445419 2.6347212791 29.271324158 3.1861391068 0.6559677720 26.572723389  -999.250000 0.0000000000 712.69329834 0.0000000000 30.282228470 308.88330078 1.0000000000 9.1411132813 6.7055664063 7.0000000000
 4741.0117188 6.0000000000  -999.250000 0.1338142008 74.773536682 147.28984070 44.115249634 0.0000000000 0.3763372898 10.989480019 0.5582275391 3.7020559311 3.9870669842 4.6067910194 2.6333479881 29.301361084 3.1416046619 0.6470549703 27.147148132  -999.250000 0.0000000000 710.92962646 0.0000000000 30.023439407 310.76562500 1.0000000000 9.0000000000 6.0234375000 7.0000000000
 4741.1640625 6.0000000000  -999.250000 0.1338799000 74.146980286 147.76719666 44.057331085 0.0000000000 0.3647899032 11.157239914 0.5900575519 2.9651789665 3.1118819714 3.5633909702 2.6385569572 28.066816330 3.1485388279 0.6787323952 27.240077972  -999.250000 0.0000000000 710.01556396 0.0000000000 30.328126907 307.71875000 1.0000000000 9.0000000000 6.3281250000 7.0000000000
 4741.3164063 6.0000000000  -999.250000 0.1295460016 73.431251526 147.45089722 43.177921295 0.0000000000 0.3607538044 10.843569756 0.6080238819 2.6644079685 2.8071889877 3.3888640404 2.6429090500 26.832271576 3.4039530754 0.6644492745 27.333007813  -999.250000 0.0000000000 709.10150146 0.0000000000 30.632814407 304.67187500 1.0000000000 9.0000000000 6.6328125000 7.0000000000
