# LAS format log file from PETREL
# Project units are specified as depth units
#==================================================================
~Version information
VERS.   2.0:
WRAP.   NO:
#==================================================================
~Well
STRT .m      4697.8823242 :
STOP .m      5330.6469727 :
STEP .m     0.00000000 :
NULL .        -999.250000 :
COMP.           : COMPANY
WELL.  Kronos 1   : WELL
FLD.            : FIELD
LOC.            : LOCATION
SRVC.           : SERVICE COMPANY
DATE.  2017-10-02 11:49:53   : Log Export Date {yyyy-MM-dd HH:mm:ss}
PROV.           : PROVINCE
UWI.   Kronos 1   : UNIQUE WELL ID
API.            : API NUMBER
#==================================================================
~Curve
DEPT .m                   : DEPTH
BIT .in                   : BIT
CAL .in                   : CAL
DRHO .g/cm3               : DRHO
DTC .us/ft                : DTC
DTS .us/ft                : DTS
GR .gAPI                  : GR
NET .m                    : NET
NPHI .m3/m3               : NPHI
PEF .b/e                  : PEF
POTA .%                   : POTA
RESD .ohm.m               : RESD
RESM .ohm.m               : RESM
RESS .ohm.m               : RESS
RHOB .g/cm3               : RHOB
ROP .m/h                  : ROP
THOR .ppm                 : THOR
URAN .ppm                 : URAN
WOB .kN                   : WOB
RFT .bar                  : RFT
IC5 .%                    : IC5
TGAS .%                   : TGAS
IC4 .%                    : IC4
C3 .%                     : C3
C1 .%                     : C1
NC5 .%                    : NC5
NC4 .%                    : NC4
C2 .%                     : C2
Casing ._                 : Casing
~Parameter
#==================================================================
~Ascii
# ...
 5321.5029297 6.0000000000 5.5996756554  -999.250000  -999.250000  -999.250000  -999.250000 0.0000000000  -999.250000  -999.250000  -999.250000  -999.250000  -999.250000  -999.250000  -999.250000 35.345699310  -999.250000  -999.250000 17.221172333  -999.250000 0.0000000000 458.39160156 0.0000000000 9.0000000000 226.40332031 0.0000000000 2.0000000000 1.0000000000 4.5000000000
 5321.6557617 6.0000000000 5.5988512039  -999.250000  -999.250000  -999.250000  -999.250000 0.0000000000  -999.250000  -999.250000  -999.250000  -999.250000  -999.250000  -999.250000  -999.250000 33.355072021  -999.250000  -999.250000 17.282304764  -999.250000 0.0000000000 452.73681641 0.0000000000 9.0000000000 221.35986328 0.0000000000 2.0000000000 1.0000000000 4.5000000000
 5321.8081055 6.0000000000 5.6001257896  -999.250000  -999.250000  -999.250000  -999.250000 0.0000000000  -999.250000  -999.250000  -999.250000  -999.250000  -999.250000  -999.250000  -999.250000 31.370805740  -999.250000  -999.250000 17.343242645  -999.250000 0.0000000000 447.10009766 0.0000000000 9.0000000000 216.33251953 0.0000000000 2.0000000000 1.0000000000 4.5000000000
 5321.9604492 6.0000000000 5.6000170708  -999.250000  -999.250000  -999.250000  -999.250000 0.0000000000  -999.250000  -999.250000  -999.250000  -999.250000  -999.250000  -999.250000  -999.250000 29.386537552  -999.250000  -999.250000 17.404180527  -999.250000 0.0000000000 441.46337891 0.0000000000 9.0000000000 211.30517578 0.0000000000 2.0000000000 1.0000000000 4.5000000000
 5322.1127930 6.0000000000 5.6011118889  -999.250000  -999.250000  -999.250000  -999.250000 0.0000000000  -999.250000  -999.250000  -999.250000  -999.250000  -999.250000  -999.250000  -999.250000 27.964754105  -999.250000  -999.250000 17.436918259  -999.250000 0.0000000000 436.50341797 0.0000000000 9.0000000000 203.90917969 0.0000000000 2.0000000000 1.0000000000 4.5000000000
 5322.2651367 6.0000000000 5.6032738686  -999.250000  -999.250000  -999.250000  -999.250000 0.0000000000  -999.250000  -999.250000  -999.250000  -999.250000  -999.250000  -999.250000  -999.250000 26.740207672  -999.250000  -999.250000 17.459770203  -999.250000 0.0000000000 431.78076172 0.0000000000 9.0000000000 195.68261719 0.0000000000 2.0000000000 1.0000000000 4.5000000000
 5322.4174805 6.0000000000 5.6037979126  -999.250000  -999.250000  -999.250000  -999.250000 0.0000000000  -999.250000  -999.250000  -999.250000  -999.250000  -999.250000  -999.250000  -999.250000 25.515659332  -999.250000  -999.250000 17.482622147  -999.250000 0.0000000000 427.05810547 0.0000000000 9.0000000000 187.45605469 0.0000000000 2.0000000000 1.0000000000 4.5000000000
 5322.5698242 6.0000000000 5.6037998199  -999.250000  -999.250000  -999.250000  -999.250000 0.0000000000  -999.250000  -999.250000  -999.250000  -999.250000  -999.250000  -999.250000  -999.250000 24.291110992  -999.250000  -999.250000 17.505474091  -999.250000 0.0000000000 422.33544922 0.0000000000 9.0000000000 179.22949219 0.0000000000 2.0000000000 1.0000000000 4.5000000000
 5322.7221680 6.0000000000 5.6037998199  -999.250000  -999.250000  -999.250000  -999.250000 0.0000000000  -999.250000  -999.250000  -999.250000  -999.250000  -999.250000  -999.250000  -999.250000 23.066564560  -999.250000  -999.250000 17.528324127  -999.250000 0.0000000000 417.61279297 0.0000000000 9.0000000000 171.00292969 0.0000000000 2.0000000000 1.0000000000 4.5000000000
 5322.8745117 6.0000000000 5.6037998199  -999.250000  -999.250000  -999.250000  -999.250000 0.0000000000  -999.250000  -999.250000  -999.250000  -999.250000  -999.250000  -999.250000  -999.250000 21.842016220  -999.250000  -999.250000 17.551176071  -999.250000 0.0000000000 412.89013672 0.0000000000 9.0000000000 162.77636719 0.0000000000 2.0000000000 1.0000000000 4.5000000000
 5323.0273438 6.0000000000 5.6037998199  -999.250000  -999.250000  -999.250000  -999.250000 0.0000000000  -999.250000  -999.250000  -999.250000  -999.250000  -999.250000  -999.250000  -999.250000 20.820774078  -999.250000  -999.250000 17.568632126  -999.250000 0.0000000000 409.24609375 0.0000000000 9.0000000000 156.32812500 0.0000000000 2.0000000000 1.1914062500 4.5000000000
 5323.1796875 6.0000000000 5.6037998199  -999.250000  -999.250000  -999.250000  -999.250000 0.0000000000  -999.250000  -999.250000  -999.250000  -999.250000  -999.250000  -999.250000  -999.250000 20.750801086  -999.250000  -999.250000 17.561016083  -999.250000 0.0000000000 410.61718750 0.0000000000 9.0000000000 158.15625000 0.0000000000 2.0000000000 2.2578125000 4.5000000000
 5323.3320313 6.0000000000 5.6037998199  -999.250000  -999.250000  -999.250000  -999.250000 0.0000000000  -999.250000  -999.250000  -999.250000  -999.250000  -999.250000  -999.250000  -999.250000 20.680826187  -999.250000  -999.250000 17.553398132  -999.250000 0.0000000000 411.98828125 0.0000000000 9.0000000000 159.98437500 0.0000000000 2.0000000000 3.3242187500 4.5000000000
 5323.4843750 6.0000000000 5.6037998199  -999.250000  -999.250000  -999.250000  -999.250000 0.0000000000  -999.250000  -999.250000  -999.250000  -999.250000  -999.250000  -999.250000  -999.250000 20.610851288  -999.250000  -999.250000 17.545782089  -999.250000 0.0000000000 413.35937500 0.0000000000 9.0000000000 161.81250000 0.0000000000 2.0000000000 4.3906250000 4.5000000000
 5323.6367188 6.0000000000 5.6037998199  -999.250000  -999.250000  -999.250000  -999.250000 0.0000000000  -999.250000  -999.250000  -999.250000  -999.250000  -999.250000  -999.250000  -999.250000 20.540878296  -999.250000  -999.250000 17.538164139  -999.250000 0.0000000000 414.73046875 0.0000000000 9.0000000000 163.64062500 0.0000000000 2.0000000000 5.4570312500 4.5000000000
 5323.7890625 6.0000000000 5.6037998199  -999.250000  -999.250000  -999.250000  -999.250000 0.0000000000  -999.250000  -999.250000  -999.250000  -999.250000  -999.250000  -999.250000  -999.250000 20.470903397  -999.250000  -999.250000 17.530548096  -999.250000 0.0000000000 416.10156250 0.0000000000 9.0000000000 165.46875000 0.0000000000 2.0000000000 6.5234375000 4.5000000000
 5323.9414063 6.0000000000 5.6037998199  -999.250000  -999.250000  -999.250000  -999.250000 0.0000000000  -999.250000  -999.250000  -999.250000  -999.250000  -999.250000  -999.250000  -999.250000 20.400928497  -999.250000  -999.250000 17.522930145  -999.250000 0.0000000000 417.47265625 0.0000000000 9.0000000000 167.29687500 0.0000000000 2.0000000000 7.5898437500 4.5000000000
 5324.0937500 6.0000000000 5.6037998199  -999.250000  -999.250000  -999.250000  -999.250000 0.0000000000  -999.250000  -999.250000  -999.250000  -999.250000  -999.250000  -999.250000  -999.250000 21.349040985  -999.250000  -999.250000 17.491874695  -999.250000 0.0000000000 419.21875000 0.0000000000 9.0937500000 170.15625000 0.0000000000 2.0000000000 8.0000000000 4.5000000000
 5324.2460938 6.0000000000 5.6037998199  -999.250000  -999.250000  -999.250000  -999.250000 0.0000000000  -999.250000  -999.250000  -999.250000  -999.250000  -999.250000  -999.250000  -999.250000 22.933456421  -999.250000  -999.250000 17.446172714  -999.250000 0.0000000000 421.19921875 0.0000000000 9.2460937500 173.66015625 0.0000000000 2.0000000000 8.0000000000 4.5000000000
 5324.3989258 6.0000000000 5.6037998199  -999.250000  -999.250000  -999.250000  -999.250000 0.0000000000  -999.250000  -999.250000  -999.250000  -999.250000  -999.250000  -999.250000  -999.250000 24.522949219  -999.250000  -999.250000 17.400321960  -999.250000 0.0000000000 423.18603516 0.0000000000 9.3989257813 177.17529297 0.0000000000 2.0000000000 8.0000000000 4.5000000000
 5324.5512695 6.0000000000 5.6037998199  -999.250000  -999.250000  -999.250000  -999.250000 0.0000000000  -999.250000  -999.250000  -999.250000  -999.250000  -999.250000  -999.250000  -999.250000 26.107364655  -999.250000  -999.250000 17.354618073  -999.250000 0.0000000000 425.16650391 0.0000000000 9.5512695313 180.67919922 0.0000000000 2.0000000000 8.0000000000 4.5000000000
 5324.7036133 6.0000000000 5.6037998199  -999.250000  -999.250000  -999.250000  -999.250000 0.0000000000  -999.250000  -999.250000  -999.250000  -999.250000  -999.250000  -999.250000  -999.250000 27.691778183  -999.250000  -999.250000 17.308916092  -999.250000 0.0000000000 427.14697266 0.0000000000 9.7036132813 184.18310547 0.0000000000 2.0000000000 8.0000000000 4.5000000000
