# LAS format log file from PETREL
# Project units are specified as depth units
#==================================================================
~Version information
VERS.   2.0:
WRAP.   NO:
#==================================================================
~Well
STRT .m      4697.8823242 :
STOP .m      5330.6469727 :
STEP .m     0.00000000 :
NULL .        -999.250000 :
COMP.           : COMPANY
WELL.  Kronos 1   : WELL
FLD.            : FIELD
LOC.            : LOCATION
SRVC.           : SERVICE COMPANY
DATE.  2017-10-02 11:49:53   : Log Export Date {yyyy-MM-dd HH:mm:ss}
PROV.           : PROVINCE
UWI.   Kronos 1   : UNIQUE WELL ID
API.            : API NUMBER
#==================================================================
~Curve
DEPT .m                   : DEPTH
BIT .in                   : BIT
CAL .in                   : CAL
DRHO .g/cm3               : DRHO
DTC .us/ft                : DTC
DTS .us/ft                : DTS
GR .gAPI                  : GR
NET .m                    : NET
NPHI .m3/m3               : NPHI
PEF .b/e                  : PEF
POTA .%                   : POTA
RESD .ohm.m               : RESD
RESM .ohm.m               : RESM
RESS .ohm.m               : RESS
RHOB .g/cm3               : RHOB
ROP .m/h                  : ROP
THOR .ppm                 : THOR
URAN .ppm                 : URAN
WOB .kN                   : WOB
RFT .bar                  : RFT
IC5 .%                    : IC5
TGAS .%                   : TGAS
IC4 .%                    : IC4
C3 .%                     : C3
C1 .%                     : C1
NC5 .%                    : NC5
NC4 .%                    : NC4
C2 .%                     : C2
Casing ._                 : Casing
~Parameter
#==================================================================
~Ascii
 4697.8823242 6.0000000000  -999.250000 0.1103727967 77.539398193 142.44039917 34.858699799 0.0000000000 0.2196498960 8.8304004669  -999.250000 2.6612939835 2.5926659107 2.5234279633 2.7040460110 22.205503464  -999.250000  -999.250000 24.524692535  -999.250000 0.0000000000 1114.5917969 0.1176757813 71.941406250 403.47314453 0.1176757813 8.4121093750 42.293945313 7.0000000000
 4698.0346680 6.0000000000  -999.250000 0.1139018983 74.924560547 140.39349365 36.819408417 0.0000000000 0.2162172049 8.9805469513  -999.250000 2.3460750580 2.3057360649 2.1945691109 2.6874399185 22.158004761  -999.250000  -999.250000 24.543251038  -999.250000 0.0000000000 1101.6987305 0.0346679688 70.965332031 394.38671875 0.0346679688 7.3813476563 43.381347656 7.0000000000
 4698.1870117 6.0000000000  -999.250000 0.1166481003 73.036903381 138.19050598 36.806541443 0.0000000000 0.2111124545 9.1072006226 0.7621176839 2.0804219246 2.1287879944 2.1441590786 2.6770083904 22.068038940 2.7150950432 0.6038358212 24.381767273  -999.250000 0.0000000000 1109.1635742 0.1870117188 70.812988281 400.48046875 0.1870117188 9.0571289063 45.057128906 7.0000000000
 4698.3393555 6.0000000000  -999.250000 0.1129317135 72.451293945 136.37379456 34.596244812 0.0000000000 0.2185664773 9.0982561111 0.6754795909 2.0709793568 2.1469328403 2.2167184353 2.6740531921 21.978071213 2.4867460728 0.5962402821 24.220283508  -999.250000 0.0000000000 1116.6284180 0.3393554688 70.660644531 406.57421875 0.3393554688 10.732910156 46.732910156 7.0000000000
 4698.4916992 6.0000000000  -999.250000 0.1109225228 72.868148804 134.83650208 32.187355042 0.0000000000 0.2276691049 9.0394926071 0.6329147816 2.4630682468 2.5137784481 2.6167254448 2.6765151024 21.888105392 2.5892889500 0.5761439800 24.058799744  -999.250000 0.0000000000 1124.0932617 0.4916992188 70.508300781 412.66796875 0.4916992188 12.408691406 48.408691406 7.0000000000
 4698.6445313 6.0000000000  -999.250000 0.1099340990 73.446456909 132.80601501 29.973350525 0.0000000000 0.2345979959 8.9919567108 0.6228291392 3.0962579250 3.0677440166 3.1205039024 2.6788139343 21.797849655 2.8679652214 0.5508882403 23.896797180  -999.250000 0.0000000000 1131.5820313 0.6445312500 70.355468750 418.78128052 0.6445312500 14.089843750 50.089843750 7.0000000000
 4698.7968750 6.0000000000  -999.250000 0.1115135029 73.576911926 129.97564697 29.163280487 0.0000000000 0.2397239953 8.9909772873 0.6039773822 3.3699300289 3.3130199909 3.2847619057 2.6836950779 21.707881927 3.1241486073 0.5680367351 23.735313416  -999.250000 0.0000000000 1139.0468750 0.7968750000 70.203125000 424.87503052 0.7968750000 15.765625000 51.765625000 7.0000000000
 4698.9492188 6.0000000000  -999.250000 0.1123673022 73.028327942 127.24571228 28.050020218 0.0000000000 0.2286961973 9.0598554611 0.5268312097 3.2885971069 3.3149979115 3.2763309479 2.6943030357 21.617916107 3.0716650486 0.5952622890 23.573827744  -999.250000 0.0000000000 1146.5117188 0.9492187500 70.050781250 430.96878052 0.9492187500 17.441406250 53.441406250 7.0000000000
 4699.1015625 6.0000000000  -999.250000 0.1134836972 71.486503601 125.65899658 26.704189301 0.0000000000 0.2342914045 9.1655387878 0.4227120876 3.1527180672 3.2730929852 3.2568929195 2.7083408833 21.654569626 2.6450119019 0.5790151954 23.748516083  -999.250000 0.0000000000 1139.0468750 1.0000000000 70.000000000 427.61721802 1.0000000000 18.000000000 51.867187500 7.0000000000
 4699.2539063 6.0000000000  -999.250000 0.1160766035 69.329673767 124.57920074 25.723630905 0.0000000000 0.2506417930 9.2470188141 0.3353480101 2.9359190464 3.1380879879 3.2674360275 2.7217741013 21.754531860 2.2471609116 0.5280578136 24.091289520  -999.250000 0.0000000000 1124.1171875 1.0000000000 70.000000000 419.54299927 1.0000000000 18.000000000 48.667968750 7.0000000000
 4699.4062500 6.0000000000  -999.250000 0.1192383990 67.426521301 123.37159729 25.685049057 0.0000000000 0.2461692393 9.4149179459 0.2822273076 2.7692999840 3.0537860394 3.4083719254 2.7302935123 21.854496002 2.2052159309 0.4898374975 24.434062958  -999.250000 0.0000000000 1109.1875000 1.0000000000 70.000000000 411.46878052 1.0000000000 18.000000000 45.468750000 7.0000000000
 4699.5585938 6.0000000000  -999.250000 0.1190550849 66.348381042 123.26770020 26.575740814 0.0000000000 0.2511867285 9.5094203949 0.2568803132 2.8547549248 3.1924579144 3.6621060371 2.7290720940 21.954458237 2.3345949650 0.4752067029 24.776836395  -999.250000 0.0000000000 1094.2578125 1.0000000000 70.000000000 403.39456177 1.0000000000 18.000000000 42.269531250 7.0000000000
 4699.7109375 6.0000000000  -999.250000 0.1153905764 66.476348877 125.03119659 27.917331696 0.0000000000 0.2768984735 9.4686756134 0.2438637018 3.1166257858 3.4843153954 4.0089592934 2.7135617733 22.054420471 2.3572230339 0.4809201062 25.119609833  -999.250000 0.0000000000 1079.3281250 1.0000000000 70.000000000 395.32034302 1.0000000000 18.000000000 39.070312500 7.0000000000
 4699.8632813 6.0000000000  -999.250000 0.1124661714 67.730438232 126.77380371 29.506164551 0.0000000000 0.3395164311 9.3419942856 0.2553547025 3.0245647430 3.4290826321 3.9764599800 2.6844244003 22.154384613 2.2946059704 0.4789878130 25.462383270  -999.250000 0.0000000000 1064.3984375 1.0000000000 70.000000000 387.24612427 1.0000000000 18.000000000 35.871093750 7.0000000000
 4700.0161133 6.0000000000  -999.250000 0.1135940999 69.397727966 125.95510101 29.362060547 0.0000000000 0.3530830145 9.2696256638 0.2868979275 2.4440479279 2.9258179665 3.5080490112 2.6625061035 22.133077621 2.2435808182 0.4578056633 25.788047791  -999.250000 0.0000000000 1053.1591797 1.0000000000 70.145019531 380.37063599 1.0000000000 18.032226563 33.080566406 7.0000000000
 4700.1684570 6.0000000000  -999.250000 0.1119446009 70.829292297 122.52246094 25.765640259 0.0000000000 0.3066422045 9.1510705948 0.3039019108 2.3524110317 2.9366989136 3.7151999474 2.6602189541 21.083465576 2.2675442696 0.4362804294 25.958671570  -999.250000 0.0000000000 1073.5732422 1.0000000000 71.516113281 383.87454224 1.0000000000 18.336914063 33.842285156 7.0000000000
 4700.3208008 6.0000000000  -999.250000  -999.250000 71.473472595 118.89129639 21.140470505 0.0000000000 0.2571739852 8.7860336304 0.2985725105 2.9354350567 3.4061019421 4.2370910645 2.6727869511 20.033853531 2.3943290710 0.4179163873 26.129297256  -999.250000 0.0000000000 1093.9873047 1.0000000000 72.887207031 387.37844849 1.0000000000 18.641601563 34.604003906 7.0000000000
 4700.4731445 6.0000000000  -999.250000  -999.250000 70.617492676 116.97679901 20.091579437 0.0000000000 0.2391061038 8.5790090561 0.2997398973 3.1623849869 3.6549890041 4.6088061333 2.6790180206 18.984239578 2.5380640030 0.3787477911 26.299921036  -999.250000 0.0000000000 1114.4013672 1.0000000000 74.258300781 390.88235474 1.0000000000 18.946289063 35.365722656 7.0000000000
 4700.6254883 6.0000000000  -999.250000  -999.250000 68.111343384 116.19750214 19.042680740 0.0000000000 0.2210382968 8.3719835281 0.3007887900 3.3893370628 3.9038760662 4.9805197716 2.6852469444 17.934627533 2.5388100147 0.2928565145 26.470546722  -999.250000 0.0000000000 1134.8154297 1.0000000000 75.629394531 394.38623047 1.0000000000 19.250976563 36.127441406 7.0000000000
 4700.7778320 6.0000000000  -999.250000  -999.250000 64.835899353 115.35610199 17.993789673 0.0000000000 0.2030281276 8.1656217575 0.2760964036 3.6162869930 4.1527628899 5.3522348404 2.6914582253 16.885015488 2.3665750027 0.1903994977 26.641172409  -999.250000 0.0000000000 1155.2294922 1.0000000000 77.000488281 397.89013672 1.0000000000 19.555664063 36.889160156 7.0000000000
 4700.9301758 6.0000000000  -999.250000  -999.250000 62.122779846 115.15910339 17.761810303 0.0000000000 0.1822104603 8.2731370926 0.2417030931 3.9194259644 4.2935919762 5.8742308617 2.6953892708 15.835402489 2.1126248837 0.1106424034 26.811796188  -999.250000 0.0000000000 1175.6435547 1.0000000000 78.371582031 401.39404297 1.0000000000 19.860351563 37.650878906 7.0000000000
 4701.0825195 6.0000000000  -999.250000 0.1113903224 60.895301819 117.02570343 17.175987244 0.0000000000 0.1721407622 8.5069351196 0.2268504053 4.4811472893 4.2464342117 6.0077462196 2.6992936134 15.884967804 1.8865940571 0.0796157718 26.720834732  -999.250000 0.0000000000 1182.7719727 1.0000000000 78.587402344 407.62109375 1.0000000000 19.917480469 37.422363281 7.0000000000
