# LAS format log file from PETREL
# Project units are specified as depth units
#==================================================================
~Version information
VERS.   2.0:
WRAP.   NO:
#==================================================================
~Well
STRT .m      4697.8823242 :
STOP .m      5330.6469727 :
STEP .m     0.00000000 :
NULL .        -999.250000 :
COMP.           : COMPANY
WELL.  Kronos 1   : WELL
FLD.            : FIELD
LOC.            : LOCATION
SRVC.           : SERVICE COMPANY
DATE.  2017-10-02 11:49:53   : Log Export Date {yyyy-MM-dd HH:mm:ss}
PROV.           : PROVINCE
UWI.   Kronos 1   : UNIQUE WELL ID
API.            : API NUMBER
#==================================================================
~Curve
DEPT .m                   : DEPTH
BIT .in                   : BIT
CAL .in                   : CAL
DRHO .g/cm3               : DRHO
DTC .us/ft                : DTC
DTS .us/ft                : DTS
GR .gAPI                  : GR
NET .m                    : NET
NPHI .m3/m3               : NPHI
PEF .b/e                  : PEF
POTA .%                   : POTA
RESD .ohm.m               : RESD
RESM .ohm.m               : RESM
RESS .ohm.m               : RESS
RHOB .g/cm3               : RHOB
ROP .m/h                  : ROP
THOR .ppm                 : THOR
URAN .ppm                 : URAN
WOB .kN                   : WOB
RFT .bar                  : RFT
IC5 .%                    : IC5
TGAS .%                   : TGAS
IC4 .%                    : IC4
C3 .%                     : C3
C1 .%                     : C1
NC5 .%                    : NC5
NC4 .%                    : NC4
C2 .%                     : C2
Casing ._                 : Casing
~Parameter
#==================================================================
~Ascii
# ...
 5281.2695313 6.0000000000 5.7138862610 0.0101029202 56.597339630 110.80419159 44.460380554 0.0000000000 0.0448738895 5.2302451134 0.6187499762 12.888529778 13.057270050 12.886190414 2.6844899654 26.222753525 4.8280029297 1.0226360559 11.790898323  -999.250000 0.0000000000 394.27734375 0.0000000000 8.0000000000 131.04296875 0.0000000000 2.0000000000 0.0000000000 4.5000000000
 5281.4218750 6.0000000000 5.7158679962 0.0093951328 56.703689575 110.78399658 42.479610443 0.0000000000 0.0427476391 5.1892919540 0.5961726904 13.495309830 13.678400040 13.417340279 2.6777150631 27.507280350 4.8597559929 1.0184739828 12.441406250  -999.250000 0.0000000000 398.39062500 0.0000000000 8.0000000000 133.32812500 0.0000000000 2.0000000000 0.0000000000 4.5000000000
 5281.5742188 6.0000000000 5.7174420357 0.0107412804 56.789440155 109.95919037 41.649459839 0.0000000000 0.0414455906 5.2049179077 0.5698300004 14.223529816 14.609009743 14.093299866 2.6751620770 28.791805267 4.7844791412 1.0183650255 13.091914177  -999.250000 0.0000000000 402.50390625 0.0000000000 8.0000000000 135.61328125 0.0000000000 2.0000000000 0.0000000000 4.5000000000
 5281.7265625 6.0000000000 5.7148270607 0.0106953876 56.824234009 108.60971069 41.849491119 0.0000000000 0.0409731343 5.2600817680 0.5492042899 14.975081444 15.352157593 14.459506035 2.6761190891 30.076330185 4.6467370987 0.9901847839 13.742422104  -999.250000 0.0000000000 406.61718750 0.0000000000 8.0000000000 137.89843750 0.0000000000 2.0000000000 0.0000000000 4.5000000000
 5281.8789063 6.0000000000 5.7113618851 0.0117897904 56.863410950 107.48040009 41.955181122 0.0000000000 0.0414832644 5.1839156151 0.5424222946 15.476166725 15.696042061 14.611754417 2.6803860664 31.360857010 4.5569372177 0.9534090757 14.392930031  -999.250000 0.0000000000 410.73046875 0.0000000000 8.0000000000 140.18359375 0.0000000000 2.0000000000 0.0000000000 4.5000000000
 5282.0317383 6.0000000000 5.7111930847 0.0140495598 56.908260345 107.11738586 41.712211609 0.0000000000 0.0427118503 5.0090270042 0.5503443480 14.821260452 15.260490417 14.176939964 2.6879179478 32.115322113 4.5612306595 0.9347508550 14.904603958  -999.250000 0.0000000000 413.80957031 0.0000000000 8.0000000000 142.19042969 0.0000000000 2.0000000000 0.0000000000 4.5000000000
 5282.1840820 6.0000000000 5.7113714218 0.0128223803 56.938938141 107.70742035 42.058681488 0.0000000000 0.0441878214 4.7868890762 0.5681591630 13.285240173 14.019920349 13.043279648 2.6934850216 30.835792542 4.7067646980 0.9016949534 14.878705978  -999.250000 0.0000000000 412.89550781 0.0000000000 8.0000000000 143.10449219 0.0000000000 2.0000000000 0.0000000000 4.5000000000
 5282.3364258 6.0000000000 5.7110276222 0.0102851102 57.047538757 109.11672211 43.105018616 0.0000000000 0.0455237515 4.6354570389 0.5803354979 12.535039902 12.736310005 11.953639984 2.6945021152 29.556266785 4.8898172379 0.8598225713 14.852807045  -999.250000 0.0000000000 411.98144531 0.0000000000 8.0000000000 144.01855469 0.0000000000 2.0000000000 0.0000000000 4.5000000000
 5282.4887695 6.0000000000 5.7128310204 0.0101916604 57.418399811 110.74479675 43.769001007 0.0000000000 0.0461781994 4.6676578522 0.5847545862 12.785349846 12.917690277 12.110960007 2.6924149990 28.276739120 4.9639430046 0.8384066224 14.826909065  -999.250000 0.0000000000 411.06738281 0.0000000000 8.0000000000 144.93261719 0.0000000000 2.0000000000 0.0000000000 4.5000000000
 5282.6411133 6.0000000000 5.7139716148 0.0097029842 58.051288605 112.09989929 43.311950684 0.0000000000 0.0457181707 4.7798857689 0.5904077888 13.036230087 14.332059860 13.216250420 2.6880199909 26.997211456 4.9396209717 0.7992519140 14.801010132  -999.250000 0.0000000000 410.15332031 0.0000000000 8.0000000000 145.84667969 0.0000000000 2.0000000000 0.0000000000 4.5000000000
 5282.7934570 6.0000000000 5.7135472298 0.0088388314 58.722198486 113.27880096 42.180679321 0.0000000000 0.0445255898 4.9604320526 0.5899999738 12.841650009 14.082010269 13.112130165 2.6835870743 25.717683792 4.8789911270 0.7481908202 14.775112152  -999.250000 0.0000000000 409.23925781 0.0000000000 8.0000000000 146.76074219 0.0000000000 2.0000000000 0.0000000000 4.5000000000
 5282.9458008 6.0000000000 5.7132701874 0.0106543303 59.275199890 114.63570404 41.546058655 0.0000000000 0.0434453301 5.1920585632 0.5916439891 13.181949615 13.392780304 13.128210068 2.6812055111 24.438156128 4.8577499390 0.7578439713 14.749213219  -999.250000 0.0000000000 408.32519531 0.0000000000 8.0000000000 147.67480469 0.0000000000 2.0000000000 0.0000000000 4.5000000000
 5283.0981445 6.0000000000 5.7158150673 0.0117961997 59.767246246 116.43250275 42.017669678 0.0000000000 0.0430870987 5.2322821617 0.6182457805 13.999508858 14.436723709 14.445568085 2.6765887737 24.417634964 4.9331960678 0.8083819747 14.758646965  -999.250000 0.0000000000 408.49072266 0.0000000000 8.0000000000 148.09814453 0.0000000000 2.0000000000 0.0000000000 4.5000000000
 5283.2504883 6.0000000000 5.7187995911 0.0109134698 60.298168182 118.25340271 43.058238983 0.0000000000 0.0441230349 5.1055173874 0.6736696959 13.028012276 13.849279404 13.340357780 2.6681571007 25.092384338 5.1470298767 0.8364887238 14.787592888  -999.250000 0.0000000000 409.25244141 0.0000000000 8.0000000000 148.25048828 0.0000000000 2.0000000000 0.0000000000 4.5000000000
 5283.4033203 6.0000000000 5.7198314667 0.0128115602 60.628936768 119.09542084 43.598499298 0.0000000000 0.0473184213 5.1430230141 0.7247031331 11.116860390 11.733209610 10.799940109 2.6643230915 25.769298553 5.3831396103 0.8640639186 14.816631317  -999.250000 0.0000000000 410.01660156 0.0000000000 8.0000000000 148.40332031 0.0000000000 2.0000000000 0.0000000000 4.5000000000
 5283.5556641 6.0000000000 5.7170357704 0.0208602604 60.376060486 118.34662628 43.585319519 0.0000000000 0.0528699309 5.3312702179 0.7304813862 9.4498977661 9.9729175568 9.3115978241 2.6676731110 26.444049835 5.5198106766 0.8913937211 14.845576286  -999.250000 0.0000000000 410.77832031 0.0000000000 8.0000000000 148.55566406 0.0000000000 2.0000000000 0.0000000000 4.5000000000
 5283.7080078 6.0000000000 5.7136459351 0.0249517597 59.136550903 115.67099762 44.408840179 0.0000000000 0.0591348186 5.4087829590 0.7079355717 7.7147560120 8.0699234009 8.0887699127 2.6675651073 27.118801117 5.6167840958 0.8754941821 14.874521255  -999.250000 0.0000000000 411.54003906 0.0000000000 8.0000000000 148.70800781 0.0000000000 2.0000000000 0.0000000000 4.5000000000
 5283.8603516 6.0000000000 5.7110857964 0.0157781392 57.045162201 111.43160248 46.517330170 0.0000000000 0.0631109700 5.2556519508 0.6926569939 7.4435157776 7.7466931343 8.7161560059 2.6597781181 27.793550491 5.7296109200 0.8551480174 14.903467178  -999.250000 0.0000000000 412.30175781 0.0000000000 8.0000000000 148.86035156 0.0000000000 2.0000000000 0.0000000000 4.5000000000
 5284.0126953 6.0000000000 5.7128386497 0.0108292997 55.332500458 107.19170380 47.696269989 0.0000000000 0.0638779104 4.9861569405 0.7036014199 7.7900738716 8.3333778381 9.1140136719 2.6570439339 28.470802307 6.0161180496 0.8913419843 14.927588463  -999.250000 0.0000000000 412.92382813 0.0000000000 8.0126953125 149.01269531 0.0000000000 2.0000000000 0.0000000000 4.5000000000
 5284.1650391 6.0000000000 5.7092795372 0.0135194696 54.585948944 104.45899963 45.035579681 0.0000000000 0.0621584691 4.7313079834 0.7105684280 7.0194501877 7.6107649803 7.1143789291 2.6616482735 29.175540924 6.2654008865 0.9658986926 14.898642540  -999.250000 0.0000000000 412.00976563 0.0000000000 8.1650390625 149.16503906 0.0000000000 2.0000000000 0.0000000000 4.5000000000
 5284.3173828 6.0000000000 5.7117590904 0.0132845426 54.443691254 103.33270264 38.910499573 0.0000000000 0.0565801673 4.3962836266 0.6519992948 6.2922558784 6.6623311043 5.8146400452 2.6628322601 29.880279541 5.8888630867 0.9790794849 14.869697571  -999.250000 0.0000000000 411.09570313 0.0000000000 8.3173828125 149.31738281 0.0000000000 2.0000000000 0.0000000000 4.5000000000
 5284.4697266 6.0000000000 5.7159547806 0.0120642418 54.589244843 102.89880371 33.141239166 0.0000000000 0.0462589972 4.2294058800 0.5379533172 8.0659284592 8.2985515594 8.5948457718 2.6629984379 30.585020065 4.8454837799 0.8857095838 14.840751648  -999.250000 0.0000000000 410.18164063 0.0000000000 8.4697265625 149.46972656 0.0000000000 2.0000000000 0.0000000000 4.5000000000
