# LAS format log file from PETREL
# Project units are specified as depth units
#==================================================================
~Version information
VERS.   2.0:
WRAP.   NO:
#==================================================================
~Well
STRT .m      4697.8823242 :
STOP .m      5330.6469727 :
STEP .m     0.00000000 :
NULL .        -999.250000 :
COMP.           : COMPANY
WELL.  Kronos 1   : WELL
FLD.            : FIELD
LOC.            : LOCATION
SRVC.           : SERVICE COMPANY
DATE.  2017-10-02 11:49:53   : Log Export Date {yyyy-MM-dd HH:mm:ss}
PROV.           : PROVINCE
UWI.   Kronos 1   : UNIQUE WELL ID
API.            : API NUMBER
#==================================================================
~Curve
DEPT .m                   : DEPTH
BIT .in                   : BIT
CAL .in                   : CAL
DRHO .g/cm3               : DRHO
DTC .us/ft                : DTC
DTS .us/ft                : DTS
GR .gAPI                  : GR
NET .m                    : NET
NPHI .m3/m3               : NPHI
PEF .b/e                  : PEF
POTA .%                   : POTA
RESD .ohm.m               : RESD
RESM .ohm.m               : RESM
RESS .ohm.m               : RESS
RHOB .g/cm3               : RHOB
ROP .m/h                  : ROP
THOR .ppm                 : THOR
URAN .ppm                 : URAN
WOB .kN                   : WOB
RFT .bar                  : RFT
IC5 .%                    : IC5
TGAS .%                   : TGAS
IC4 .%                    : IC4
C3 .%                     : C3
C1 .%                     : C1
NC5 .%                    : NC5
NC4 .%                    : NC4
C2 .%                     : C2
Casing ._                 : Casing
~Parameter
#==================================================================
~Ascii
# ...
 4781.7021484 6.0000000000 6.0187997818 -0.001718252 64.240371704 102.97649384 100.11404419 0.0000000000 0.0808035284 3.6746084690 0.4962741137  -999.250000  -999.250000  -999.250000 2.6481478214 21.575239182 15.824359894 2.5371339321 10.143817902  -999.250000 0.0000000000 384.68164063 0.0000000000 3.0000000000 118.14941406 0.0000000000 4.0000000000 63.425781250 4.5000000000
 4781.8544922 6.0000000000 6.0187997818 0.0000657659 63.772567749 102.58119965 104.90470123 0.0000000000 0.0786271021 3.3117170334 0.5322843194  -999.250000  -999.250000  -999.250000 2.6481997967 20.675571442 16.516250610 2.6130959988 10.060029030  -999.250000 0.0000000000 390.47070313 0.0000000000 3.0000000000 121.65332031 0.0000000000 4.0000000000 65.253906250 4.5000000000
 4782.0073242 6.0000000000 6.0187997818 -0.004493108 63.274860382 101.74652863 112.03079987 0.0000000000 0.0790853724 3.2303919792 0.5674828291 13.609600067 14.048110008 15.115519524 2.6541399956 19.807863235 17.226713181 2.8041169643 10.001898766  -999.250000 0.0000000000 396.24169922 0.0000000000 3.0073242188 125.23437500 0.0000000000 4.0073242188 67.124511719 4.5000000000
 4782.1596680 6.0000000000 6.0187997818 -0.004604009 62.771839142 100.60210419 114.92440033 0.0000000000 0.0802190602 2.8844830990 0.5429542065 13.398550034 13.931570053 15.062890053 2.6687760353 19.632926941 17.091732025 2.9232158661 10.457406998  -999.250000 0.0000000000 401.26904297 0.0000000000 3.1596679688 130.10937500 0.0000000000 4.1596679688 69.714355469 4.5000000000
 4782.3120117 6.0000000000 6.0187997818 0.0036668931 62.448699951 99.663757324 109.38729858 0.0000000000 0.0796389431 3.9815890789 0.4959591031 13.093999863 13.649539948 14.778989792 2.6855080128 19.457992554 15.594739914 2.9169459343 10.912915230  -999.250000 0.0000000000 406.29638672 0.0000000000 3.3120117188 134.98437500 0.0000000000 4.3120117188 72.304199219 4.5000000000
 4782.4643555 6.0000000000 6.0187997818 0.0034007020 62.390808105 99.373878479 98.604782104 0.0000000000 0.0773810297 3.6681649685 0.4580189884 12.609169960 13.083569527 14.027709961 2.6895990372 19.283056259 13.538749695 2.8095479012 11.368422508  -999.250000 0.0000000000 411.32373047 0.0000000000 3.4643554688 139.85937500 0.0000000000 4.4643554688 74.894042969 4.5000000000
 4782.6166992 6.0000000000 6.0187997818 -0.001014377 62.524700165 99.793640137 88.974731445 0.0000000000 0.0754881501 3.4824180603 0.4437099099 12.043450356 12.387700081 12.913640022 2.6790339947 19.108121872 12.651670456 2.6016530991 11.823930740  -999.250000 0.0000000000 416.35107422 0.0000000000 3.6166992188 144.73437500 0.0000000000 4.6166992188 77.483886719 4.5000000000
 4782.7690430 6.0000000000 6.0187997818 -0.003094167 63.016048431 100.79000092 85.757957458 0.0000000000 0.0756655708 3.1043369770 0.4705174863 11.561479568 11.783280373 11.944149971 2.6651623249 18.933185577 13.102419853 2.4539740086 12.279438972  -999.250000 0.0000000000 421.37841797 0.0000000000 3.7690429688 149.60937500 0.0000000000 4.7690429688 80.073730469 4.5000000000
 4782.9213867 6.0000000000 6.0187997818 -0.003691971 63.732711792 102.02710724 90.803092957 0.0000000000 0.0779221803 3.2656116486 0.5233225822 11.157520294 11.258589745 11.295780182 2.6470592022 18.758251190 14.548350334 2.5620839596 12.734946251  -999.250000 0.0000000000 426.40576172 0.0000000000 3.9213867188 154.48437500 0.0000000000 4.9213867188 82.663574219 4.5000000000
 4783.0737305 6.0000000000 6.0187997818 -0.009330494 64.158050537 102.99060059 100.63398743 0.0000000000 0.0811433494 2.9489667416 0.5964471102 10.779472351 10.743571281 10.667115211 2.6248002052 20.167747498 16.563259125 2.6626930237 13.419755936  -999.250000 0.0000000000 428.63134766 0.0000000000 4.0000000000 156.63134766 0.0000000000 5.0000000000 83.852539063 4.5000000000
 4783.2265625 6.0000000000 6.0187997818 -0.013988850 63.980659485 103.44806671 110.23850250 0.0000000000 0.0841184184 2.7116780281 0.6621046662 10.539640427 10.362680435 10.019189835 2.6177361012 23.276535034 17.960592270 2.7068388462 14.352031708  -999.250000 0.0000000000 427.86718750 0.0000000000 4.0000000000 155.86718750 0.0000000000 5.0000000000 83.546875000 4.5000000000
 4783.3789063 6.0000000000 6.0187997818 -0.016396940 63.528873444 103.53012085 116.32050323 0.0000000000 0.0863345563 2.9015319347 0.7056501508 10.611940384 10.342639923 9.6762142181 2.6205930710 26.375391006 18.370729446 2.9001784325 15.281328201  -999.250000 0.0000000000 427.10546875 0.0000000000 4.0000000000 155.10546875 0.0000000000 5.0000000000 83.242187500 4.5000000000
 4783.5312500 6.0000000000 6.0187997818 -0.014694730 63.466659546 103.31802368 120.78900146 0.0000000000 0.0879033506 3.1898078918 0.7455062270 10.919320107 10.661760330 9.9164085388 2.6230700016 29.474246979 18.966320038 3.0744030476 16.210624695  -999.250000 0.0000000000 426.34375000 0.0000000000 4.0000000000 154.34375000 0.0000000000 5.0000000000 82.937500000 4.5000000000
 4783.6835938 6.0000000000 6.0187997818 -0.008416275 63.407024384 103.10729980 123.28500366 0.0000000000 0.0885746032 3.2542319298 0.7854591012 11.123860359 11.013130188 10.531530380 2.6298978329 32.573104858 20.063629150 3.1448850632 17.139921188  -999.250000 0.0000000000 425.58203125 0.0000000000 4.0000000000 153.58203125 0.0000000000 5.0000000000 82.632812500 4.5000000000
 4783.8359375 6.0000000000 6.0187997818 -0.010235730 63.323211670 102.65470123 120.74479675 0.0000000000 0.0862582475 2.9952421188 0.8049380779 11.563839912 11.455019951 11.429980278 2.6208009720 35.671958923 20.355020523 3.1271040440 18.069217682  -999.250000 0.0000000000 424.82031250 0.0000000000 4.0000000000 152.82031250 0.0000000000 5.0000000000 82.328125000 4.5000000000
 4783.9882813 6.0000000000 6.0187997818 -0.013133570 63.133228302 101.56079865 112.57689667 0.0000000000 0.0798097625 2.6902089119 0.7717741132 12.232839584 12.177479744 12.629179955 2.6287250519 38.770816803 19.164550781 3.0070080757 18.998516083  -999.250000 0.0000000000 424.05859375 0.0000000000 4.0000000000 152.05859375 0.0000000000 5.0000000000 82.023437500 4.5000000000
 4784.1406250 6.0000000000 6.0187997818 -0.011290820 62.603488922 99.643188477 104.23960114 0.0000000000 0.0710306913 2.7229511738 0.7041683793 12.582489967 12.720529556 13.643759727 2.6460845470 39.442874908 17.571590424 2.7062571049 19.037656784  -999.250000 0.0000000000 426.10937500 0.0000000000 4.0000000000 152.42187500 0.0000000000 5.0000000000 82.281250000 4.5000000000
 4784.2929688 6.0000000000 6.0187997818 -0.009789982 61.837287903 98.345291138 100.01560211 0.0000000000 0.0655365884 2.9999568462 0.6593353748 12.388839722 12.627559662 13.617589951 2.6607897282 39.912700653 16.436410904 2.4844961166 19.002616882  -999.250000 0.0000000000 428.39453125 0.0000000000 4.0000000000 152.87890625 0.0000000000 5.0000000000 82.585937500 4.5000000000
 4784.4453125 6.0000000000 6.0187997818 -0.009799668 61.177974701 97.803733826 102.24674988 0.0000000000 0.0670840740 3.1347343922 0.6644436121 11.925096512 12.223982811 12.929406166 2.6557612419 40.382526398 16.451190948 2.5507400036 18.967578888  -999.250000 0.0000000000 430.67968750 0.0000000000 4.0000000000 153.33593750 0.0000000000 5.0000000000 82.890625000 4.5000000000
 4784.5981445 6.0000000000 6.0187997818 -0.009898574 61.344348907 98.144706726 105.05889893 0.0000000000 0.0741270930 3.0202140808 0.6917495728 11.600709915 11.882729530 12.044449806 2.6430740356 40.853858948 16.831607819 2.8127186298 18.932426453  -999.250000 0.0000000000 432.97219849 0.0000000000 4.0000000000 153.79443359 0.0000000000 5.0000000000 83.196289063 4.5000000000
 4784.7504883 6.0000000000 6.0187997818 -0.007220652 62.170539856 99.008216858 105.04820251 0.0000000000 0.0807033926 2.6340939999 0.6902214885 11.782759666 11.980219841 11.818820000 2.6370620728 41.323688507 16.583015442 3.0628554821 18.897388458  -999.250000 0.0000000000 435.25735474 0.0000000000 4.0000000000 154.25146484 0.0000000000 5.0000000000 83.500976563 4.5000000000
 4784.9028320 6.0000000000 6.0187997818 -0.006635408 62.566738129 99.681037903 101.62239838 0.0000000000 0.0810337365 2.3128769398 0.6658638716 12.199979782 12.332750320 12.390839577 2.6326711178 41.793514252 15.779720306 3.1223089695 18.862348557  -999.250000 0.0000000000 437.54251099 0.0000000000 4.0000000000 154.70849609 0.0000000000 5.0000000000 83.805664063 4.5000000000
