# LAS format log file from PETREL
# Project units are specified as depth units
#==================================================================
~Version information
VERS.   2.0:
WRAP.   NO:
#==================================================================
~Well
STRT .m      4697.8823242 :
STOP .m      5330.6469727 :
STEP .m     0.00000000 :
NULL .        -999.250000 :
COMP.           : COMPANY
WELL.  Kronos 1   : WELL
FLD.            : FIELD
LOC.            : LOCATION
SRVC.           : SERVICE COMPANY
DATE.  2017-10-02 11:49:53   : Log Export Date {yyyy-MM-dd HH:mm:ss}
PROV.           : PROVINCE
UWI.   Kronos 1   : UNIQUE WELL ID
API.            : API NUMBER
#==================================================================
~Curve
DEPT .m                   : DEPTH
BIT .in                   : BIT
CAL .in                   : CAL
DRHO .g/cm3               : DRHO
DTC .us/ft                : DTC
DTS .us/ft                : DTS
GR .gAPI                  : GR
NET .m                    : NET
NPHI .m3/m3               : NPHI
PEF .b/e                  : PEF
POTA .%                   : POTA
RESD .ohm.m               : RESD
RESM .ohm.m               : RESM
RESS .ohm.m               : RESS
RHOB .g/cm3               : RHOB
ROP .m/h                  : ROP
THOR .ppm                 : THOR
URAN .ppm                 : URAN
WOB .kN                   : WOB
RFT .bar                  : RFT
IC5 .%                    : IC5
TGAS .%                   : TGAS
IC4 .%                    : IC4
C3 .%                     : C3
C1 .%                     : C1
NC5 .%                    : NC5
NC4 .%                    : NC4
C2 .%                     : C2
Casing ._                 : Casing
~Parameter
#==================================================================
~Ascii
# ...
 5237.6831055 6.0000000000 5.7664928436 0.0117197596 81.184669495 155.60090637 172.08920288 0.0000000000 0.2705937922 3.6461639404 2.6205379963 2.8577179909 2.8581440449 2.7120299339 2.6432242393 42.982269287 24.042430878 1.6965270042 14.671626091  -999.250000 0.0000000000 438.14794922 0.0000000000 8.0000000000 203.85205078 0.0000000000 2.0000000000 0.0000000000 4.5000000000
 5237.8354492 6.0000000000 5.7685017586 0.0067814342 80.148681641 152.55380249 169.71400452 0.0000000000 0.2645179629 3.8881015778 2.5994429588 2.9841120243 3.0042679310 2.8588879108 2.6237263680 43.721996307 23.686149597 1.7388950586 14.810258865  -999.250000 0.0000000000 439.51904297 0.0000000000 8.0000000000 202.48095703 0.0000000000 2.0000000000 0.0000000000 4.5000000000
 5237.9877930 6.0000000000 5.7643065453 0.0044531375 78.528305054 149.70108032 167.30599976 0.0000000000 0.2537243366 3.5993657112 2.5957219601 3.1940169334 3.2733719349 3.0998740196 2.6373231411 44.461723328 23.537139893 1.6984579563 14.948891640  -999.250000 0.0000000000 440.89013672 0.0000000000 8.0000000000 201.10986328 0.0000000000 2.0000000000 0.0000000000 4.5000000000
 5238.1401367 6.0000000000 5.7651910782 0.0029284954 77.955238342 149.50720215 165.09359741 0.0000000000 0.2460189611 3.3671836853 2.5495541096 3.3537371159 3.4203679562 3.2482442856 2.6599562168 44.093414307 23.442079544 1.7376439571 14.968408585  -999.250000 0.0000000000 443.10205078 0.0000000000 8.0000000000 203.66259766 0.0000000000 2.0000000000 0.0000000000 4.5000000000
 5238.2924805 6.0000000000 5.7664370537 -0.002876381 78.488952637 149.95370483 166.82949829 0.0000000000 0.2403913140 3.7347216606 2.5074789524 3.4959805012 3.5822348595 3.4230403900 2.6448905468 43.628585815 23.354059219 1.7551399469 14.977548599  -999.250000 0.0000000000 445.38720703 0.0000000000 8.0000000000 206.55712891 0.0000000000 2.0000000000 0.0000000000 4.5000000000
 5238.4453125 6.0000000000 5.7665147781 -0.005338714 79.172340393 151.12200928 169.55299377 0.0000000000 0.2423146963 3.3288190365 2.5498092175 3.5321590900 3.6029889584 3.4755570889 2.6275277138 43.162269592 22.987239838 1.7638739347 14.986719131  -999.250000 0.0000000000 447.67968750 0.0000000000 8.0000000000 209.46093750 0.0000000000 2.0000000000 0.0000000000 4.5000000000
 5238.5976563 6.0000000000 5.7669839859 0.0024488820 79.922042847 153.23957825 169.83299255 0.0000000000 0.2420991957 3.5764610767 2.5991437435 3.3324720860 3.4302859306 3.2663979530 2.6596159935 42.697441101 22.685359955 1.9139282703 14.995860100  -999.250000 0.0000000000 449.96484375 0.0000000000 8.0000000000 212.35546875 0.0000000000 2.0000000000 0.0000000000 4.5000000000
 5238.7500000 6.0000000000 5.7664999962 0.0088529196 80.356987000 154.01269531 166.94320679 0.0000000000 0.2479999959 4.0192999840 2.6199998856 3.1522510052 3.2295639515 3.0764579773 2.6505999565 42.232612610 22.647909164 1.9608329535 15.005000114  -999.250000 0.0000000000 452.25000000 0.0000000000 8.0000000000 215.25000000 0.0000000000 2.0000000000 0.0000000000 4.5000000000
 5238.9023438 6.0000000000 5.7666049004 0.0176686402 80.410240173 154.32200623 168.90730286 0.0000000000 0.2549890876 3.5729129314 2.6137850285 3.1073570251 3.1370201111 2.9857931137 2.6707849503 41.767784119 22.714269638 2.0375850201 15.014141083  -999.250000 0.0000000000 454.53515625 0.0000000000 8.0000000000 218.14453125 0.0000000000 2.0000000000 0.0000000000 4.5000000000
 5239.0546875 6.0000000000 5.7728657722 0.0158325005 80.492492676 154.61349487 171.71890259 0.0000000000 0.2611902058 3.7847330570 2.5978789330 3.1293330193 3.1766960621 3.0053989887 2.6590769291 41.846603394 23.083190918 2.0374019146 15.021640778  -999.250000 0.0000000000 457.20312500 0.0000000000 8.0000000000 220.16406250 0.0000000000 2.0000000000 0.0000000000 4.5000000000
 5239.2070313 6.0000000000 5.7668256760 0.0119965496 80.446006775 155.13389587 172.84419250 0.0000000000 0.2637982666 3.8327500820 2.6084260941 3.1107730865 3.1483089924 3.0013840199 2.6544706821 42.896213531 23.428100586 2.0551431179 15.026211739  -999.250000 0.0000000000 460.55468750 0.0000000000 8.0000000000 220.62109375 0.0000000000 2.0000000000 0.0000000000 4.5000000000
 5239.3593750 6.0000000000 5.7662663460 0.0064720768 80.433990479 155.84739685 171.78799438 0.0000000000 0.2624574602 3.7576150894 2.6416940689 3.2003951073 3.2612938881 3.0953319073 2.6330029964 43.945827484 23.524259567 2.0448679924 15.030781746  -999.250000 0.0000000000 463.90625000 0.0000000000 8.0000000000 221.07812500 0.0000000000 2.0000000000 0.0000000000 4.5000000000
 5239.5117188 6.0000000000 5.7628946304 0.0078837499 80.613098145 156.09820557 170.92037964 0.0000000000 0.2618179619 3.7134680748 2.6373240948 3.1396188736 3.2209582329 3.0411038399 2.6383395195 44.995437622 23.362699509 2.0784659386 15.035351753  -999.250000 0.0000000000 467.25781250 0.0000000000 8.0000000000 221.53515625 0.0000000000 2.0000000000 0.0000000000 4.5000000000
 5239.6645508 6.0000000000 5.7638092041 0.0129597504 80.771583557 156.28195190 171.20199585 0.0000000000 0.2618483007 3.8699700832 2.6509051323 3.0097548962 3.0843460560 2.8983049393 2.6356039047 46.048416138 23.671400070 1.9840658903 15.039937019  -999.250000 0.0000000000 470.62011719 0.0000000000 8.0000000000 221.99365234 0.0000000000 2.0000000000 0.0000000000 4.5000000000
 5239.8168945 6.0000000000 5.7647991180 0.0156883709 80.862442017 156.29634094 169.36039734 0.0000000000 0.2545140088 3.6519479752 2.6457974911 2.9295089245 2.9812090397 2.7973079681 2.6496760845 47.098026276 24.158847809 1.8262081146 15.044507027  -999.250000 0.0000000000 473.97167969 0.0000000000 8.0000000000 222.45068359 0.0000000000 2.0000000000 0.0000000000 4.5000000000
 5239.9692383 6.0000000000 5.7626423836 0.0091068614 80.762039185 156.02996826 164.45660400 0.0000000000 0.2453065068 4.2292017937 2.6075708866 2.9708549976 3.0118880272 2.8802559376 2.6359999180 48.147640228 23.883300781 1.9819350243 15.049077034  -999.250000 0.0000000000 477.32324219 0.0000000000 8.0000000000 222.90771484 0.0000000000 2.0000000000 0.0000000000 4.5000000000
 5240.1215820 6.0000000000 5.7620940208 0.0071095801 80.609611511 155.20799255 162.46139526 0.0000000000 0.2405470014 4.3503541946 2.5679299831 3.1156849861 3.1800661087 3.0437591076 2.6189069748 47.761245728 23.629140854 2.1938080788 14.972187996  -999.250000 0.0000000000 480.55322266 0.0000000000 8.0000000000 224.21582031 0.0000000000 2.0000000000 0.0000000000 4.5000000000
 5240.2739258 6.0000000000 5.7667088509 0.0081229620 80.524406433 154.41549683 163.93919373 0.0000000000 0.2470867932 3.6533119678 2.5441589355 3.1289980412 3.1852440834 3.0243248940 2.6421749592 47.011520386 23.454919815 2.2452130318 14.874687195  -999.250000 0.0000000000 483.75244141 0.0000000000 8.0000000000 225.73925781 0.0000000000 2.0000000000 0.0000000000 4.5000000000
 5240.4262695 6.0000000000 5.7645926476 0.0067120572 80.504951477 154.33799744 168.10890198 0.0000000000 0.2541294992 4.1165509224 2.5149180889 3.0487399101 3.0867030621 2.9316070080 2.6530420780 46.261798859 23.610750198 2.2071490288 14.777187347  -999.250000 0.0000000000 486.95166016 0.0000000000 8.0000000000 227.26269531 0.0000000000 2.0000000000 0.0000000000 4.5000000000
 5240.5786133 6.0000000000 5.7582850456 0.0086387638 80.517448425 154.79809570 170.72979736 0.0000000000 0.2544591427 4.2836675644 2.4855670929 3.0481910706 3.0759449005 2.9266140461 2.6556625366 45.512073517 23.435419083 2.1848490238 14.679687500  -999.250000 0.0000000000 490.15087891 0.0000000000 8.0000000000 228.78613281 0.0000000000 2.0000000000 0.0000000000 4.5000000000
 5240.7309570 6.0000000000 5.7609515190 0.0084727416 80.522598267 155.07589722 167.87983704 0.0000000000 0.2494432330 4.4056835175 2.4911010265 3.0885298252 3.0992474556 2.9556648731 2.6333377361 44.762351990 23.331359863 2.1756110191 14.582187653  -999.250000 0.0000000000 493.35009766 0.0000000000 8.0000000000 230.30957031 0.0000000000 2.0000000000 0.0000000000 4.5000000000
 5240.8833008 6.0000000000 5.7607245445 0.0083172927 80.499313354 154.75950623 164.76568604 0.0000000000 0.2431664318 4.2381615639 2.4901580811 3.0810842514 3.0950238705 2.9630913734 2.6342198849 44.012626648 23.450439453 2.0826900005 14.484687805  -999.250000 0.0000000000 496.54931641 0.0000000000 8.0000000000 231.83300781 0.0000000000 2.0000000000 0.0000000000 4.5000000000
