# LAS format log file from PETREL
# Project units are specified as depth units
#==================================================================
~Version information
VERS.   2.0:
WRAP.   NO:
#==================================================================
~Well
STRT .m      4697.8823242 :
STOP .m      5330.6469727 :
STEP .m     0.00000000 :
NULL .        -999.250000 :
COMP.           : COMPANY
WELL.  Kronos 1   : WELL
FLD.            : FIELD
LOC.            : LOCATION
SRVC.           : SERVICE COMPANY
DATE.  2017-10-02 11:49:53   : Log Export Date {yyyy-MM-dd HH:mm:ss}
PROV.           : PROVINCE
UWI.   Kronos 1   : UNIQUE WELL ID
API.            : API NUMBER
#==================================================================
~Curve
DEPT .m                   : DEPTH
BIT .in                   : BIT
CAL .in                   : CAL
DRHO .g/cm3               : DRHO
DTC .us/ft                : DTC
DTS .us/ft                : DTS
GR .gAPI                  : GR
NET .m                    : NET
NPHI .m3/m3               : NPHI
PEF .b/e                  : PEF
POTA .%                   : POTA
RESD .ohm.m               : RESD
RESM .ohm.m               : RESM
RESS .ohm.m               : RESS
RHOB .g/cm3               : RHOB
ROP .m/h                  : ROP
THOR .ppm                 : THOR
URAN .ppm                 : URAN
WOB .kN                   : WOB
RFT .bar                  : RFT
IC5 .%                    : IC5
TGAS .%                   : TGAS
IC4 .%                    : IC4
C3 .%                     : C3
C1 .%                     : C1
NC5 .%                    : NC5
NC4 .%                    : NC4
C2 .%                     : C2
Casing ._                 : Casing
~Parameter
#==================================================================
~Ascii
# ...
 5029.8095703 6.0000000000 5.7628130913 -0.006989144 65.128112793 99.160659790 41.793071747 1.0000000000 0.0889016613 2.4127380848 0.1521445960 153.77999878 161.25509644 262.02661133 2.4756269455 15.491588593 7.6905579567 1.0817760229 10.517128944 7561.7924805 0.0000000000 4265.0332031 2.0000000000 30.952150345 3698.7529297 0.0000000000 5.1904296875 3.6181640625 4.5000000000
 5029.9619141 6.0000000000 5.7661056519 -0.009784135 65.853652954 100.27339935 34.597209930 1.0000000000 0.0994173512 2.5895469189 0.1216581985 147.98620605 126.75000000 185.45249939 2.4528880119 14.751861572 6.7381792068 0.9336888194 10.471426010 7561.8432617 0.0000000000 4061.8066406 2.0000000000 30.190431595 3513.3505859 0.0000000000 5.0380859375 0.7236328125 4.5000000000
 5030.1142578 6.0000000000 5.7678513527 -0.009093987 67.336387634 102.22820282 28.044900894 1.0000000000 0.1048280969 2.6649630070 0.1012739018 183.98010254 145.38340759 249.42880249 2.4138100147 14.446973801 5.4181470871 0.7988020182 10.472568512 7561.8940430 0.0000000000 4003.0019531 2.0000000000 29.771486282 3437.0644531 0.0000000000 5.0000000000 0.0000000000 4.5000000000
 5030.2666016 6.0000000000 5.7913999557 -0.008198229 68.485992432 103.62400055 24.652299881 1.0000000000 0.1031801850 2.7423200607 0.0783371627 213.53469849 202.89259338 434.88220215 2.3710908890 14.287033081 4.5807280540 0.6283112168 10.489326477 7561.9453125 0.0000000000 3992.3378906 2.0000000000 29.466798782 3397.1503906 0.0000000000 5.0000000000 0.0000000000 4.5000000000
 5030.4189453 6.0000000000 5.7906150818 -0.008058946 68.708679199 104.22810364 24.077713013 1.0000000000 0.0971563160 2.7005858421 0.0781855136 253.03797913 266.99334717 843.59118652 2.3460631371 14.127092361 4.2578258514 0.5071108937 10.506083488 7561.9960938 0.0000000000 3981.6738281 2.0000000000 29.162111282 3357.2363281 0.0000000000 5.0000000000 0.0000000000 4.5000000000
 5030.5712891 6.0000000000 5.7978267670 -0.007614750 68.650032043 104.27210236 24.908901215 1.0000000000 0.0887194276 2.5655586720 0.0829191208 240.41329956 279.18524170 1043.4455566 2.3526885509 13.967150688 4.0093569756 0.5416076183 10.522841454 7562.0468750 0.0000000000 3971.0097656 2.0000000000 28.857421875 3317.3222656 0.0000000000 5.0000000000 0.0000000000 4.5000000000
 5030.7241211 6.0000000000 5.7992720604 -0.006384325 68.083923340 103.92311859 26.832380295 1.0000000000 0.0822700933 2.4750020504 0.1029331014 277.70901489 302.79550171 906.05126953 2.3791599274 13.806696892 4.4731054306 0.6505867243 10.539652824 7562.0976563 0.0000000000 3960.3115234 2.0000000000 28.551757813 3277.2802734 0.0000000000 5.0000000000 0.0000000000 4.5000000000
 5030.8764648 6.0000000000 5.7984728813 -0.004540144 67.238067627 103.33601379 31.209699631 1.0000000000 0.0829325616 2.4236030579 0.1119893193 281.08340454 292.53759766 546.67761230 2.4066760540 13.646756172 5.5862736702 0.8946087360 10.556410789 7562.1489258 0.0000000000 3949.6474609 2.0000000000 28.247070313 3237.3662109 0.0000000000 5.0000000000 0.0000000000 4.5000000000
 5031.0288086 6.0000000000 5.7913298607 -0.005922187 66.675498962 102.74749756 38.959300995 1.0000000000 0.0909521431 2.3947300911 0.1335849017 168.29899597 181.30360413 292.74209595 2.4240040779 13.460350037 7.2057499886 1.2043390274 10.553867340 7562.1972656 0.0000000000 3934.6621094 2.0000000000 28.000000000 3202.4072266 0.0000000000 5.0000000000 0.1152343750 4.5000000000
 5031.1811523 6.0000000000 5.7957859039 -0.008708776 66.562629700 102.47750092 48.987049103 1.0000000000 0.1002485007 2.5115110874 0.1743128002 119.17610168 122.05909729 169.43440247 2.4343740940 13.160461426 9.0814008713 1.2909649611 10.468554497 7562.2363281 0.0000000000 3901.1464844 2.0000000000 28.000000000 3188.6962891 0.0000000000 5.0000000000 0.7246093750 4.5000000000
 5031.3334961 6.0000000000 5.7992601395 -0.011348370 66.914772034 102.65679932 57.717998505 1.0000000000 0.1045678034 2.7610850334 0.1796649992 95.514183044 97.518096924 115.20050049 2.4391589165 12.860571861 9.9465513229 1.2917230129 10.383241653 7562.2758789 0.0000000000 3867.6308594 2.0000000000 28.000000000 3174.9853516 0.0000000000 5.0000000000 1.3339843750 4.5000000000
 5031.4858398 6.0000000000 5.7972216606 -0.013302400 67.675453186 103.19460297 61.385650635 1.0000000000 0.1042118371 3.0286972523 0.1741154939 89.139381409 91.798019409 109.29869843 2.4339315891 12.560682297 9.4569988251 1.2822899818 10.297929764 7562.3149414 0.0000000000 3834.1152344 2.0000000000 28.000000000 3161.2744141 0.0000000000 5.0000000000 1.9433593750 4.5000000000
 5031.6381836 6.0000000000 5.7936234474 -0.012813835 68.459350586 103.83750153 59.276741028 1.0000000000 0.1015433744 3.2593221664 0.1689552963 118.86160278 120.02390289 163.74409485 2.4199638367 12.260793686 8.3967933655 1.1161500216 10.212616920 7562.3540039 0.0000000000 3800.5996094 2.0000000000 28.000000000 3147.5634766 0.0000000000 5.0000000000 2.5527343750 4.5000000000
 5031.7905273 6.0000000000 5.7885370255 -0.011865485 68.717422485 104.10279846 53.314956665 1.0000000000 0.0966594592 3.2952389717 0.1391897053 168.70275879 169.03640747 257.40213013 2.4058680534 11.960904121 7.1854667664 0.9475499988 10.127305031 7562.3930664 0.0000000000 3767.0839844 2.0000000000 28.000000000 3133.8525391 0.0000000000 5.0000000000 3.1621093750 4.5000000000
 5031.9433594 6.0000000000 5.7698569298 -0.009018803 67.847717285 103.41702271 45.416690826 1.0000000000 0.0883819833 3.0218150616 0.1147013158 190.41329956 188.34539795 342.20489502 2.4079771042 11.660053253 5.6364068985 0.8216509819 10.041718483 7562.4326172 0.0000000000 3733.4609375 2.0000000000 28.000000000 3120.0976563 0.0000000000 5.0000000000 3.7734375000 4.5000000000
 5032.0957031 6.0000000000 5.7459559441 -0.007204798 66.029357910 101.29960632 36.919120789 1.0000000000 0.0765976384 2.8156960011 0.0867712498 271.07470703 237.87519836 574.06848145 2.4194810390 11.579955101 4.4320445061 0.6702896953 10.059765816 7562.4589844 0.0000000000 3696.9785156 2.0000000000 27.712890625 3081.5039063 0.0000000000 4.9042968750 3.8085937500 4.5000000000
 5032.2480469 6.0000000000 5.7172160149 -0.007184401 64.350433350 98.089691162 30.662500381 1.0000000000 0.0646494329 2.6746139526 0.0746517181 408.17739868 366.90051270 1110.2650146 2.4272348881 11.629936218 4.2990808487 0.5920097232 10.138984680 7562.4824219 0.0000000000 3658.7402344 2.0000000000 27.255859375 3028.1835938 0.0000000000 4.7519531250 3.5039062500 4.5000000000
 5032.4003906 6.0000000000 5.7098650932 -0.007331819 63.539779663 95.096183777 31.989679337 1.0000000000 0.0555506200 2.5814619064 0.1029018015 401.65270996 361.37380981 1344.7879639 2.4382240772 11.679918289 6.3529701233 0.8181415796 10.218203545  -999.250000 0.0000000000 3620.5019531 2.0000000000 26.798828125 2974.8632813 0.0000000000 4.5996093750 3.1992187500 4.5000000000
 5032.5527344 6.0000000000 5.7175745964 -0.007024251 63.214488983 93.461502075 47.942218781 1.0000000000 0.0512341298 2.6456289291 0.1942521930 218.07420349 202.81849670 652.81671143 2.4583020210 11.729899406 11.532600403 1.4650590420 10.297421455  -999.250000 0.0000000000 3582.2636719 2.0000000000 26.341796875 2921.5429688 0.0000000000 4.4472656250 2.8945312500 4.5000000000
 5032.7050781 6.0000000000 5.7337651253 -0.006934403 62.608070374 93.752868652 78.393333435 1.0000000000 0.0541740917 2.8580389023 0.3002653122 96.736923218 94.570838928 153.89509583 2.4887759686 11.779881477 18.291809082 2.4230349064 10.376640320  -999.250000 0.0000000000 3544.0253906 2.0000000000 25.884765625 2868.2226563 0.0000000000 4.2949218750 2.5898437500 4.5000000000
 5032.8574219 6.0000000000 5.7693676949 -0.005125697 62.173530579 95.299591064 109.64160156 1.0000000000 0.0672001541 3.3733551502 0.3612470031 51.039360046 50.653388977 50.535831451 2.5365538597 11.829862595 22.407310486 3.1928980350 10.455859184  -999.250000 0.0000000000 3505.7871094 2.0000000000 25.427734375 2814.9023438 0.0000000000 4.1425781250 2.2851562500 4.5000000000
 5033.0097656 6.0000000000 5.8172264099 0.0026477601 62.833522797 96.883918762 128.85549927 1.0000000000 0.0884277523 3.7658202648 0.3633359969 36.275428772 36.550418854 40.198219299 2.5692443848 11.854533195 22.019159317 3.2184588909 10.526581764  -999.250000 0.0000000000 3467.0312500 2.0000000000 25.000000000 2762.6269531 0.0000000000 4.0097656250 1.9804687500 4.5000000000
