# LAS format log file from PETREL
# Project units are specified as depth units
#==================================================================
~Version information
VERS.   2.0:
WRAP.   NO:
#==================================================================
~Well
STRT .m      4697.8823242 :
STOP .m      5330.6469727 :
STEP .m     0.00000000 :
NULL .        -999.250000 :
COMP.           : COMPANY
WELL.  Kronos 1   : WELL
FLD.            : FIELD
LOC.            : LOCATION
SRVC.           : SERVICE COMPANY
DATE.  2017-10-02 11:49:53   : Log Export Date {yyyy-MM-dd HH:mm:ss}
PROV.           : PROVINCE
UWI.   Kronos 1   : UNIQUE WELL ID
API.            : API NUMBER
#==================================================================
~Curve
DEPT .m                   : DEPTH
BIT .in                   : BIT
CAL .in                   : CAL
DRHO .g/cm3               : DRHO
DTC .us/ft                : DTC
DTS .us/ft                : DTS
GR .gAPI                  : GR
NET .m                    : NET
NPHI .m3/m3               : NPHI
PEF .b/e                  : PEF
POTA .%                   : POTA
RESD .ohm.m               : RESD
RESM .ohm.m               : RESM
RESS .ohm.m               : RESS
RHOB .g/cm3               : RHOB
ROP .m/h                  : ROP
THOR .ppm                 : THOR
URAN .ppm                 : URAN
WOB .kN                   : WOB
RFT .bar                  : RFT
IC5 .%                    : IC5
TGAS .%                   : TGAS
IC4 .%                    : IC4
C3 .%                     : C3
C1 .%                     : C1
NC5 .%                    : NC5
NC4 .%                    : NC4
C2 .%                     : C2
Casing ._                 : Casing
~Parameter
#==================================================================
~Ascii
# ...
 4821.9360352 6.0000000000 6.0187997818 -0.006963619 70.869537354 135.42333984 135.46839905 0.0000000000 0.2987267077 3.7761390209 1.8583420515 5.4811072350 5.5072650909 5.3058300018 2.7235341072 54.864307404 18.690729141 1.7686109543 20.531620026  -999.250000 0.0000000000 367.62255859 0.0000000000 5.0000000000 116.02978516 0.0000000000 3.0000000000 62.174808502 4.5000000000
 4822.0883789 6.0000000000 6.0187997818 -0.011395660 71.076858521 135.09719849 135.31629944 0.0000000000 0.2916272879 4.0725970268 1.8700900078 5.8765931129 5.8886361122 5.5737400055 2.7135729790 54.657283783 18.953550339 1.7156430483 20.878442764  -999.250000 0.0000000000 374.72167969 0.0000000000 5.0000000000 118.89355469 0.0000000000 3.0883789063 63.711917877 4.5000000000
 4822.2407227 6.0000000000 6.0187997818 -0.011285500 71.316558838 135.48599243 138.20320129 0.0000000000 0.2827931941 4.1709089279 1.9064710140 6.1458621025 6.1955561638 5.7507929802 2.7065160275 55.107120514 19.729749680 1.6302690506 21.410121918  -999.250000 0.0000000000 391.47949219 0.0000000000 5.0000000000 130.77636719 0.0000000000 3.2407226563 70.110351563 4.5000000000
 4822.3930664 6.0000000000 6.0187997818 -0.004666283 71.841148376 136.29420471 143.04089355 0.0000000000 0.2812638879 4.1857419014 1.9615139961 5.7484970093 5.8913898468 5.5292181969 2.7133250237 55.556953430 20.385629654 1.6179959774 21.941801071  -999.250000 0.0000000000 408.23730469 0.0000000000 5.0000000000 142.65917969 0.0000000000 3.3930664063 76.508789063 4.5000000000
 4822.5454102 6.0000000000 6.0187997818 -0.000878800 72.254249573 137.32640076 148.21769714 0.0000000000 0.2844875455 4.0381770134 2.0392220020 5.3789811134 5.6091251373 5.3036308289 2.7195222378 56.006786346 21.106119156 1.5278259516 22.473480225  -999.250000 0.0000000000 424.99511719 0.0000000000 5.0000000000 154.54200745 0.0000000000 3.5454101563 82.907226563 4.5000000000
 4822.6977539 6.0000000000 6.0187997818 -0.002889306 72.521362305 138.53540039 152.10055542 0.0000000000 0.2892963588 4.0270614624 2.1030569077 5.1675167084 5.4267816544 5.0875267982 2.7119722366 56.456619263 21.564899445 1.3911390305 23.005161285  -999.250000 0.0000000000 441.75292969 0.0000000000 5.0000000000 166.42481995 0.0000000000 3.6977539063 89.305664063 4.5000000000
 4822.8500977 6.0000000000 6.0187997818 -0.004734247 73.077590942 139.78450012 154.36724854 0.0000000000 0.2925338149 3.6082584858 2.1247570515 5.0749497414 5.3709721565 4.9684367180 2.6958358288 56.906455994 21.958629608 1.2957589626 23.536840439  -999.250000 0.0000000000 458.51074219 0.0000000000 5.0000000000 178.30763245 0.0000000000 3.8500976563 95.704101563 4.5000000000
 4823.0029297 6.0000000000 6.0187997818 -0.006480157 74.035896301 141.25016785 155.09019470 0.0000000000 0.2900593877 3.7594280243 2.1772680283 5.0376849174 5.2349410057 4.7723560333 2.6735270023 57.357730865 22.694541931 1.2188782692 24.032752991  -999.250000 0.0000000000 475.15234375 0.0000000000 5.0058593750 190.13185120 0.0000000000 4.0000000000 102.07324219 4.5000000000
 4823.1552734 6.0000000000 6.0187997818 -0.006095991 75.006340027 143.11433411 156.05670166 0.0000000000 0.2898766100 4.5190458298 2.2717754841 4.8584218025 4.8409838676 4.4433040619 2.6619160175 57.807563782 23.758220673 1.1585139036 22.615957260  -999.250000 0.0000000000 483.07421875 0.0000000000 5.3105468750 196.98731995 0.0000000000 4.0000000000 105.88183594 4.5000000000
 4823.3076172 6.0000000000 6.0187997818 -0.001343131 75.511573792 145.30627441 157.51669312 0.0000000000 0.3014484048 4.2522649765 2.3583281040 4.6742839813 4.6107230186 4.2843332291 2.6660640240 58.257396698 24.585170746 1.1238540411 21.199159622  -999.250000 0.0000000000 490.99609375 0.0000000000 5.6152343750 203.84278870 0.0000000000 4.0000000000 109.69042969 4.5000000000
 4823.4599609 6.0000000000 6.0187997818 0.0058222879 75.598350525 147.01730347 158.20339966 0.0000000000 0.3189082146 3.6248450279 2.3954250813 4.5072069168 4.5518932343 4.2601161003 2.6865661144 58.707229614 24.762159348 1.0838990211 19.782363892  -999.250000 0.0000000000 498.91796875 0.0000000000 5.9199218750 210.69825745 0.0000000000 4.0000000000 113.49902344 4.5000000000
 4823.6123047 6.0000000000 6.0187997818 0.0089680105 75.579879761 147.52819824 157.89939880 0.0000000000 0.3272059858 3.6420640945 2.3799149990 4.3419399261 4.4709658623 4.2229990959 2.7076940536 59.157066345 24.494619370 1.1467310190 18.365566254  -999.250000 0.0000000000 506.83984375 0.0000000000 6.2246093750 217.55371094 0.0000000000 4.0000000000 117.30761719 4.5000000000
 4823.7646484 6.0000000000 6.0187997818 0.0067456728 75.650047302 147.39540100 157.34429932 0.0000000000 0.3260925710 4.0185980797 2.3642880917 4.2138609886 4.3822579384 4.1767640114 2.7195231915 59.606899261 24.118610382 1.3362360001 16.948770523  -999.250000 0.0000000000 514.76171875 0.0000000000 6.5292968750 224.40917969 0.0000000000 4.0000000000 121.11621094 4.5000000000
 4823.9169922 6.0000000000 6.0187997818 0.0022896202 75.964302063 147.73339844 157.72770691 0.0000000000 0.3245944977 4.5328512192 2.3760950565 4.1351227760 4.3185739517 4.1267957687 2.7218337059 60.056732178 23.576450348 1.5624929667 15.531972885  -999.250000 0.0000000000 522.68359375 0.0000000000 6.8339843750 231.26464844 0.0000000000 4.0000000000 124.92480469 4.5000000000
 4824.0693359 6.0000000000 6.0187997818 -0.000369937 76.337791443 148.38560486 158.86247253 0.0000000000 0.3259862065 4.6507272720 2.3744859695 4.1133894920 4.2844471931 4.0893502235 2.7158789635 58.905105591 22.936529160 1.7563970089 14.504150391  -999.250000 0.0000000000 527.55468750 0.0000000000 7.0693359375 234.93066406 0.0000000000 4.0000000000 126.93066406 4.5000000000
 4824.2221680 6.0000000000 6.0187997818 0.0015540540 76.526351929 148.64552307 159.68469238 0.0000000000 0.3278693855 4.3388648033 2.3500740528 4.1603450775 4.3182668686 4.1247859001 2.7037570477 55.826404572 22.430383682 1.9050282240 13.940199852  -999.250000 0.0000000000 528.77734375 0.0000000000 7.2221679688 234.77783203 0.0000000000 4.0000000000 126.77783203 4.5000000000
 4824.3745117 6.0000000000 6.0187997818 0.0096702781 76.213836670 148.43615723 160.61309814 0.0000000000 0.3282121122 4.1717047691 2.3511805534 4.2400450706 4.4076690674 4.2033848763 2.6687641144 52.757537842 22.178812027 2.0237200260 13.378051758  -999.250000 0.0000000000 529.99609375 0.0000000000 7.3745117188 234.62548828 0.0000000000 4.0000000000 126.62548828 4.5000000000
 4824.5268555 6.0000000000 6.0187997818 0.0506371595 75.474792480 148.14436340 162.02659607 0.0000000000 0.3267202079 4.8068780899 2.3888199329 4.2796220779 4.4708161354 4.2440671921 2.6574718952 49.688671112 22.010770798 2.1584789753 12.815903664  -999.250000 0.0000000000 531.21484375 0.0000000000 7.5268554688 234.47314453 0.0000000000 4.0000000000 126.47315216 4.5000000000
 4824.6791992 6.0000000000 6.0187997818 0.1032354087 75.469116211 148.41749573 163.24780273 0.0000000000 0.3233790994 5.5385198593 2.4133551121 4.2728629112 4.4831318855 4.2537789345 2.7121350765 46.619804382 21.762420654 2.3460350037 12.253754616  -999.250000 0.0000000000 532.43359375 0.0000000000 7.6791992188 234.32080078 0.0000000000 4.0000000000 126.32080841 4.5000000000
 4824.8315430 6.0000000000 6.0187997818 0.0929175094 76.744132996 149.78102112 164.61950684 0.0000000000 0.3200025856 4.8049688339 2.4251780510 4.1880769730 4.3887667656 4.1789989471 2.7388470173 43.550937653 21.741750717 2.4806060791 11.691606522  -999.250000 0.0000000000 533.65234375 0.0000000000 7.8315429688 234.16845703 0.0000000000 4.0000000000 126.16846466 4.5000000000
 4824.9838867 6.0000000000 6.0187997818 0.0468302406 78.258590698 151.75369263 167.25070190 0.0000000000 0.3185623884 4.3675370216 2.4451029301 3.9868030548 4.1154589653 3.9261400700 2.7017591000 40.482070923 22.101409912 2.5187399387 11.129457474  -999.250000 0.0000000000 534.87109375 0.0000000000 7.9838867188 234.01611328 0.0000000000 4.0000000000 126.01612091 4.5000000000
 4825.1362305 6.0000000000 6.0187997818 0.0418201499 78.989646912 152.19909668 169.88569641 0.0000000000 0.3194420636 4.6775155067 2.4229390621 3.8692851067 3.9020318985 3.7567470074 2.6365151405 43.742019653 22.276039124 2.6325039864 11.680312157  -999.250000 0.0000000000 533.50146484 0.0000000000 8.1362304688 233.18261719 0.0000000000 4.0000000000 125.59131622 4.5000000000
