# LAS format log file from PETREL
# Project units are specified as depth units
#==================================================================
~Version information
VERS.   2.0:
WRAP.   NO:
#==================================================================
~Well
STRT .m      4697.8823242 :
STOP .m      5330.6469727 :
STEP .m     0.00000000 :
NULL .        -999.250000 :
COMP.           : COMPANY
WELL.  Kronos 1   : WELL
FLD.            : FIELD
LOC.            : LOCATION
SRVC.           : SERVICE COMPANY
DATE.  2017-10-02 11:49:53   : Log Export Date {yyyy-MM-dd HH:mm:ss}
PROV.           : PROVINCE
UWI.   Kronos 1   : UNIQUE WELL ID
API.            : API NUMBER
#==================================================================
~Curve
DEPT .m                   : DEPTH
BIT .in                   : BIT
CAL .in                   : CAL
DRHO .g/cm3               : DRHO
DTC .us/ft                : DTC
DTS .us/ft                : DTS
GR .gAPI                  : GR
NET .m                    : NET
NPHI .m3/m3               : NPHI
PEF .b/e                  : PEF
POTA .%                   : POTA
RESD .ohm.m               : RESD
RESM .ohm.m               : RESM
RESS .ohm.m               : RESS
RHOB .g/cm3               : RHOB
ROP .m/h                  : ROP
THOR .ppm                 : THOR
URAN .ppm                 : URAN
WOB .kN                   : WOB
RFT .bar                  : RFT
IC5 .%                    : IC5
TGAS .%                   : TGAS
IC4 .%                    : IC4
C3 .%                     : C3
C1 .%                     : C1
NC5 .%                    : NC5
NC4 .%                    : NC4
C2 .%                     : C2
Casing ._                 : Casing
~Parameter
#==================================================================
~Ascii
# ...
 4865.5224609 6.0000000000 6.0187997818 0.0377093218 77.172653198 140.37420654 148.99740601 0.0000000000 0.2347359955 3.9482870102 1.9098712206 5.2937479019 5.3820929527 5.2649278641 2.6379730701 45.981002808 19.824668884 2.6917171478 16.752216339  -999.250000 0.0000000000 890.26947021 2.0000000000 15.522460938 502.94335938 0.0000000000 4.0000000000 270.44921875 4.5000000000
 4865.6748047 6.0000000000 6.0187997818 0.0094779972 76.319381714 138.75450134 147.76719666 0.0000000000 0.2236407995 3.3424959183 1.8687549829 5.1385188103 5.3911862373 5.0839719772 2.6202490330 45.536167145 19.265670776 2.8196609020 16.394208908  -999.250000 0.0000000000 892.09759521 2.0000000000 15.674804688 509.34179688 0.0000000000 4.0000000000 273.49609375 4.5000000000
 4865.8271484 6.0000000000 6.0187997818 0.0009015922 75.267402649 137.42300415 145.71699524 0.0000000000 0.2211097032 3.2558059692 1.8357629776 4.7595181465 4.9320120811 4.4871020317 2.6233611107 45.091335297 18.683509827 3.0077888966 16.036201477  -999.250000 0.0000000000 893.92572021 2.0000000000 15.827148438 515.74023438 0.0000000000 4.0000000000 276.54296875 4.5000000000
 4865.9794922 6.0000000000 6.0187997818 -0.003707326 74.446670532 137.25950623 142.83479309 0.0000000000 0.2287918031 2.9838440418 1.8244040012 4.6920590401 4.8061361313 4.5362691879 2.6160960197 44.646499634 18.671390533 3.0254149437 15.678193092  -999.250000 0.0000000000 895.75384521 2.0000000000 15.979492188 522.13867188 0.0000000000 4.0000000000 279.58984375 4.5000000000
 4866.1318359 6.0000000000 6.0187997818 -0.009178759 74.403419495 139.23770142 142.30029297 0.0000000000 0.2363057137 3.7344174385 1.8399100304 4.8458271027 5.0498180389 4.7153091431 2.6173162460 45.391128540 18.757799149 2.9367599487 16.065059662  -999.250000 0.0000000000 889.67181396 2.0000000000 15.868164063 520.09960938 0.0000000000 3.8681640625 278.68164063 4.5000000000
 4866.2841797 6.0000000000 6.0187997818 -0.011070178 74.974739075 141.69990540 145.10060120 0.0000000000 0.2413363010 3.4558703899 1.8819429874 4.3588070869 4.5311880112 4.3438148499 2.6274702549 46.320781708 19.349079132 3.0031929016 16.567792892  -999.250000 0.0000000000 882.35931396 2.0000000000 15.715820313 516.74804688 0.0000000000 3.7158203125 277.15820313 4.5000000000
 4866.4365234 6.0000000000 6.0187997818 -0.011799455 76.400756836 143.26620483 148.50619507 0.0000000000 0.2441516966 3.2093307972 1.9860830307 4.2811288834 4.4258155823 4.1938867569 2.6622502804 47.250438690 20.003950119 3.0553810596 17.070528030  -999.250000 0.0000000000 875.04681396 2.0000000000 15.563476563 513.39648438 0.0000000000 3.5634765625 275.63476563 4.5000000000
 4866.5893555 6.0000000000 6.0187997818 -0.012747870 77.299293518 145.59533691 153.01759338 0.0000000000 0.2495000064 2.9492890835 2.0968184471 4.0641999245 4.1636328697 3.9579019547 2.6373639107 48.183074951 20.605052948 3.0173370838 17.574872971  -999.250000 0.0000000000 867.71093750 2.0000000000 15.410645485 510.03417969 0.0000000000 3.4106445313 274.10644531 4.5000000000
 4866.7416992 6.0000000000 6.0187997818 -0.011119680 78.059776306 146.97718811 157.10769653 0.0000000000 0.2544131875 3.1829979420 2.1035373211 4.1145658493 4.1587910652 3.8627040386 2.6348159313 49.112731934 21.229612350 2.8409371376 18.077608109  -999.250000 0.0000000000 860.39843750 2.0000000000 15.258301735 506.68261719 0.0000000000 3.2583007813 272.58300781 4.5000000000
 4866.8940430 6.0000000000 6.0187997818 -0.009812131 77.524192810 147.96978760 156.24079895 0.0000000000 0.2472164929 3.3467969894 2.1152091026 4.3576312065 4.4391841888 4.1876997948 2.6342051029 50.042388916 20.883720398 2.5052809715 18.580341339  -999.250000 0.0000000000 853.08593750 2.0000000000 15.105957985 503.33105469 0.0000000000 3.1059570313 271.05957031 4.5000000000
 4867.0463867 6.0000000000 6.0187997818 -0.012767100 77.198722839 147.77870178 153.37719727 0.0000000000 0.2325544953 2.7484920025 2.0758090019 4.8085918427 4.8484401703 4.5644721985 2.6220600605 51.083141327 20.437509537 2.1068429947 18.865522385  -999.250000 0.0000000000 842.80468750 2.0000000000 14.907227516 498.95898438 0.0000000000 3.0000000000 270.00000000 4.5000000000
 4867.1987305 6.0000000000 6.0187997818 -0.014236800 76.948951721 145.82530212 149.63029480 0.0000000000 0.2241030931 3.4524919987 1.9852219820 4.7382540703 4.8005042076 4.5316271782 2.6325149536 52.377662659 19.552509308 2.2384939194 18.653764725  -999.250000 0.0000000000 825.74218750 2.0000000000 14.602540016 492.25585938 0.0000000000 3.0000000000 270.00000000 4.5000000000
 4867.3510742 6.0000000000 6.0187997818 -0.014278950 76.966026306 143.20489502 148.29370117 0.0000000000 0.2288523018 3.4804360867 1.9876120090 4.5701842308 4.8303880692 4.5715889931 2.6327190399 53.672187805 19.551769257 2.2153968811 18.442007065  -999.250000 0.0000000000 808.67968750 2.0000000000 14.297851563 485.55273438 0.0000000000 3.0000000000 270.00000000 4.5000000000
 4867.5034180 6.0000000000 6.0187997818 -0.009652603 77.804519653 144.02690125 152.96420288 0.0000000000 0.2400956750 3.2875552177 2.0648419857 4.2826981544 4.2919549942 4.0607237816 2.6231744289 54.966709137 20.158210754 2.3480160236 18.230249405  -999.250000 0.0000000000 791.61718750 2.0000000000 13.993164063 478.84957886 0.0000000000 3.0000000000 270.00000000 4.5000000000
 4867.6557617 6.0000000000 6.0187997818 -0.002103144 78.617340088 145.83309937 154.99169922 0.0000000000 0.2444256842 2.8802077770 2.0863690376 3.8354246616 3.7880203724 3.6999812126 2.6354911327 56.261230469 20.433280945 2.3099279404 18.018491745  -999.250000 0.0000000000 774.55468750 2.0000000000 13.688476563 472.14645386 0.0000000000 3.0000000000 270.00000000 4.5000000000
 4867.8081055 6.0000000000 6.0187997818 -0.000058549 78.682975769 146.05509949 157.12744141 0.0000000000 0.2472418845 3.4599287510 2.0591359138 3.9421334267 4.0694808960 3.9538707733 2.6356008053 57.555755615 20.055320740 2.3430531025 17.806734085  -999.250000 0.0000000000 757.49218750 2.0000000000 13.383788109 465.44332886 0.0000000000 3.0000000000 270.00000000 4.5000000000
 4867.9609375 6.0000000000 6.0187997818 0.0009313401 77.584098816 143.25796509 151.10830688 0.0000000000 0.2512978911 3.5099260807 2.0689835548 4.4337511063 4.5486311913 4.4044919014 2.6136190891 58.854427338 19.498273849 2.2719693184 17.594297409  -999.250000 0.0000000000 740.37500000 2.0000000000 13.078124046 458.71871948 0.0000000000 3.0000000000 270.00000000 4.5000000000
 4868.1132813 6.0000000000 6.0187997818 0.0027154940 75.567947388 139.35681152 144.49180603 0.0000000000 0.2379761040 3.3276560307 2.0036354065 5.0795021057 5.1651911736 5.0309591293 2.6237530708 57.417263031 19.145795822 2.2235047817 17.670274734  -999.250000 0.0000000000 740.64453125 1.8867187500 13.113280296 461.64450073 0.0000000000 3.0000000000 270.00000000 4.5000000000
 4868.2656250 6.0000000000 6.0187997818 -0.005085741 73.588256836 137.34626770 137.21839905 0.0000000000 0.2211198062 3.2263610363 1.9248960018 5.7729477882 5.8934359550 5.7325119972 2.6365690231 55.038143158 18.458160400 2.2109689713 17.845470428  -999.250000 0.0000000000 746.89062500 1.7343750000 13.265624046 467.89062500 0.0000000000 3.0000000000 270.00000000 4.5000000000
 4868.4179688 6.0000000000 6.0187997818 -0.014541570 72.960563660 138.70559692 135.88259888 0.0000000000 0.2181676030 3.3441319466 1.9352370501 5.6200528145 5.9888057709 5.6921029091 2.6253850460 52.659019470 18.361749649 2.2854950428 18.020664215  -999.250000 0.0000000000 753.13671875 1.5820312500 13.417967796 474.13671875 0.0000000000 3.0000000000 270.00000000 4.5000000000
 4868.5703125 6.0000000000 6.0187997818 -0.011414540 74.429367065 142.05329895 143.27049255 0.0000000000 0.2417183071 3.9023640156 2.0464060307 4.4034090042 4.5812640190 4.3679738045 2.6150000095 50.279899597 18.972280502 2.6092689037 18.195859909  -999.250000 0.0000000000 759.38275146 1.4296875000 13.570312500 480.38281250 0.0000000000 3.0000000000 270.00000000 4.5000000000
 4868.7226563 6.0000000000 6.0187997818 -0.002715341 77.027442932 147.01770020 153.56329346 0.0000000000 0.2646284103 7.0391201973 2.2178280354 3.6478219032 3.7410910130 3.6473670006 2.6936309338 47.900775909 20.050529480 3.1022639275 18.371055603  -999.250000 0.0000000000 765.62884521 1.2773437500 13.722656250 486.62890625 0.0000000000 3.0000000000 270.00000000 4.5000000000
