# LAS format log file from PETREL
# Project units are specified as depth units
#==================================================================
~Version information
VERS.   2.0:
WRAP.   NO:
#==================================================================
~Well
STRT .m      4697.8823242 :
STOP .m      5330.6469727 :
STEP .m     0.00000000 :
NULL .        -999.250000 :
COMP.           : COMPANY
WELL.  Kronos 1   : WELL
FLD.            : FIELD
LOC.            : LOCATION
SRVC.           : SERVICE COMPANY
DATE.  2017-10-02 11:49:53   : Log Export Date {yyyy-MM-dd HH:mm:ss}
PROV.           : PROVINCE
UWI.   Kronos 1   : UNIQUE WELL ID
API.            : API NUMBER
#==================================================================
~Curve
DEPT .m                   : DEPTH
BIT .in                   : BIT
CAL .in                   : CAL
DRHO .g/cm3               : DRHO
DTC .us/ft                : DTC
DTS .us/ft                : DTS
GR .gAPI                  : GR
NET .m                    : NET
NPHI .m3/m3               : NPHI
PEF .b/e                  : PEF
POTA .%                   : POTA
RESD .ohm.m               : RESD
RESM .ohm.m               : RESM
RESS .ohm.m               : RESS
RHOB .g/cm3               : RHOB
ROP .m/h                  : ROP
THOR .ppm                 : THOR
URAN .ppm                 : URAN
WOB .kN                   : WOB
RFT .bar                  : RFT
IC5 .%                    : IC5
TGAS .%                   : TGAS
IC4 .%                    : IC4
C3 .%                     : C3
C1 .%                     : C1
NC5 .%                    : NC5
NC4 .%                    : NC4
C2 .%                     : C2
Casing ._                 : Casing
~Parameter
#==================================================================
~Ascii
# ...
 5153.8632813 6.0000000000 5.7032370567 0.0124927703 71.941162109 131.79522705 163.03520203 0.0000000000 0.2063111067 3.7482180595 2.2972853184 5.5925168991 5.7372422218 5.3943867683 2.6498820782 42.248374939 19.864675522 3.2868499756 15.331718445  -999.250000 0.0000000000 437.73437500 0.0000000000 9.0000000000 185.87109375 0.0000000000 3.0000000000 0.0000000000 4.5000000000
 5154.0156250 6.0000000000 5.7037706375 0.0155524397 72.480300903 132.89562988 162.73399353 0.0000000000 0.2059838027 3.7471330166 2.2736690044 5.4831089973 5.6679039001 5.2910418510 2.6492400169 41.612838745 19.856750488 3.1719620228 15.347499847  -999.250000 0.0000000000 434.90625000 0.0000000000 9.0000000000 182.90625000 0.0000000000 3.0000000000 0.0000000000 4.5000000000
 5154.1679688 6.0000000000 5.7031841278 0.0195767600 72.860656738 133.52850342 160.55050659 0.0000000000 0.2044657022 3.7152800560 2.2637639046 5.5838518143 5.7855639458 5.5652341843 2.6571500301 41.407917023 19.427629471 3.0768859386 15.128125191  -999.250000 0.0000000000 433.99218750 0.0000000000 9.0000000000 181.99218750 0.0000000000 3.0000000000 0.0000000000 4.5000000000
 5154.3203125 6.0000000000 5.7050042152 0.0134478603 72.971153259 133.67709351 157.11439514 0.0000000000 0.2019937932 3.8271009922 2.2169389725 5.4981808662 5.7383060455 5.4014291763 2.6551990509 41.202991486 18.865140915 2.9908850193 14.908749580  -999.250000 0.0000000000 433.07812500 0.0000000000 9.0000000000 181.07812500 0.0000000000 3.0000000000 0.0000000000 4.5000000000
 5154.4726563 6.0000000000 5.7049837112 0.0099422010 72.736633301 133.48809814 154.54739380 0.0000000000 0.1992110014 3.8254671097 2.2138059139 5.3497138023 5.4525728226 5.2621769905 2.6428072453 40.998065948 18.405460358 2.9639980793 14.689374924  -999.250000 0.0000000000 432.16406250 0.0000000000 9.0000000000 180.16406250 0.0000000000 3.0000000000 0.0000000000 4.5000000000
 5154.6250000 6.0000000000 5.7038497925 0.0118436404 72.570159912 133.15969849 153.96600342 0.0000000000 0.1973282397 3.7546448708 2.2372488976 5.5663180351 5.7239232063 5.5300321579 2.6414663792 40.793140411 18.178129196 2.9304521084 14.470000267  -999.250000 0.0000000000 431.25000000 0.0000000000 9.0000000000 179.25000000 0.0000000000 3.0000000000 0.0000000000 4.5000000000
 5154.7773438 6.0000000000 5.7067828178 0.0163624454 72.649055481 132.85020447 153.83392334 0.0000000000 0.1962163597 3.8491833210 2.2426109314 5.5874514580 5.7522034645 5.4289588928 2.6471977234 40.588214874 18.588750839 3.0246560574 14.250625610  -999.250000 0.0000000000 430.33593750 0.0000000000 9.0000000000 178.33593750 0.0000000000 3.0000000000 0.0000000000 4.5000000000
 5154.9296875 6.0000000000 5.7046413422 0.0130535364 72.703186035 132.41499329 151.99021912 0.0000000000 0.1935737729 3.9712295532 2.2225990295 5.7194108963 5.7624464035 5.4728150368 2.6477653980 40.383293152 18.867719650 3.0100629330 14.031250000  -999.250000 0.0000000000 429.42187500 0.0000000000 9.0000000000 177.42187500 0.0000000000 3.0000000000 0.0000000000 4.5000000000
 5155.0825195 6.0000000000 5.6993498802 0.0086715724 72.400199890 131.47526550 148.41889954 0.0000000000 0.1880396008 4.0134358406 2.2365691662 6.2949500084 6.5449991226 6.1664152145 2.6451680660 40.134395599 18.853252411 2.8421187401 14.062856674  -999.250000 0.0000000000 430.98046875 0.0000000000 9.0000000000 179.22802734 0.0000000000 3.0000000000 0.0000000000 4.5000000000
 5155.2348633 6.0000000000 5.7018661499 0.0047509130 71.617271423 129.87429810 145.33850098 0.0000000000 0.1813948005 3.9679160118 2.2063183784 6.8512310982 7.2769250870 6.7183752060 2.6390140057 39.849498749 18.281621933 2.9552173615 14.308130264  -999.250000 0.0000000000 434.63671875 0.0000000000 9.0000000000 183.34130859 0.0000000000 3.0000000000 0.0000000000 4.5000000000
 5155.3872070 6.0000000000 5.7095093727 0.0063990080 70.609153748 127.90979767 144.75770569 0.0000000000 0.1767832935 3.8383190632 2.1518359184 7.1484417915 7.4189391136 6.7906260490 2.6351931095 39.564605713 18.066839218 3.0442221165 14.553403854  -999.250000 0.0000000000 438.29296875 0.0000000000 9.0000000000 187.45458984 0.0000000000 3.0000000000 0.0000000000 4.5000000000
 5155.5395508 6.0000000000 5.7106342316 0.0123091796 69.758247375 126.00430298 145.50950623 0.0000000000 0.1749631017 3.7541909218 2.0980880260 7.6703839302 7.8649449348 7.3445940018 2.6430180073 39.279712677 17.889560699 3.0387310982 14.798676491  -999.250000 0.0000000000 441.94921875 0.0000000000 9.0000000000 191.56787109 0.0000000000 3.0000000000 0.0000000000 4.5000000000
 5155.6918945 6.0000000000 5.7113356590 0.0140489796 69.252723694 124.40070343 145.00909424 0.0000000000 0.1734350026 3.8660299778 2.0499210358 8.3521261215 8.5863370895 7.8463640213 2.6501929760 38.994815826 17.525169373 2.9315960407 15.043950081  -999.250000 0.0000000000 445.60546875 0.0000000000 9.0000000000 195.68115234 0.0000000000 3.0000000000 0.0000000000 4.5000000000
 5155.8442383 6.0000000000 5.7069826126 0.0091393935 68.821990967 122.95760345 141.80650330 0.0000000000 0.1717112213 3.9703683853 2.0238471031 8.6623725891 8.8067474365 7.7839679718 2.6475436687 38.709922791 17.027149200 2.7920799255 15.289223671  -999.250000 0.0000000000 449.26171875 0.0000000000 9.0000000000 199.79443359 0.0000000000 3.0000000000 0.0000000000 4.5000000000
 5155.9965820 6.0000000000 5.7025122643 0.0084820101 68.075012207 121.68730927 137.13150024 0.0000000000 0.1689843535 3.9250667095 1.9836620092 9.6711692810 9.7398786545 8.8299226761 2.6500072479 38.425029755 16.886539459 2.6780300140 15.534497261  -999.250000 0.0000000000 452.91796875 0.0000000000 9.0000000000 203.90771484 0.0000000000 3.0000000000 0.0000000000 4.5000000000
 5156.1489258 6.0000000000 5.7033491135 0.0104833981 67.144721985 120.79129791 134.02046204 0.0000000000 0.1641190201 3.9589405060 1.9351860285 10.912590981 10.872360229 9.9581041336 2.6584699154 37.304626465 16.823120117 2.5599520206 15.434262276  -999.250000 0.0000000000 452.85107422 0.0000000000 8.8510742188 204.59570313 0.0000000000 2.8510742188 0.0000000000 4.5000000000
 5156.3017578 6.0000000000 5.7091121674 0.0081384070 66.761047363 120.62402344 134.26460266 0.0000000000 0.1587447971 4.0338730812 1.9380339384 11.189000130 10.982589722 10.031129837 2.6588740349 36.161392212 16.972097397 2.4687936306 15.325752258  -999.250000 0.0000000000 452.69824219 0.0000000000 8.6982421875 205.20703125 0.0000000000 2.6982421875 0.0000000000 4.5000000000
 5156.4541016 6.0000000000 5.7147789001 0.0048891450 67.111213684 121.35183716 138.64759827 0.0000000000 0.1579045057 4.0540270805 2.0207993984 10.140500069 10.075389862 9.2230854034 2.6551709175 35.021812439 17.652936935 2.4006547928 15.217587471  -999.250000 0.0000000000 452.54589844 0.0000000000 8.5458984375 205.81640625 0.0000000000 2.5458984375 0.0000000000 4.5000000000
 5156.6064453 6.0000000000 5.7222080231 0.0045435280 67.943176270 122.95546722 143.92649841 0.0000000000 0.1647394001 3.9238150120 2.1422879696 8.6736259460 8.7983446121 8.1300811768 2.6511590481 33.882236481 18.697420120 2.3363039494 15.109423637  -999.250000 0.0000000000 452.39355469 0.0000000000 8.3935546875 206.42576599 0.0000000000 2.3935546875 0.0000000000 4.5000000000
 5156.7587891 6.0000000000 5.7287430763 0.0081011020 68.956619263 125.41030121 148.04330444 0.0000000000 0.1750604957 3.6632030010 2.2317290306 7.6317410469 7.8205227852 7.3438839912 2.6522920132 32.742656708 19.708440781 2.2889599800 15.001259804  -999.250000 0.0000000000 452.24121094 0.0000000000 8.2412109375 207.03514099 0.0000000000 2.2412109375 0.0000000000 4.5000000000
 5156.9111328 6.0000000000 5.7288680077 0.0109569300 70.131668091 128.60980225 150.51170349 0.0000000000 0.1831870973 3.6254000664 2.3057360649 7.2179617882 7.3857069016 6.9244990349 2.6598000526 31.603076935 20.502559662 2.1445860863 14.893095970  -999.250000 0.0000000000 452.08886719 0.0000000000 8.0888671875 207.64451599 0.0000000000 2.0888671875 0.0000000000 4.5000000000
 5157.0634766 6.0000000000 5.7215938568 0.0085349251 71.537033081 132.15109253 153.43569946 0.0000000000 0.1886302978 3.7646589279 2.3527889252 6.8910231590 6.9844608307 6.4529480934 2.6572229862 31.694292068 20.881710052 2.0909690857 14.848407745  -999.250000 0.0000000000 452.63476563 0.0000000000 8.0000000000 207.93650818 0.0000000000 2.0000000000 0.0000000000 4.5000000000
