# LAS format log file from PETREL
# Project units are specified as depth units
#==================================================================
~Version information
VERS.   2.0:
WRAP.   NO:
#==================================================================
~Well
STRT .m      4697.8823242 :
STOP .m      5330.6469727 :
STEP .m     0.00000000 :
NULL .        -999.250000 :
COMP.           : COMPANY
WELL.  Kronos 1   : WELL
FLD.            : FIELD
LOC.            : LOCATION
SRVC.           : SERVICE COMPANY
DATE.  2017-10-02 11:49:53   : Log Export Date {yyyy-MM-dd HH:mm:ss}
PROV.           : PROVINCE
UWI.   Kronos 1   : UNIQUE WELL ID
API.            : API NUMBER
#==================================================================
~Curve
DEPT .m                   : DEPTH
BIT .in                   : BIT
CAL .in                   : CAL
DRHO .g/cm3               : DRHO
DTC .us/ft                : DTC
DTS .us/ft                : DTS
GR .gAPI                  : GR
NET .m                    : NET
NPHI .m3/m3               : NPHI
PEF .b/e                  : PEF
POTA .%                   : POTA
RESD .ohm.m               : RESD
RESM .ohm.m               : RESM
RESS .ohm.m               : RESS
RHOB .g/cm3               : RHOB
ROP .m/h                  : ROP
THOR .ppm                 : THOR
URAN .ppm                 : URAN
WOB .kN                   : WOB
RFT .bar                  : RFT
IC5 .%                    : IC5
TGAS .%                   : TGAS
IC4 .%                    : IC4
C3 .%                     : C3
C1 .%                     : C1
NC5 .%                    : NC5
NC4 .%                    : NC4
C2 .%                     : C2
Casing ._                 : Casing
~Parameter
#==================================================================
~Ascii
# ...
 5073.3959961 6.0000000000 5.8781719208 0.0036531610 70.868843079 130.90649414 146.97610474 0.0000000000 0.1960280985 3.3932371140 2.0677320957 8.1282348633 8.3221979141 7.7956910133 2.7148230076 21.211223602 19.278009415 2.9794929028 17.370367050  -999.250000 0.0000000000 700.80419922 1.0000000000 10.395996094 419.84423828 0.0000000000 3.0000000000 0.0000000000 4.5000000000
 5073.5483398 6.0000000000 5.8814878464 0.0003177171 71.556510925 133.12089539 144.20950317 0.0000000000 0.1975272000 3.5452759266 2.0066630840 7.9710369110 8.1474609375 7.6081600189 2.7182199955 18.567199707 18.285249710 2.9089710712 17.128139496  -999.250000 0.0000000000 693.03466797 1.0000000000 10.548339844 410.55126953 0.0000000000 3.0000000000 0.0000000000 4.5000000000
 5073.7006836 6.0000000000 5.8826813698 -0.002179136 72.764183044 136.25100708 143.99659729 0.0000000000 0.2002462000 3.9451780319 2.0077280998 7.6053972244 7.8121638298 7.2646508217 2.7077720165 15.923175812 17.965099335 2.6305999756 16.885913849  -999.250000 0.0000000000 685.26513672 1.0000000000 10.700683594 401.25830078 0.0000000000 3.0000000000 0.0000000000 4.5000000000
 5073.8530273 6.0000000000 5.8826880455 -0.002673050 74.499526978 139.62959290 146.40390015 0.0000000000 0.2037274390 4.0261006355 2.1294360161 7.2000021935 7.4358778000 7.1296291351 2.6864085197 13.279151917 18.887170792 2.2082738876 16.643686295  -999.250000 0.0000000000 677.49560547 1.0000000000 10.853027344 391.96533203 0.0000000000 3.0000000000 0.0000000000 4.5000000000
 5074.0053711 6.0000000000 5.8821988106 -0.004385085 76.465682983 142.41839600 150.25959778 0.0000000000 0.2082389295 3.5484037399 2.2802550793 6.7844929695 7.0558438301 6.7213759422 2.6618328094 10.738039017 20.208860397 1.9344940186 16.404359818  -999.250000 0.0000000000 670.46728516 1.0000000000 11.010742188 383.26855469 0.0000000000 3.0000000000 0.0000000000 4.5000000000
 5074.1577148 6.0000000000 5.8794746399 -0.006443977 78.059928894 143.84199524 152.86734009 0.0000000000 0.2146453559 3.1335690022 2.4242050648 6.3818764687 6.7644252777 6.2999448776 2.6527798176 11.012937546 20.835870743 1.9744659662 16.244400024  -999.250000 0.0000000000 683.72119141 1.0000000000 11.315429688 390.88574219 0.0000000000 3.0000000000 0.0000000000 4.5000000000
 5074.3105469 6.0000000000 5.8795585632 -0.007213678 78.759941101 143.08436584 152.13639832 0.0000000000 0.2219264954 3.1679759026 2.4710903168 5.8322839737 6.3567700386 5.7983498573 2.6563849449 11.288716316 20.714941025 2.0935099125 16.083925247  -999.250000 0.0000000000 697.01757813 1.0000000000 11.621093750 398.52734375 0.0000000000 3.0000000000 0.0000000000 4.5000000000
 5074.4628906 6.0000000000 5.8780937195 -0.009294573 78.271896362 140.59501648 148.79589844 0.0000000000 0.2305413038 3.1393680573 2.4015705585 4.8546271324 5.1159801483 4.6068811417 2.6366961002 11.563614845 20.230724335 2.3799431324 15.923964500  -999.250000 0.0000000000 710.27148438 1.0000000000 11.925781250 406.14453125 0.0000000000 3.0000000000 0.0000000000 4.5000000000
 5074.6152344 6.0000000000 5.8718590736 -0.005049236 76.307037354 134.19352722 146.31900024 0.0000000000 0.2389947027 3.4197831154 2.3187689781 4.1323480606 4.2487192154 3.9097619057 2.6411540508 11.838513374 19.383529663 2.7638020515 15.764003754  -999.250000 0.0000000000 723.52539063 1.0000000000 12.230467796 413.76174927 0.0000000000 3.0000000000 0.0000000000 4.5000000000
 5074.7675781 6.0000000000 5.8558998108 -0.001045979 71.995231628 123.99839783 143.89959717 0.0000000000 0.2431167960 3.6719899178 2.2616660595 4.2173929214 4.2996101379 4.0387229919 2.6520590782 12.113411903 18.812599182 3.0112309456 15.604043007  -999.250000 0.0000000000 736.77929688 1.0000000000 12.535155296 421.37893677 0.0000000000 3.0000000000 0.0000000000 4.5000000000
 5074.9199219 6.0000000000 5.8341603279 -0.001982119 66.402656555 112.63910675 139.24400330 0.0000000000 0.2318965048 3.7002730370 2.1626770496 5.0964407921 5.1483907700 4.6388111115 2.6603770256 12.388310432 18.647729874 3.0482599735 15.444081306  -999.250000 0.0000000000 750.03320313 1.0000000000 12.839842796 428.99612427 0.0000000000 3.0000000000 0.0000000000 4.5000000000
 5075.0722656 6.0000000000 5.8345947266 -0.000581696 61.377380371 102.94499969 131.05470276 0.0000000000 0.2006693929 4.0445852280 1.9755669832 6.7113971710 6.6232252121 5.7378740311 2.6641488075 12.684547424 18.408910751 2.9830191135 15.377343178  -999.250000 0.0000000000 753.74804688 1.0000000000 12.927733421 430.75979614 0.0000000000 3.0000000000 0.0000000000 4.5000000000
 5075.2246094 6.0000000000 5.8466916084 0.0086693624 58.008850098 97.323303223 119.06120300 0.0000000000 0.1417857260 3.9715111256 1.7321150303 12.314379692 11.382280350 10.662790298 2.6618313789 13.004428864 17.056709290 2.8829269409 15.413906097  -999.250000 0.0000000000 746.89257813 1.0000000000 12.775389671 426.03713989 0.0000000000 3.0000000000 0.0000000000 4.5000000000
 5075.3769531 6.0000000000 5.8559188843 0.0175821930 56.693454742 94.859329224 104.37117767 0.0000000000 0.0869266316 4.0083298683 1.3899999857 26.116373062 22.804132462 21.673049927 2.6647367477 13.324311256 14.660699844 2.6269419193 15.450469017  -999.250000 0.0000000000 740.03710938 1.0000000000 12.623045921 421.31448364 0.0000000000 3.0000000000 0.0000000000 4.5000000000
 5075.5292969 6.0000000000 5.8726511002 0.0113430042 56.428218842 93.721687317 88.957824707 0.0000000000 0.0564951077 4.1685204506 1.0485039949 35.672363281 44.837440491 41.295368195 2.6677174568 13.644192696 12.008410454 2.4349079132 15.487030983  -999.250000 0.0000000000 733.18164063 1.0000000000 12.470703125 416.59179688 0.0000000000 3.0000000000 0.0000000000 4.5000000000
 5075.6821289 6.0000000000 5.8853521347 0.0046651759 56.442340851 93.702186584 76.450477600 0.0000000000 0.0461984016 4.0325279236 0.8347053528 37.940799713 55.904930115 56.673591614 2.6681458950 13.965100288 9.8984203339 2.2884171009 15.523711205  -999.250000 0.0000000000 726.30419922 1.0000000000 12.317871094 411.85400391 0.0000000000 3.0000000000 0.0000000000 4.5000000000
 5075.8344727 6.0000000000 5.9025459290 0.0054600840 56.614368439 94.130615234 69.222549438 0.0000000000 0.0452302210 3.8708031178 0.6814534664 57.882068634 67.875457764 75.412086487 2.6794459820 14.284982681 9.2882156372 2.1380901337 15.560274124  -999.250000 0.0000000000 719.44873047 1.0000000000 12.165527344 407.13134766 0.0000000000 3.0000000000 0.0000000000 4.5000000000
 5075.9868164 6.0000000000 5.9111680984 0.0050291442 56.969360352 94.555206299 67.076316833 0.0000000000 0.0458042696 3.9846720695 0.5626388192 85.108596802 92.245559692 105.45989990 2.6928958893 14.604864120 8.8655757904 2.0810439587 15.596836090  -999.250000 0.0000000000 712.59326172 1.0000000000 12.013183594 402.40869141 0.0000000000 3.0000000000 0.0000000000 4.5000000000
 5076.1391602 6.0000000000 5.9109849930 0.0022143589 57.545848846 95.292808533 69.079376221 0.0000000000 0.0473618209 4.3444547653 0.5839458108 70.180999756 73.611793518 88.620460510 2.6931769848 14.842565536 9.1204910278 1.8709310293 15.463623047  -999.250000 0.0000000000 749.01660156 1.0000000000 12.417480469 422.73486328 0.0000000000 3.1391601563 0.0000000000 4.5000000000
 5076.2915039 6.0000000000 5.9360508919 0.0016728020 58.268539429 95.921882629 73.880111694 0.0000000000 0.0513559915 3.8810269833 0.6684389710 56.555538177 58.368061066 59.286060333 2.6783239841 15.072480202 10.702380180 1.5516699553 15.314326286  -999.250000 0.0000000000 789.54003906 1.0000000000 12.874511719 445.43408203 0.0000000000 3.2915039063 0.0000000000 4.5000000000
 5076.4438477 6.0000000000 5.9410190582 0.0020718840 58.380691528 96.178771973 78.689537048 0.0000000000 0.0572728254 3.5533382893 0.7296221256 46.593460083 48.501529694 47.331611633 2.6867878437 15.302395821 12.112090111 1.4404690266 15.165029526  -999.250000 0.0000000000 830.06347656 1.0000000000 13.331542969 468.13330078 0.0000000000 3.4438476563 0.0000000000 4.5000000000
 5076.5961914 6.0000000000 5.9329090118 -0.006105634 58.133079529 96.150260925 83.213729858 0.0000000000 0.0625230893 3.1748416424 0.7809221745 45.764019012 46.829689026 49.485149384 2.6694388390 15.532310486 12.402790070 1.5009429455 15.015732765  -999.250000 0.0000000000 870.58691406 1.0000000000 13.788575172 490.83251953 0.0000000000 3.5961914063 0.0000000000 4.5000000000
