# LAS format log file from PETREL
# Project units are specified as depth units
#==================================================================
~Version information
VERS.   2.0:
WRAP.   NO:
#==================================================================
~Well
STRT .m      4697.8823242 :
STOP .m      5330.6469727 :
STEP .m     0.00000000 :
NULL .        -999.250000 :
COMP.           : COMPANY
WELL.  Kronos 1   : WELL
FLD.            : FIELD
LOC.            : LOCATION
SRVC.           : SERVICE COMPANY
DATE.  2017-10-02 11:49:53   : Log Export Date {yyyy-MM-dd HH:mm:ss}
PROV.           : PROVINCE
UWI.   Kronos 1   : UNIQUE WELL ID
API.            : API NUMBER
#==================================================================
~Curve
DEPT .m                   : DEPTH
BIT .in                   : BIT
CAL .in                   : CAL
DRHO .g/cm3               : DRHO
DTC .us/ft                : DTC
DTS .us/ft                : DTS
GR .gAPI                  : GR
NET .m                    : NET
NPHI .m3/m3               : NPHI
PEF .b/e                  : PEF
POTA .%                   : POTA
RESD .ohm.m               : RESD
RESM .ohm.m               : RESM
RESS .ohm.m               : RESS
RHOB .g/cm3               : RHOB
ROP .m/h                  : ROP
THOR .ppm                 : THOR
URAN .ppm                 : URAN
WOB .kN                   : WOB
RFT .bar                  : RFT
IC5 .%                    : IC5
TGAS .%                   : TGAS
IC4 .%                    : IC4
C3 .%                     : C3
C1 .%                     : C1
NC5 .%                    : NC5
NC4 .%                    : NC4
C2 .%                     : C2
Casing ._                 : Casing
~Parameter
#==================================================================
~Ascii
# ...
 4905.7558594 6.0000000000 6.0187997818 -0.008769524 63.204509735 104.95490265 109.42870331 0.0000000000 0.0942151323 3.7315499783 1.0041569471 13.392990112 15.806539536 14.682869911 2.6999590397 16.129749298 14.489069939 2.0644829273 17.561172485  -999.250000 0.0000000000 413.67187500 1.0000000000 5.2207031250 147.92968750 0.0000000000 1.4882812500 15.244141579 4.5000000000
 4905.9082031 6.0000000000 6.0187997818 -0.005129032 64.066726685 105.51129913 116.99109650 0.0000000000 0.0975285396 3.6740322113 1.1527160406 9.9830436707 10.265720367 9.4431161880 2.6911194324 15.604943275 16.617599487 2.4120988846 17.591640472  -999.250000 0.0000000000 405.14062500 1.0000000000 4.4589843750 146.10156250 0.0000000000 1.1835937500 15.091797829 4.5000000000
 4906.0605469 6.0000000000 6.0187997818 -0.005524151 63.795898438 105.79530334 119.31704712 0.0000000000 0.0985345989 3.7273807526 1.1688200235 8.3339481354 8.1586360931 8.2776508331 2.6731717587 15.626409531 16.956829071 2.6572580338 17.496171951  -999.250000 0.0000000000 399.75781250 1.0000000000 4.3027343750 144.75781250 0.0000000000 1.0605468750 15.000000954 4.5000000000
 4906.2128906 6.0000000000 6.0187997818 -0.008831662 62.450672150 105.46540070 113.02395630 0.0000000000 0.0909295529 3.8757853508 1.0315799713 12.600085258 13.216962814 13.208782196 2.6618969440 16.476095200 15.944259644 2.5946550369 17.209766388  -999.250000 0.0000000000 399.14843750 1.0000000000 5.0644531250 144.14843750 0.0000000000 1.2128906250 15.000000954 4.5000000000
 4906.3657227 6.0000000000 6.0187997818 -0.008830882 61.168720245 104.58705902 105.47640228 0.0000000000 0.0792716667 4.2979850769 0.9071768522 18.759000778 18.800659180 20.043739319 2.6654579639 17.328506470 14.517895699 2.3859117031 16.922441483  -999.250000 0.0000000000 398.53710938 1.0000000000 5.8286132813 143.53710938 0.0000000000 1.3657226563 15.000000954 4.5000000000
 4906.5180664 6.0000000000 6.0187997818 -0.003533676 60.842189789 103.82467651 105.25099945 0.0000000000 0.0719486475 5.3688688278 0.8573236465 15.574419975 16.771680832 17.888830185 2.6833069324 18.178192139 13.741436958 2.4957680702 16.636035919  -999.250000 0.0000000000 397.92773438 1.0000000000 6.5903320313 142.92773438 0.0000000000 1.5180664063 15.000000954 4.5000000000
 4906.6704102 6.0000000000 6.0187997818 -0.008908519 61.411731720 103.13079834 112.66190338 0.0000000000 0.0707930699 4.9617390633 0.8723130822 14.225859642 15.304699898 15.504630089 2.6896829605 19.027877808 14.504899979 2.6383380890 16.349628448  -999.250000 0.0000000000 397.31835938 1.0000000000 7.3520507813 142.31835938 0.0000000000 1.6704101563 15.000000954 4.5000000000
 4906.8227539 6.0000000000 6.0187997818 -0.003602621 61.634048462 102.06729889 116.71209717 0.0000000000 0.0719174370 4.7778391838 0.8998507261 12.548199654 13.264920235 12.167429924 2.6955399513 19.877565384 15.482410431 2.8113789558 16.063222885  -999.250000 0.0000000000 396.70898438 1.0000000000 8.1137695313 141.70898438 0.0000000000 1.8227539063 15.000000954 4.5000000000
 4906.9750977 6.0000000000 6.0187997818 -0.000496770 60.709480286 100.97319031 112.84950256 0.0000000000 0.0711574927 4.4127650261 0.8631212711 13.103010178 13.520569801 14.831769943 2.6876659393 20.727251053 15.855959892 2.7240309715 15.776816368  -999.250000 0.0000000000 396.09960938 1.0000000000 8.8754882813 141.09960938 0.0000000000 1.9750976563 15.000000954 4.5000000000
 4907.1274414 6.0000000000 6.0187997818 -0.002033411 59.658260345 99.917129517 105.68779755 0.0000000000 0.0669339448 4.4284038544 0.7785221934 20.222620010 21.277599335 27.754259109 2.6806495190 21.012481689 15.176179886 2.5586709976 16.083011627  -999.250000 0.0000000000 398.80371094 1.0000000000 9.0000000000 136.53955078 0.0000000000 2.1274414063 14.872559547 4.5000000000
 4907.2797852 6.0000000000 6.0187997818 -0.006502867 59.570594788 99.559410095 106.32920074 0.0000000000 0.0636822954 4.6262779236 0.6973227859 26.275579453 28.657499313 30.619539261 2.6797757149 21.187417984 14.430279732 2.6062929630 16.505004883  -999.250000 0.0000000000 402.15527344 1.0000000000 9.0000000000 131.20751953 0.0000000000 2.2797851563 14.720215797 4.5000000000
 4907.4321289 6.0000000000 6.0187997818 -0.007073991 60.675621033 99.939239502 113.91139984 0.0000000000 0.0657724887 4.3907475471 0.6950002909 19.255521774 21.330654144 20.921443939 2.6889374256 21.362354279 14.860329628 2.9233338833 16.926996231  -999.250000 0.0000000000 405.50683594 1.0000000000 9.0000000000 125.87548828 0.0000000000 2.4321289063 14.567872047 4.5000000000
 4907.5849609 6.0000000000 6.0187997818 -0.002014535 61.862411499 100.98197174 118.33599854 0.0000000000 0.0728140175 4.2532649040 0.7282950878 14.035599709 14.033510208 13.387160301 2.6868290901 21.537849426 16.221380234 3.2680690289 17.350341797  -999.250000 0.0000000000 408.86914063 1.0000000000 9.0000000000 120.52636719 0.0000000000 2.5849609375 14.415039063 4.5000000000
 4907.7373047 6.0000000000 6.0187997818 -0.003176105 61.829158783 101.30987549 112.29740143 0.0000000000 0.0777003765 4.2578687668 0.7433224916 13.593569756 13.121809959 12.353879929 2.6686398983 21.712785721 16.924139023 3.2776696682 17.772333145  -999.250000 0.0000000000 412.22070313 1.0000000000 9.0000000000 115.19433594 0.0000000000 2.7373046875 14.262695313 4.5000000000
 4907.8896484 6.0000000000 6.0187997818 -0.001652827 60.516716003 100.33169556 101.76599884 0.0000000000 0.0740094706 4.7974410057 0.6942626834 18.057710648 18.119289398 19.164869308 2.6605269909 21.887720108 15.925769806 2.9680449963 18.194326401  -999.250000 0.0000000000 415.57226563 1.0000000000 9.0000000000 109.86230469 0.0000000000 2.8896484375 14.110351563 4.5000000000
 4908.0419922 6.0000000000 6.0187997818 0.0023067889 59.173629761 98.677558899 95.761466980 0.0000000000 0.0635612831 4.8949470520 0.6238898039 26.557840347 27.122949600 31.908180237 2.6828730106 21.908353806 14.103190422 2.6863079071 18.533594131  -999.250000 0.0000000000 418.29394531 1.0000000000 9.0000000000 105.79003906 0.0000000000 2.9580078125 13.958007813 4.5000000000
 4908.1943359 6.0000000000 6.0187997818 0.0009300670 58.727306366 97.579101563 96.765609741 0.0000000000 0.0549158901 5.1435980797 0.5920510292 33.562248230 34.594028473 35.843959808 2.6742138863 21.523496628 13.180700302 2.5528359413 18.655467987  -999.250000 0.0000000000 419.36035156 1.0000000000 9.0000000000 105.02832031 0.0000000000 2.8056640625 13.805664063 4.5000000000
 4908.3466797 6.0000000000 6.0187997818 -0.000378664 59.107730865 97.473419189 98.849731445 0.0000000000 0.0531958491 4.6107640266 0.5778871775 26.177179337 27.030759811 24.718860626 2.6498088837 21.138637543 13.060270309 2.7096350193 18.777343750  -999.250000 0.0000000000 420.42675781 1.0000000000 9.0000000000 104.26660156 0.0000000000 2.6533203125 13.653320313 4.5000000000
 4908.4990234 6.0000000000 6.0187997818 0.0043991809 59.994293213 97.950119019 97.877746582 0.0000000000 0.0558998734 3.6477992535 0.5643389225 21.243099213 21.824529648 21.223369598 2.6612553596 20.753780365 13.268329620 2.8549270630 18.899217606  -999.250000 0.0000000000 421.49316406 1.0000000000 9.0000000000 103.50488281 0.0000000000 2.5009765625 13.500976563 4.5000000000
 4908.6513672 6.0000000000 6.0187997818 0.0070639797 60.089614868 98.126533508 95.470520020 0.0000000000 0.0587485991 3.9292910099 0.5600000024 22.487289429 23.281059265 23.846590042 2.6807563305 20.368923187 13.290349960 2.9008500576 19.021093369  -999.250000 0.0000000000 422.55957031 1.0000000000 9.0000000000 102.74315643 0.0000000000 2.3486328125 13.348631859 4.5000000000
 4908.8037109 6.0000000000 6.0187997818 0.0037220800 59.634334564 98.204902649 95.367835999 0.0000000000 0.0595984161 4.7926497459 0.5668032169 22.667621613 23.574369431 25.937606812 2.6876721382 19.984064102 13.389980316 2.8953859806 19.142967224  -999.250000 0.0000000000 423.62597656 1.0000000000 9.0000000000 101.98143768 0.0000000000 2.1962890625 13.196288109 4.5000000000
 4908.9565430 6.0000000000 6.0187997818 0.0009007047 59.961959839 98.441886902 100.18620300 0.0000000000 0.0607603788 4.6176919937 0.5971130133 21.543989182 22.691209793 26.044969559 2.6863238811 19.597972870 14.108938217 2.9723310471 19.265233994  -999.250000 0.0000000000 424.69580078 1.0000000000 9.0000000000 101.21727753 0.0000000000 2.0434570313 13.043456078 4.5000000000
