# LAS format log file from PETREL
# Project units are specified as depth units
#==================================================================
~Version information
VERS.   2.0:
WRAP.   NO:
#==================================================================
~Well
STRT .m      4697.8823242 :
STOP .m      5330.6469727 :
STEP .m     0.00000000 :
NULL .        -999.250000 :
COMP.           : COMPANY
WELL.  Kronos 1   : WELL
FLD.            : FIELD
LOC.            : LOCATION
SRVC.           : SERVICE COMPANY
DATE.  2017-10-02 11:49:53   : Log Export Date {yyyy-MM-dd HH:mm:ss}
PROV.           : PROVINCE
UWI.   Kronos 1   : UNIQUE WELL ID
API.            : API NUMBER
#==================================================================
~Curve
DEPT .m                   : DEPTH
BIT .in                   : BIT
CAL .in                   : CAL
DRHO .g/cm3               : DRHO
DTC .us/ft                : DTC
DTS .us/ft                : DTS
GR .gAPI                  : GR
NET .m                    : NET
NPHI .m3/m3               : NPHI
PEF .b/e                  : PEF
POTA .%                   : POTA
RESD .ohm.m               : RESD
RESM .ohm.m               : RESM
RESS .ohm.m               : RESS
RHOB .g/cm3               : RHOB
ROP .m/h                  : ROP
THOR .ppm                 : THOR
URAN .ppm                 : URAN
WOB .kN                   : WOB
RFT .bar                  : RFT
IC5 .%                    : IC5
TGAS .%                   : TGAS
IC4 .%                    : IC4
C3 .%                     : C3
C1 .%                     : C1
NC5 .%                    : NC5
NC4 .%                    : NC4
C2 .%                     : C2
Casing ._                 : Casing
~Parameter
#==================================================================
~Ascii
# ...
 5197.4497070 6.0000000000 5.7268362045 0.0186604001 80.743156433 151.71188354 145.60079956 0.0000000000 0.1861473024 3.9049079418 2.5914108753 2.6345009804 2.6135709286 2.4820549488 2.6293909550 32.305957794 23.119928360 2.7506647110 14.796630859  -999.250000 0.0000000000 406.34326172 0.0000000000 8.0000000000 160.49707031 0.0000000000 2.0000000000 0.0000000000 4.5000000000
 5197.6020508 6.0000000000 5.7284436226 0.0134869404 78.787612915 146.61940002 156.80320740 0.0000000000 0.2216711044 3.9135789871 2.5421268940 3.0154259205 3.0006070137 2.8805820942 2.6358799934 30.846494675 22.454460144 2.6563529968 14.988583565  -999.250000 0.0000000000 409.84716797 0.0000000000 8.0000000000 162.02050781 0.0000000000 2.0000000000 0.0000000000 4.5000000000
 5197.7543945 6.0000000000 5.7290039063 0.0104815802 75.986557007 140.25579834 158.72019958 0.0000000000 0.2358819991 4.0971751213 2.4368910789 3.6676979065 3.9187400341 3.8533670902 2.6497042179 29.387033463 21.248710632 2.4943931103 15.180537224  -999.250000 0.0000000000 413.35107422 0.0000000000 8.0000000000 163.54394531 0.0000000000 2.0000000000 0.0000000000 4.5000000000
 5197.9067383 6.0000000000 5.7287139893 0.0082492242 73.982002258 135.26579285 156.57769775 0.0000000000 0.2314354926 4.2460689545 2.3534920216 4.2026991844 4.8033208847 4.6404681206 2.6582899094 27.927572250 20.021200180 2.3517920971 15.372489929  -999.250000 0.0000000000 416.85498047 0.0000000000 8.0000000000 165.06738281 0.0000000000 2.0000000000 0.0000000000 4.5000000000
 5198.0590820 6.0000000000 5.7310833931 0.0074078990 73.004112244 132.18780518 153.33670044 0.0000000000 0.2194201052 4.1882181168 2.2904620171 4.5719518661 5.0258259773 4.8350248337 2.6587030888 26.995353699 19.114040375 2.3872420788 15.360019684  -999.250000 0.0000000000 419.64990234 0.0000000000 8.0000000000 167.00439453 0.0000000000 2.0000000000 0.0000000000 4.5000000000
 5198.2114258 6.0000000000 5.7316732407 0.0097707333 72.982719421 131.27569580 150.14559937 0.0000000000 0.2098821700 3.8169660568 2.2318789959 4.9561572075 5.0718998909 4.8972368240 2.6557514668 26.895389557 18.861330032 2.4618020058 15.024863243  -999.250000 0.0000000000 421.32568359 0.0000000000 8.0000000000 169.59423828 0.0000000000 2.0000000000 0.0000000000 4.5000000000
 5198.3637695 6.0000000000 5.7309732437 0.0141238477 73.428100586 131.17399597 148.92810059 0.0000000000 0.1994096786 3.8127865791 2.1802899837 5.0809750557 5.1571478844 4.9821171761 2.6581971645 26.795427322 18.658439636 2.5739450455 14.689706802  -999.250000 0.0000000000 423.00146484 0.0000000000 8.0000000000 172.18408203 0.0000000000 2.0000000000 0.0000000000 4.5000000000
 5198.5161133 6.0000000000 5.7256093025 0.0133473519 73.802482605 130.51469421 148.97096252 0.0000000000 0.1934578270 3.9665684700 2.1341290474 5.1000890732 5.1824498177 4.8873405457 2.6462266445 26.695463181 18.363359451 2.7774450779 14.354550362  -999.250000 0.0000000000 424.67724609 0.0000000000 8.0000000000 174.77392578 0.0000000000 2.0000000000 0.0000000000 4.5000000000
 5198.6689453 6.0000000000 5.7172298431 0.0084721670 72.935752869 128.46627808 148.11599731 0.0000000000 0.1907220036 3.7733650208 2.0542457104 5.0202212334 5.0366010666 4.5982689857 2.6329009533 26.595180511 17.696138382 2.9567277431 14.018320084  -999.250000 0.0000000000 426.35839844 0.0000000000 8.0000000000 177.37207031 0.0000000000 2.0000000000 0.0000000000 4.5000000000
 5198.8212891 6.0000000000 5.7082943916 0.0040038000 70.748321533 124.80383301 142.18460083 0.0000000000 0.1865841001 3.9253439903 1.8415951729 5.1588411331 5.3533530235 4.6519031525 2.6388359070 26.495216370 15.806369781 2.8171839714 13.683163643  -999.250000 0.0000000000 428.03417969 0.0000000000 8.0000000000 179.96191406 0.0000000000 2.0000000000 0.0000000000 4.5000000000
 5198.9736328 6.0000000000 5.7095260620 -0.000426584 66.032432556 119.31723785 123.34049988 0.0000000000 0.1641775072 4.8840661049 1.4878330231 7.1506810188 7.8904929161 7.3171820641 2.6548080444 26.395254135 12.592709541 2.2771210670 13.348008156  -999.250000 0.0000000000 429.70996094 0.0000000000 8.0000000000 182.55175781 0.0000000000 2.0000000000 0.0000000000 4.5000000000
 5199.1259766 6.0000000000 5.7231454849 0.0018105700 60.808868408 112.71520996 97.784362793 0.0000000000 0.1011656970 5.2431230545 1.1324950457 13.531999588 14.124329567 13.433420181 2.6707789898 27.841066360 9.3232612610 1.6691110134 13.283700943  -999.250000 0.0000000000 434.03125000 0.0000000000 8.0000000000 184.76367188 0.0000000000 2.0000000000 0.0000000000 4.5000000000
 5199.2783203 6.0000000000 5.7173361778 0.0071385941 57.439590454 107.30699921 76.885116577 0.0000000000 0.0526920892 5.2199811935 0.8939980268 19.360309601 22.268239975 21.605840683 2.6907548904 29.610412598 7.5579090118 1.2698899508 13.276083946  -999.250000 0.0000000000 438.90625000 0.0000000000 8.0000000000 186.89648438 0.0000000000 2.0000000000 0.0000000000 4.5000000000
 5199.4306641 6.0000000000 5.7062697411 0.0060065300 57.172248840 105.68299866 75.435707092 0.0000000000 0.0329000615 4.7359471321 0.8614674807 19.608819962 23.228330612 24.900699615 2.6876609325 31.379760742 7.3409428596 1.1750710011 13.268466949  -999.250000 0.0000000000 443.78125000 0.0000000000 8.0000000000 189.02929688 0.0000000000 2.0000000000 0.0000000000 4.5000000000
 5199.5830078 6.0000000000 5.7041864395 0.0040107849 59.479911804 108.08489990 96.211143494 0.0000000000 0.0444390252 5.0355186462 0.9803373814 19.663009644 21.785009384 20.842090607 2.6767070293 33.149105072 8.5512609482 1.3415110111 13.260848999  -999.250000 0.0000000000 448.65625000 0.0000000000 8.0000000000 191.16210938 0.0000000000 2.0000000000 0.0000000000 4.5000000000
 5199.7353516 6.0000000000 5.7235240936 0.0065249596 63.149688721 113.62370300 120.38731384 0.0000000000 0.0807694495 5.4641308784 1.2880510092 13.101062775 14.268680573 13.174923897 2.6676857471 34.918453217 11.239939690 1.7258830070 13.253232002  -999.250000 0.0000000000 453.53125000 0.0000000000 8.0000000000 193.29492188 0.0000000000 2.0000000000 0.0000000000 4.5000000000
 5199.8876953 6.0000000000 5.7234883308 0.0097862622 66.694869995 118.89119720 138.31968689 0.0000000000 0.1391064972 4.2746014595 1.7114449739 7.6820139885 7.7838697433 7.2689967155 2.6471776962 36.687801361 14.771929741 2.2047939301 13.245615005  -999.250000 0.0000000000 458.40625000 0.0000000000 8.0000000000 195.42773438 0.0000000000 2.0000000000 0.0000000000 4.5000000000
 5200.0405273 6.0000000000 5.7236118317 0.0082420623 69.239273071 122.45925903 146.51739502 0.0000000000 0.1981398016 3.5651690960 2.0980100632 6.0650367737 5.8474569321 5.5870180130 2.6356329918 37.953567505 17.270662308 2.5073769093 13.201093674  -999.250000 0.0000000000 461.71630859 0.0000000000 8.0000000000 197.36474609 0.0000000000 2.0000000000 0.0000000000 4.5000000000
 5200.1928711 6.0000000000 5.7284111977 0.0071263439 70.658653259 125.15738678 147.81520081 0.0000000000 0.1967767030 3.4604198933 2.2323577404 5.7358980179 5.7987370491 5.5107641220 2.6422150135 37.808620453 18.690189362 2.5351450443 13.054843903  -999.250000 0.0000000000 460.64990234 0.0000000000 8.0000000000 198.73583984 0.0000000000 2.0000000000 0.0000000000 4.5000000000
 5200.3452148 6.0000000000 5.7298221588 0.0115802800 71.060203552 126.74196625 145.18220520 0.0000000000 0.1774926037 3.5712850094 2.2231829166 5.8151869774 5.9372987747 5.5956158638 2.6514658928 37.663673401 18.877189636 2.5610389709 12.908593178  -999.250000 0.0000000000 459.58349609 0.0000000000 8.0000000000 200.10693359 0.0000000000 2.0000000000 0.0000000000 4.5000000000
 5200.4975586 6.0000000000 5.7347087860 0.0105070397 71.004463196 127.32440186 142.71859741 0.0000000000 0.1692759991 3.7291150093 2.1769499779 6.1050930023 6.2728548050 5.8549838066 2.6522090435 37.518726349 18.711940765 2.4570350647 12.762343407  -999.250000 0.0000000000 458.51708984 0.0000000000 8.0000000000 201.47802734 0.0000000000 2.0000000000 0.0000000000 4.5000000000
 5200.6499023 6.0000000000 5.7340025902 0.0105999997 70.995903015 127.65180969 142.49169922 0.0000000000 0.1684852988 3.9978590012 2.1353940964 5.9308838844 6.0098838806 5.5783858299 2.6496589184 37.373783112 19.047979355 2.2786760330 12.616093636  -999.250000 0.0000000000 457.45068359 0.0000000000 8.0000000000 202.84912109 0.0000000000 2.0000000000 0.0000000000 4.5000000000
