# LAS format log file from PETREL
# Project units are specified as depth units
#==================================================================
~Version information
VERS.   2.0:
WRAP.   NO:
#==================================================================
~Well
STRT .m      4697.8823242 :
STOP .m      5330.6469727 :
STEP .m     0.00000000 :
NULL .        -999.250000 :
COMP.           : COMPANY
WELL.  Kronos 1   : WELL
FLD.            : FIELD
LOC.            : LOCATION
SRVC.           : SERVICE COMPANY
DATE.  2017-10-02 11:49:53   : Log Export Date {yyyy-MM-dd HH:mm:ss}
PROV.           : PROVINCE
UWI.   Kronos 1   : UNIQUE WELL ID
API.            : API NUMBER
#==================================================================
~Curve
DEPT .m                   : DEPTH
BIT .in                   : BIT
CAL .in                   : CAL
DRHO .g/cm3               : DRHO
DTC .us/ft                : DTC
DTS .us/ft                : DTS
GR .gAPI                  : GR
NET .m                    : NET
NPHI .m3/m3               : NPHI
PEF .b/e                  : PEF
POTA .%                   : POTA
RESD .ohm.m               : RESD
RESM .ohm.m               : RESM
RESS .ohm.m               : RESS
RHOB .g/cm3               : RHOB
ROP .m/h                  : ROP
THOR .ppm                 : THOR
URAN .ppm                 : URAN
WOB .kN                   : WOB
RFT .bar                  : RFT
IC5 .%                    : IC5
TGAS .%                   : TGAS
IC4 .%                    : IC4
C3 .%                     : C3
C1 .%                     : C1
NC5 .%                    : NC5
NC4 .%                    : NC4
C2 .%                     : C2
Casing ._                 : Casing
~Parameter
#==================================================================
~Ascii
# ...
 5113.6293945 6.0000000000 5.7564840317 0.0119501594 75.486137390 133.42210388 146.58819580 0.0000000000 0.2005536854 4.1963405609 2.1314949989 5.0473232269 5.0032210350 5.3264818192 2.6503429413 29.778074265 16.909240723 1.9909780025 16.382427216  -999.250000 0.0000000000 439.25247192 0.0000000000 9.3706054688 162.51123047 0.0000000000 3.0000000000 6.0000000000 4.5000000000
 5113.7817383 6.0000000000 5.7594375610 0.0114742471 70.704093933 125.19090271 126.45613098 0.0000000000 0.1561654657 4.0979681015 1.6151969433 9.1151971817 9.0476875305 10.684985161 2.6484498978 29.648122787 12.944020271 1.7766569853 16.249887466  -999.250000 0.0000000000 443.67044067 0.0000000000 9.2182617188 167.23388672 0.0000000000 3.0000000000 6.0000000000 4.5000000000
 5113.9340820 6.0000000000 5.7606153488 0.0070252456 65.331588745 116.58029938 100.76330566 0.0000000000 0.1088925451 4.7141056061 1.1438460350 18.887739182 18.563016891 17.224399567 2.6545293331 29.518169403 9.7741603851 1.5616240501 16.117347717  -999.250000 0.0000000000 448.08840942 0.0000000000 9.0659179688 171.95654297 0.0000000000 3.0000000000 6.0000000000 4.5000000000
 5114.0869141 6.0000000000 5.7622308731 0.0043902611 60.797233582 108.80052948 78.754417419 0.0000000000 0.0787901133 4.7058858871 0.8941878676 20.783260345 20.240909576 15.502699852 2.6664350033 31.569208145 7.9359641075 1.3707374334 16.033926010  -999.250000 0.0000000000 452.08596802 0.0000000000 9.0000000000 176.69433594 0.0000000000 3.0000000000 6.0869140625 4.5000000000
 5114.2392578 6.0000000000 5.7614951134 0.0060816468 57.649620056 102.95034790 66.516098022 0.0000000000 0.0609573498 4.8893809319 0.7222217321 26.337720871 28.632959366 25.907489777 2.6778700352 35.262844086 6.9831509590 1.2784483433 15.988222122  -999.250000 0.0000000000 455.74221802 0.0000000000 9.0000000000 181.41699219 0.0000000000 3.0000000000 6.2392578125 4.5000000000
 5114.3916016 6.0000000000 5.7657880783 0.0087757995 55.548671722 98.816673279 57.486629486 0.0000000000 0.0463998802 4.9638571739 0.5946828723 31.045490265 57.981861115 48.064098358 2.6945068836 38.956481934 6.3310828209 1.2579640150 15.942519188  -999.250000 0.0000000000 459.39846802 0.0000000000 9.0000000000 186.13964844 0.0000000000 3.0000000000 6.3916015625 4.5000000000
 5114.5439453 6.0000000000 5.7724270821 0.0044905730 54.578540802 96.561447144 52.674289703 0.0000000000 0.0365796909 5.5080041885 0.5556693077 34.120159149 59.089099884 64.435157776 2.6959319115 42.650119781 6.0990700722 1.3567240238 15.896816254  -999.250000 0.0000000000 463.05468750 0.0000000000 9.0000000000 190.86228943 0.0000000000 3.0000000000 6.5439453125 4.5000000000
 5114.6962891 6.0000000000 5.7892689705 0.0018924080 55.351718903 96.594093323 55.447948456 0.0000000000 0.0334814787 5.1570291519 0.6593083143 52.041309357 70.343292236 66.479728699 2.6795799732 46.343753815 7.3396091461 1.5983589888 15.851113319  -999.250000 0.0000000000 466.71093750 0.0000000000 9.0000000000 195.58494568 0.0000000000 3.0000000000 6.6962890625 4.5000000000
 5114.8486328 6.0000000000 5.7951574326 0.0032703120 57.348800659 98.290443420 65.012496948 0.0000000000 0.0374276936 4.4923143387 0.7409374118 36.472061157 35.239910126 35.564010620 2.6675894260 50.037391663 9.3612403870 2.0034139156 15.805410385  -999.250000 0.0000000000 470.36718750 0.0000000000 9.0000000000 200.30760193 0.0000000000 3.0000000000 6.8486328125 4.5000000000
 5115.0009766 6.0000000000 5.7977786064 0.0041945945 59.414916992 101.33020020 76.442123413 0.0000000000 0.0486297123 3.6666829586 0.9393751025 21.838439941 23.385370255 23.031059265 2.6725988388 53.721031189 11.661870003 2.1996240616 15.760908127  -999.250000 0.0000000000 473.99414063 0.0000000000 9.0000000000 205.01170349 0.0000000000 3.0000000000 7.0000000000 4.5000000000
 5115.1533203 6.0000000000 5.8115487099 0.0010152725 61.114841461 104.44650269 87.622161865 0.0000000000 0.0643365681 3.2819874287 1.0583859682 16.949708939 18.092903137 17.199142456 2.6649127007 55.855243683 12.933569908 2.3524858952 15.902587891  -999.250000 0.0000000000 473.08007813 0.0000000000 9.0000000000 206.83982849 0.0000000000 3.0000000000 7.0000000000 4.5000000000
 5115.3061523 6.0000000000 5.8373551369 -0.002165026 62.362850189 107.38394165 97.343856812 0.0000000000 0.0827558264 3.0073249340 1.1130287647 15.038610458 16.116439819 15.821849823 2.6660370827 57.996295929 13.924085617 2.2206933498 16.044721603  -999.250000 0.0000000000 472.16308594 0.0000000000 9.0000000000 208.67381287 0.0000000000 3.0000000000 7.0000000000 4.5000000000
 5115.4584961 6.0000000000 5.8562760353 -0.002698900 63.597660065 110.36074066 105.90059662 0.0000000000 0.0979969203 3.0040380955 1.2325918674 13.669509888 13.889149666 12.877610207 2.6699640751 60.130508423 14.764971733 2.1299576759 16.186401367  -999.250000 0.0000000000 471.24902344 0.0000000000 9.0000000000 210.50193787 0.0000000000 3.0000000000 7.0000000000 4.5000000000
 5115.6108398 6.0000000000 5.8556590080 -0.004557038 64.466278076 112.77832794 113.05359650 0.0000000000 0.1090221033 3.0751910210 1.3919730186 12.606840134 12.297340393 10.634570122 2.6679220200 62.264720917 15.551670074 2.0187749863 16.328081131  -999.250000 0.0000000000 470.33496094 0.0000000000 9.0000000000 212.33007813 0.0000000000 3.0000000000 7.0000000000 4.5000000000
 5115.7631836 6.0000000000 5.8547711372 -0.003224931 64.992683411 115.50050354 118.33190155 0.0000000000 0.1163820997 3.1962161064 1.5721009970 12.432229996 11.946430206 11.003060341 2.6677119732 64.398933411 16.395820618 1.7969889641 16.469760895  -999.250000 0.0000000000 469.42089844 0.0000000000 9.0000000000 214.15820313 0.0000000000 3.0000000000 7.0000000000 4.5000000000
 5115.9155273 6.0000000000 5.8550209999 -0.001818393 65.861198425 119.13959503 122.20909882 0.0000000000 0.1210092977 3.1984450817 1.6745860577 12.370019913 11.685050011 11.077480316 2.6718192101 66.533142090 16.772689819 1.7316570282 16.611440659  -999.250000 0.0000000000 468.50683594 0.0000000000 9.0000000000 215.98632813 0.0000000000 3.0000000000 7.0000000000 4.5000000000
 5116.0678711 6.0000000000 5.8571848869 -0.007719824 67.525840759 123.44979858 127.19460297 0.0000000000 0.1271239072 3.2454319000 1.8110389709 10.255160332 10.330360413 10.345159531 2.6688349247 66.010856628 17.557910919 1.8725049496 16.746334076  -999.250000 0.0000000000 466.43896484 0.0000000000 9.0000000000 215.57470703 0.0000000000 3.0000000000 6.8642578125 4.5000000000
 5116.2202148 6.0000000000 5.8531918526 -0.007714922 69.636917114 128.25920105 135.66270447 0.0000000000 0.1413515955 3.4487781525 1.9680960178 8.0601463318 8.6197710037 8.0654029846 2.6669850349 62.182266235 19.036039352 2.1516509056 16.872777939  -999.250000 0.0000000000 462.93505859 0.0000000000 9.0000000000 212.37548828 0.0000000000 3.0000000000 6.5595703125 4.5000000000
 5116.3725586 6.0000000000 5.8537778854 -0.004110053 71.806640625 132.88330078 144.85809326 0.0000000000 0.1661445349 3.6108579636 2.1723880768 6.0564470291 6.4601697922 5.7664074898 2.6646482944 58.353679657 20.361230850 2.4040598869 16.999223709  -999.250000 0.0000000000 459.43115234 0.0000000000 9.0000000000 209.17626953 0.0000000000 3.0000000000 6.2548828125 4.5000000000
 5116.5249023 6.0000000000 5.8416042328 -0.007988093 73.532638550 136.20159912 151.42486572 0.0000000000 0.1927633584 3.4296293259 2.3179879189 4.8858981133 5.1613020897 4.9938545227 2.6584696770 54.525093079 21.019569397 2.4475901127 17.125669479  -999.250000 0.0000000000 455.92724609 0.0000000000 9.0000000000 205.97706604 0.0000000000 3.0000000000 5.9501953125 4.5000000000
 5116.6777344 6.0000000000 5.8229832649 -0.009255850 74.493743896 137.58857727 154.60890198 0.0000000000 0.2093863040 3.2004630566 2.3399846554 5.0860939026 5.2423639297 5.0300598145 2.6588830948 50.684234619 21.150144577 2.4292240143 17.252519608  -999.250000 0.0000000000 452.41210938 0.0000000000 9.0000000000 202.76759338 0.0000000000 3.0000000000 5.6445312500 4.5000000000
 5116.8300781 6.0000000000 5.8082861900 -0.009041622 74.710662842 137.33074951 155.24839783 0.0000000000 0.2132426947 3.1988909245 2.3351728916 5.1643619537 5.3055300713 5.0559668541 2.6630759239 46.855648041 20.731979370 2.4650626183 17.378965378  -999.250000 0.0000000000 448.90820313 0.0000000000 9.0000000000 199.56837463 0.0000000000 3.0000000000 5.3398437500 4.5000000000
