# LAS format log file from PETREL
# Project units are specified as depth units
#==================================================================
~Version information
VERS.   2.0:
WRAP.   NO:
#==================================================================
~Well
STRT .m      4697.8823242 :
STOP .m      5330.6469727 :
STEP .m     0.00000000 :
NULL .        -999.250000 :
COMP.           : COMPANY
WELL.  Kronos 1   : WELL
FLD.            : FIELD
LOC.            : LOCATION
SRVC.           : SERVICE COMPANY
DATE.  2017-10-02 11:49:53   : Log Export Date {yyyy-MM-dd HH:mm:ss}
PROV.           : PROVINCE
UWI.   Kronos 1   : UNIQUE WELL ID
API.            : API NUMBER
#==================================================================
~Curve
DEPT .m                   : DEPTH
BIT .in                   : BIT
CAL .in                   : CAL
DRHO .g/cm3               : DRHO
DTC .us/ft                : DTC
DTS .us/ft                : DTS
GR .gAPI                  : GR
NET .m                    : NET
NPHI .m3/m3               : NPHI
PEF .b/e                  : PEF
POTA .%                   : POTA
RESD .ohm.m               : RESD
RESM .ohm.m               : RESM
RESS .ohm.m               : RESS
RHOB .g/cm3               : RHOB
ROP .m/h                  : ROP
THOR .ppm                 : THOR
URAN .ppm                 : URAN
WOB .kN                   : WOB
RFT .bar                  : RFT
IC5 .%                    : IC5
TGAS .%                   : TGAS
IC4 .%                    : IC4
C3 .%                     : C3
C1 .%                     : C1
NC5 .%                    : NC5
NC4 .%                    : NC4
C2 .%                     : C2
Casing ._                 : Casing
~Parameter
#==================================================================
~Ascii
# ...
 4989.5756836 6.0000000000 6.0872445107 -0.004687434 66.128746033 119.58070374 41.382900238 0.0000000000 0.2210330963 4.9676585197 1.2023400068 47.672382355 35.591888428 28.420186996 2.6346006393 26.049869537 2.8616039753 0.3748734891 14.044887543  -999.250000 0.0000000000 970.62744141 0.0000000000 7.8486328125 816.45605469 0.0000000000 2.0000000000 0.0000000000 4.5000000000
 4989.7285156 6.0000000000 6.0912194252 -0.002071615 66.515289307 120.10896301 41.566211700 0.0000000000 0.2166558057 5.0235610008 1.2013813257 48.091098785 35.701271057 28.179500580 2.6367731094 26.049869537 2.8645663261 0.4209675193 13.963886261  -999.250000 0.0000000000 926.45898438 0.0000000000 7.5429687500 750.73828125 0.0000000000 2.0000000000 0.0000000000 4.5000000000
 4989.8808594 6.0000000000 6.0429182053 0.0029787079 65.981849670 119.40721893 41.865089417 0.0000000000 0.2078544945 4.2525272369 1.2071676254 51.351200104 38.166530609 30.517309189 2.6463389397 26.049869537 2.9129106998 0.4224938750 13.883144379  -999.250000 0.0000000000 882.43164063 0.0000000000 7.2382812500 685.23046875 0.0000000000 2.0000000000 0.0000000000 4.5000000000
 4990.0332031 6.0000000000 6.0234661102 0.0074193450 65.028152466 117.66529846 42.039569855 0.0000000000 0.1985653043 4.8294959068 1.2326489687 56.549629211 42.263599396 34.473709106 2.6576180458 26.086906433 2.9408919811 0.3842638135 13.795761108  -999.250000 0.0000000000 843.25195313 0.0000000000 7.0000000000 629.61718750 0.0000000000 2.0000000000 0.0000000000 4.5000000000
 4990.1855469 6.0000000000 6.0094809532 0.0120404502 64.521186829 115.59829712 42.090709686 0.0000000000 0.1911886036 3.8852519989 1.2505530119 53.329391479 40.020900726 32.669639587 2.6717510223 26.256843567 2.9588930607 0.4250000119 13.684550285  -999.250000 0.0000000000 821.46679688 0.0000000000 7.0000000000 609.50781250 0.0000000000 2.0000000000 0.0000000000 4.5000000000
 4990.3378906 6.0000000000 5.9480581284 0.0101529201 64.487846375 114.02380371 42.452960968 0.0000000000 0.1866803020 5.1922588348 1.2750790119 44.616699219 32.618938446 26.930070877 2.6798360348 26.426780701 2.9868760109 0.4791795015 13.573339462  -999.250000 0.0000000000 799.68164063 0.0000000000 7.0000000000 589.39843750 0.0000000000 2.0000000000 0.0000000000 4.5000000000
 4990.4902344 6.0000000000 5.9112577438 -0.001194926 64.506736755 112.48629761 42.935279846 0.0000000000 0.1862665266 4.9566483498 1.3287190199 44.544830322 32.096359253 27.545150757 2.6631493568 26.596717834 3.0269050598 0.4719260931 13.462128639  -999.250000 0.0000000000 777.89648438 0.0000000000 7.0000000000 569.28906250 0.0000000000 2.0000000000 0.0000000000 4.5000000000
 4990.6425781 6.0000000000 5.9106030464 -0.004110374 64.209083557 109.57980347 42.676460266 0.0000000000 0.1889096946 5.3598771095 1.3499310017 43.723579407 33.403141022 28.649580002 2.6065707207 26.766654968 2.9352788925 0.4513454139 13.350917816  -999.250000 0.0000000000 756.11132813 0.0000000000 7.0000000000 549.17968750 0.0000000000 2.0000000000 0.0000000000 4.5000000000
 4990.7949219 6.0000000000 5.9194049835 0.0290807653 64.007148743 105.81450653 40.915740967 0.0000000000 0.1930819154 13.093078613 1.3124010563 37.068443298 29.826732635 24.582197189 2.5769903660 26.936592102 2.6717140675 0.4439099133 13.239706993  -999.250000 0.0000000000 734.32617188 0.0000000000 7.0000000000 529.07031250 0.0000000000 2.0000000000 0.0000000000 4.5000000000
 4990.9477539 6.0000000000 5.9586992264 0.0605996996 65.239250183 108.97499847 38.912818909 0.0000000000 0.1988265067 4.2112531662 1.2534542084 33.457679749 28.411420822 24.898359299 2.6484470367 27.107074738 2.5225582123 0.4147667587 13.128139496  -999.250000 0.0000000000 712.47119141 0.0000000000 7.0000000000 508.89648438 0.0000000000 2.0000000000 0.0000000000 4.5000000000
 4991.1000977 6.0000000000 5.8926000595 0.0078557106 67.305458069 121.75687408 38.381290436 0.0000000000 0.2055478990 3.9542000294 1.2492183447 33.770229340 30.564809799 27.739849091 2.6854600906 27.602130890 2.4287991524 0.3688323796 13.152060509  -999.250000 0.0000000000 688.48388672 0.0000000000 7.0000000000 488.18652344 0.0000000000 2.0000000000 0.0000000000 4.5000000000
 4991.2524414 6.0000000000 5.8819317818 -0.000645095 68.543403625 131.26062012 39.582340240 0.0000000000 0.2094047964 3.7542290688 1.3597500324 34.575141907 29.154659271 23.970779419 2.6580729485 28.266885757 2.5495710373 0.2862072885 13.246513367  -999.250000 0.0000000000 663.34716797 0.0000000000 7.0000000000 467.16308594 0.0000000000 2.0000000000 0.0000000000 4.5000000000
 4991.4047852 6.0000000000 5.8806314468 0.0003874986 67.689796448 130.33250427 41.819580078 0.0000000000 0.2112044990 5.1084790230 1.4617160559 38.069358826 25.974159241 20.653949738 2.6504390240 28.931640625 2.7914819717 0.1897450984 13.340967178  -999.250000 0.0000000000 638.21044922 0.0000000000 7.0000000000 446.13964844 0.0000000000 2.0000000000 0.0000000000 4.5000000000
 4991.5571289 6.0000000000 5.9146552086 -0.000562967 66.155509949 122.21990204 43.550331116 0.0000000000 0.2134708017 6.7397408485 1.5232269764 36.609348297 23.330879211 18.429260254 2.6507289410 29.596395493 2.7999210358 0.1996909976 13.435420036  -999.250000 0.0000000000 613.07373047 0.0000000000 7.0000000000 425.11621094 0.0000000000 2.0000000000 0.0000000000 4.5000000000
 4991.7094727 6.0000000000 5.9578981400 -0.002929505 65.846572876 119.25469971 44.112998962 0.0000000000 0.2119126022 4.8462882042 1.5240319967 31.558149338 20.975160599 17.025890350 2.6311490536 30.261148453 2.6578609943 0.2064175010 13.529872894  -999.250000 0.0000000000 587.93701172 0.0000000000 7.0000000000 404.09277344 0.0000000000 2.0000000000 0.0000000000 4.5000000000
 4991.8618164 6.0000000000 6.0142073631 -0.005176315 66.507041931 119.35050201 42.574329376 0.0000000000 0.2040450126 4.7606635094 1.5220869780 29.157379150 22.832700729 19.055280685 2.6094722748 30.925903320 2.4913659096 0.1631948948 13.624325752  -999.250000 0.0000000000 562.80029297 0.0000000000 7.0000000000 383.06933594 0.0000000000 2.0000000000 0.0000000000 4.5000000000
 4992.0141602 6.0000000000 6.0408415794 -0.000633743 68.048469543 120.23870850 39.413990021 0.0000000000 0.1946581006 5.5407886505 1.4645379782 33.631011963 28.842508316 25.219364166 2.6000232697 31.947448730 2.3717389107 0.1010491997 13.707026482  -999.250000 0.0000000000 539.61767578 0.0000000000 7.0000000000 362.64062500 0.0000000000 2.0000000000 0.0000000000 4.5000000000
 4992.1665039 6.0000000000 6.0932188034 -0.001199988 69.581039429 122.57959747 36.334300995 0.0000000000 0.1860640347 6.2591872215 1.3528339863 40.684944153 33.505477905 30.764951706 2.6100227833 36.450786591 2.2595961094 0.0955012068 13.675034523  -999.250000 0.0000000000 535.50439453 0.0000000000 7.0000000000 348.01562500 0.0000000000 2.0000000000 0.0000000000 4.5000000000
 4992.3193359 6.0000000000 6.1013178825 -0.007148922 71.328559875 125.24481201 35.119480133 0.0000000000 0.1799229980 5.4572510719 1.2738448381 44.086780548 33.343048096 33.451919556 2.6209480762 40.968559265 2.1950733662 0.0759187117 13.642939568  -999.250000 0.0000000000 531.37792969 0.0000000000 7.0000000000 333.34375000 0.0000000000 2.0000000000 0.0000000000 4.5000000000
 4992.4716797 6.0000000000 6.0801229477 -0.010863770 72.663230896 125.67811584 35.838310242 0.0000000000 0.1775887012 5.2329821587 1.2367998362 41.807949066 31.375589371 32.518131256 2.6227209568 45.471897125 2.2348875999 0.0694048181 13.610947609  -999.250000 0.0000000000 527.26464844 0.0000000000 7.0000000000 318.71875000 0.0000000000 2.0000000000 0.0000000000 4.5000000000
 4992.6240234 6.0000000000 6.0833501816 0.0018319570 71.809028625 123.84450531 36.719100952 0.0000000000 0.1786489040 6.2501277924 1.2476429939 35.151439667 27.655319214 28.196329117 2.6443209648 49.975234985 2.3090500832 0.0758841708 13.578954697  -999.250000 0.0000000000 523.15136719 0.0000000000 7.0000000000 304.09375000 0.0000000000 2.0000000000 0.0000000000 4.5000000000
 4992.7763672 6.0000000000 6.1578650475 0.0036474359 68.163932800 122.19360352 36.887310028 0.0000000000 0.1798859984 6.0774769783 1.2704390287 35.605941772 27.532459259 28.756170273 2.6586139202 54.478572845 2.4033269882 0.0077199540 13.546962738  -999.250000 0.0000000000 519.03808594 0.0000000000 7.0000000000 289.46875000 0.0000000000 2.0000000000 0.0000000000 4.5000000000
