# LAS format log file from PETREL
# Project units are specified as depth units
#==================================================================
~Version information
VERS.   2.0:
WRAP.   NO:
#==================================================================
~Well
STRT .m      4697.8823242 :
STOP .m      5330.6469727 :
STEP .m     0.00000000 :
NULL .        -999.250000 :
COMP.           : COMPANY
WELL.  Kronos 1   : WELL
FLD.            : FIELD
LOC.            : LOCATION
SRVC.           : SERVICE COMPANY
DATE.  2017-10-02 11:49:53   : Log Export Date {yyyy-MM-dd HH:mm:ss}
PROV.           : PROVINCE
UWI.   Kronos 1   : UNIQUE WELL ID
API.            : API NUMBER
#==================================================================
~Curve
DEPT .m                   : DEPTH
BIT .in                   : BIT
CAL .in                   : CAL
DRHO .g/cm3               : DRHO
DTC .us/ft                : DTC
DTS .us/ft                : DTS
GR .gAPI                  : GR
NET .m                    : NET
NPHI .m3/m3               : NPHI
PEF .b/e                  : PEF
POTA .%                   : POTA
RESD .ohm.m               : RESD
RESM .ohm.m               : RESM
RESS .ohm.m               : RESS
RHOB .g/cm3               : RHOB
ROP .m/h                  : ROP
THOR .ppm                 : THOR
URAN .ppm                 : URAN
WOB .kN                   : WOB
RFT .bar                  : RFT
IC5 .%                    : IC5
TGAS .%                   : TGAS
IC4 .%                    : IC4
C3 .%                     : C3
C1 .%                     : C1
NC5 .%                    : NC5
NC4 .%                    : NC4
C2 .%                     : C2
Casing ._                 : Casing
~Parameter
#==================================================================
~Ascii
# ...
 4945.9897461 6.0000000000 6.0187997818 -0.000456629 61.930530548 103.80763245 89.900909424 0.0000000000 0.0685460567 3.1280078888 0.9741653800 18.013000488 18.446050644 19.527339935 2.6511969566 22.031930923 12.226245880 1.8164489269 16.819698334  -999.250000 0.0000000000 526.96923828 1.0000000000 16.000000000 169.00000000 0.0000000000 4.0000000000 10.958984375 4.5000000000
 4946.1420898 6.0000000000 6.0187997818 0.0035355431 61.795330048 104.53685760 90.209533691 0.0000000000 0.0681301728 3.4801099300 0.9439616203 15.393039703 16.116090775 16.952239990 2.6656548977 23.450252533 12.152926445 1.8347505331 16.285850525  -999.250000 0.0000000000 539.36181641 1.0000000000 16.142089844 179.08837891 0.0000000000 4.0000000000 10.289550781 4.5000000000
 4946.2944336 6.0000000000 6.0187997818 0.0064166398 62.769969940 105.83515167 95.441947937 0.0000000000 0.0722774267 3.4574310780 0.9664081931 13.397529602 13.968090057 14.569239616 2.6689529419 24.989685059 12.969369888 1.8296240568 15.691708565  -999.250000 0.0000000000 552.61572266 1.0000000000 16.294433594 189.90478516 0.0000000000 4.0000000000 9.5278320313 4.5000000000
 4946.4467773 6.0000000000 6.0187997818 0.0082718059 64.202026367 107.28649902 105.07050323 0.0000000000 0.0803151876 3.2364499569 1.0499999523 14.007049561 14.683899879 14.818550110 2.6656310558 26.529115677 14.596429825 1.9256060123 15.097568512  -999.250000 0.0000000000 565.86962891 1.0000000000 16.446777344 200.72119141 0.0000000000 4.0000000000 8.7661132813 4.5000000000
 4946.5991211 6.0000000000 6.0187997818 0.0034826461 65.341400146 107.49971008 113.10679626 0.0000000000 0.0909895375 3.3621180058 1.1543389559 11.053739548 11.671290398 10.774470329 2.6614680290 28.068546295 16.306760788 2.1560559273 14.503427505  -999.250000 0.0000000000 579.12353516 1.0000000000 16.599121094 211.53761292 0.0000000000 4.0000000000 8.0043945313 4.5000000000
 4946.7514648 6.0000000000 6.0187997818 0.0001017431 65.444602966 105.87500000 112.21109772 0.0000000000 0.0991822332 3.4338240623 1.2033669949 8.6738481522 9.0052137375 8.3494882584 2.6611530781 29.607978821 17.265020370 2.2937190533 13.909286499  -999.250000 0.0000000000 592.37744141 1.0000000000 16.751464844 222.35401917 0.0000000000 4.0000000000 7.2426757813 4.5000000000
 4946.9038086 6.0000000000 6.0187997818 0.0013190410 63.684925079 103.53549957 100.40139771 0.0000000000 0.0978006124 2.8908033371 1.0900000334 10.004380226 10.210630417 11.651960373 2.6618866920 31.147409439 15.844670296 2.1864600182 13.315146446  -999.250000 0.0000000000 605.63134766 1.0000000000 16.903808594 233.17042542 0.0000000000 4.0000000000 6.4809570313 4.5000000000
 4947.0561523 6.0000000000 6.0187997818 -0.002304720 61.714904785 101.58399963 86.929924011 0.0000000000 0.0860477313 2.7466170788 0.9261649847 16.052774429 16.138988495 19.230499268 2.6586234570 31.454364777 13.643670082 1.8967679739 13.210654259  -999.250000 0.0000000000 609.33935547 1.0000000000 16.943847656 237.47315979 0.0000000000 4.0000000000 6.1684570313 4.5000000000
 4947.2084961 6.0000000000 6.0187997818 -0.007239983 60.864692688 101.01480103 81.337532043 0.0000000000 0.0736364797 3.2616405487 0.8304957747 20.897823334 20.632064819 20.517629623 2.6528782845 29.650030136 12.274419785 1.6482449770 13.944951057  -999.250000 0.0000000000 596.69482422 1.0000000000 16.791503906 230.61769104 0.0000000000 4.0000000000 6.6254882813 4.5000000000
 4947.3613281 6.0000000000 6.0187997818 -0.007952930 61.230659485 102.34842682 82.204002380 0.0000000000 0.0675474778 3.6622800827 0.8224735856 19.273290634 19.476949692 17.285579681 2.6465201378 27.839912415 11.865930557 1.5574913025 14.681601524  -999.250000 0.0000000000 584.00976563 1.0000000000 16.638671875 223.74024963 0.0000000000 4.0000000000 7.0839843750 4.5000000000
 4947.5136719 6.0000000000 6.0187997818 -0.007380027 62.336418152 105.23100281 83.544517517 0.0000000000 0.0669805035 3.5707280636 0.8526169062 19.374679565 20.157749176 19.792690277 2.6485939026 26.035579681 11.867277145 1.5825200081 15.415898323  -999.250000 0.0000000000 571.36523438 1.0000000000 16.486328125 216.88476563 0.0000000000 4.0000000000 7.5410156250 4.5000000000
 4947.6660156 6.0000000000 6.0187997818 -0.008894171 63.860649109 109.72882080 85.357353210 0.0000000000 0.0691540018 3.8499290943 0.9191023111 19.942840576 21.116899490 21.170719147 2.6587290764 24.231245041 12.197010040 1.6963989735 16.150196075  -999.250000 0.0000000000 558.72070313 1.0000000000 16.333984375 210.02929688 0.0000000000 4.0000000000 7.9980468750 4.5000000000
 4947.8183594 6.0000000000 6.0187997818 -0.009834236 66.223617554 115.66290283 93.644950867 0.0000000000 0.0754020363 4.2279682159 1.0817400217 15.206359863 15.983440399 15.976030350 2.6663041115 22.426912308 13.598210335 2.0400819778 16.884492874  -999.250000 0.0000000000 546.07617188 1.0000000000 16.181640625 203.17382813 0.0000000000 4.0000000000 8.4550781250 4.5000000000
 4947.9707031 6.0000000000 6.0187997818 -0.009593826 69.494537354 121.35459900 111.19889832 0.0000000000 0.0920542330 3.6882059574 1.3350939751 9.5564680099 10.178000450 10.553700447 2.6636838913 20.622577667 16.189170837 2.5663700104 17.618789673  -999.250000 0.0000000000 533.43164063 1.0000000000 16.029296875 196.31835938 0.0000000000 4.0000000000 8.9121093750 4.5000000000
 4948.1230469 6.0000000000 6.0187997818 -0.009837152 72.402893066 124.37539673 132.51010132 0.0000000000 0.1219828725 3.2515594959 1.5977040529 6.4515209198 7.1479721069 7.1447391510 2.6489872932 21.175834656 18.828050613 3.0373449326 17.662792206  -999.250000 0.0000000000 537.39843750 1.0000000000 16.000000000 198.19921875 0.0000000000 4.0000000000 8.8769531250 4.5000000000
 4948.2753906 6.0000000000 6.0187997818 -0.008663615 73.125068665 123.83989716 148.88929749 0.0000000000 0.1538270116 3.3343572617 1.7930929661 4.9532098770 5.3265810013 5.1231532097 2.6297216415 22.290424347 20.630149841 3.2091150284 17.542442322  -999.250000 0.0000000000 545.32031250 1.0000000000 16.000000000 202.16015625 0.0000000000 4.0000000000 8.7246093750 4.5000000000
 4948.4277344 6.0000000000 6.0187997818 -0.008548548 71.726844788 120.80699921 155.22718811 0.0000000000 0.1670383513 3.3250367641 1.8533229828 4.4761071205 4.6438460350 4.7316956520 2.6120276451 23.405012131 21.111509323 3.0878911018 17.422090530  -999.250000 0.0000000000 553.24218750 1.0000000000 16.000000000 206.12109375 0.0000000000 4.0000000000 8.5722656250 4.5000000000
 4948.5805664 6.0000000000 6.0187997818 -0.009103488 69.823776245 116.66538239 152.76739502 0.0000000000 0.1568455994 3.4488890171 1.7895499468 5.0448679924 5.3591198921 6.2757787704 2.6023049355 24.523172379 20.461418152 2.9326965809 17.301351547  -999.250000 0.0000000000 561.18945313 1.0000000000 16.000000000 210.09472656 0.0000000000 4.0000000000 8.4194335938 4.5000000000
 4948.7329102 6.0000000000 6.0187997818 -0.005593735 68.388343811 112.38651276 147.43099976 0.0000000000 0.1394757032 3.4985330105 1.7144935131 6.2493891716 6.8892989159 8.4029569626 2.6076660156 25.637762070 19.732610703 2.8659462929 17.180999756  -999.250000 0.0000000000 569.11132813 1.0000000000 16.000000000 214.05566406 0.0000000000 4.0000000000 8.2670898438 4.5000000000
 4948.8852539 6.0000000000 6.0187997818 -0.000147373 67.278228760 108.61831665 144.50959778 0.0000000000 0.1282286942 3.3124599457 1.6799999475 6.8679847717 7.6741781235 8.1299104691 2.6226880550 26.752349854 19.633230209 2.8482649326 17.060647964  -999.250000 0.0000000000 577.03320313 1.0000000000 16.000000000 218.01660156 0.0000000000 4.0000000000 8.1147460938 4.5000000000
 4949.0375977 6.0000000000 6.0187997818 0.0012761430 66.095741272 105.78289795 142.62570190 0.0000000000 0.1224797964 3.4147350788 1.6217410564 6.9329152107 7.5395569801 7.3516650200 2.6289780140 27.690546036 19.314800262 2.8180840015 16.966615677  -999.250000 0.0000000000 577.32275391 1.0000000000 15.812011719 218.21777344 0.0000000000 3.9624023438 7.9248046875 4.5000000000
 4949.1899414 6.0000000000 6.0187997818 -0.002028181 64.605178833 103.81069946 134.78799438 0.0000000000 0.1156909019 3.5552489758 1.4351179600 9.9630908966 10.675250053 11.184720039 2.6137690544 28.090396881 17.399330139 2.4961540699 16.952903748  -999.250000 0.0000000000 554.31884766 1.0000000000 15.050292969 206.94433594 0.0000000000 3.8100585938 7.6201171875 4.5000000000
