# LAS format log file from PETREL
# Project units are specified as depth units
#==================================================================
~Version information
VERS.   2.0:
WRAP.   NO:
#==================================================================
~Well
STRT .m      4042.1052246 :
STOP .m      5226.7104492 :
STEP .m     0.00000000 :
NULL .        -999.250000 :
COMP.           : COMPANY
WELL.  Pharos 1   : WELL
FLD.            : FIELD
LOC.            : LOCATION
SRVC.           : SERVICE COMPANY
DATE.  2017-10-02 11:49:48   : Log Export Date {yyyy-MM-dd HH:mm:ss}
PROV.           : PROVINCE
UWI.   Pharos 1   : UNIQUE WELL ID
API.            : API NUMBER
#==================================================================
~Curve
DEPT .m                   : DEPTH
CAL .in                   : CAL
DRHO .g/cm3               : DRHO
DTC .us/ft                : DTC
DTS .us/ft                : DTS
GR .gAPI                  : GR
NPHI .m3/m3               : NPHI
PEF .b/e                  : PEF
POTA .%                   : POTA
RESD .ohm.m               : RESD
RESM .ohm.m               : RESM
RHOB .g/cm3               : RHOB
RT .ohm.m                 : RT
RXO .ohm.m                : RXO
THOR .ppm                 : THOR
URAN .ppm                 : URAN
Casing ._                 : Casing
Core ._                   : Core
MDTPoints ._              : MDT Points
SWC ._                    : SWC
~Parameter
#==================================================================
~Ascii
# ...
 4344.4667969 8.4254703522 -0.022437889 96.079551697 191.44729614 94.847808838 0.2721809149 8.7495002747 1.5240000486 0.9501358271 0.9431592822 2.5350880623  -999.250000  -999.250000 13.152199745 2.9507999420 7.5799999237  -999.250000  -999.250000  -999.250000
 4344.6191406 8.4261255264 -0.022016689 95.281852722 190.29899597 92.982162476 0.2706233859 8.7017126083 1.4575999975 0.9554923773 0.9538918734 2.5443720818  -999.250000  -999.250000 12.701600075 2.9997000694 7.5799999237  -999.250000  -999.250000  -999.250000
 4344.7714844 8.4280481339 -0.026246769 95.110420227 190.32389832 89.669349670 0.2717632055 8.7717742920 1.3966000080 1.0096460581 0.9713928103 2.5492360592  -999.250000  -999.250000 11.625900269 3.1117000580 7.5799999237  -999.250000  -999.250000  -999.250000
 4344.9238281 8.4262266159 -0.027585819 95.463256836 189.03469849 88.379806519 0.2693553865 8.8286275864 1.3818999529 0.9595860839 0.9646496773 2.5466530323  -999.250000  -999.250000 11.559599876 3.1084001064 7.5799999237  -999.250000  -999.250000  -999.250000
 4345.0761719 8.4345474243 -0.029309999 96.210853577 188.86059570 87.791816711 0.2645471096 9.0017585754 1.4292999506 0.9443703890 0.9652702808 2.5358240604  -999.250000  -999.250000 10.617899895 3.1881000996 7.5799999237  -999.250000  -999.250000  -999.250000
 4345.2290039 8.4130105972 -0.025229501 96.759803772 189.36650085 89.506088257 0.2602441907 9.0230808258 1.4615999460 1.0159039497 0.9768589735 2.5196061134  -999.250000  -999.250000 11.074299812 3.2772998810 7.5799999237  -999.250000  -999.250000  -999.250000
 4345.3813477 8.4028253555 -0.023093861 96.751518250 190.13600159 89.338989258 0.2644057870 8.9757747650 1.4598000050 0.9981867075 0.9535648823 2.5125958920  -999.250000  -999.250000 11.222299576 3.0404999256 7.5799999237  -999.250000  -999.250000  -999.250000
 4345.5336914 8.3918161392 -0.021856541 96.655746460 190.60830688 89.908416748 0.2681975961 8.8051853180 1.5281000137 1.0040320158 0.9503204823 2.5129647255  -999.250000  -999.250000 11.230999947 2.9712998867 7.5799999237  -999.250000  -999.250000  -999.250000
 4345.6860352 8.3830261230 -0.019429810 96.543800354 190.09820557 89.583030701 0.2687397897 8.6576662064 1.5168999434 1.0044469833 0.9732457995 2.5174078941  -999.250000  -999.250000 11.225399971 2.8694999218 7.5799999237  -999.250000  -999.250000  -999.250000
 4345.8383789 8.3851518631 -0.017491881 96.265701294 189.11010742 90.850906372 0.2591621876 8.5719738007 1.5476000309 0.9539129734 0.9541261196 2.5252432823  -999.250000  -999.250000 11.750499725 2.9282999039 7.5799999237  -999.250000  -999.250000  -999.250000
 4345.9907227 8.3837480545 -0.015192960 96.353683472 189.77529907 90.836212158 0.2532269955 8.6135330200 1.5271999836 0.9523097277 0.9521520734 2.5394918919  -999.250000  -999.250000 12.043299675 2.8505001068 7.5799999237  -999.250000  -999.250000  -999.250000
 4346.1430664 8.3952522278 -0.018570110 96.352256775 190.32679749 89.944198608 0.2552562952 8.7033052444 1.5391000509 0.9906979203 0.9303056002 2.5539588928  -999.250000  -999.250000 12.413399696 2.6066999435 7.5799999237  -999.250000  -999.250000  -999.250000
 4346.2954102 8.4138698578 -0.022144411 96.485061646 191.84770203 89.370986938 0.2580738962 8.6795101166 1.5571999550 0.9323493242 0.9132354856 2.5508930683  -999.250000  -999.250000 12.202599525 2.6275000572 7.5799999237  -999.250000  -999.250000  -999.250000
 4346.4482422 8.4391107559 -0.027376560 96.949859619 193.66178894 89.662368774 0.2609066963 8.6075344086 1.5117000341 0.9174190760 0.8970847130 2.5303061008  -999.250000  -999.250000 12.532999992 2.6308000088 7.5799999237  -999.250000  -999.250000  -999.250000
 4346.6005859 8.4196462631 -0.027407629 97.349441528 194.44140625 90.693572998 0.2613418996 8.4760303497 1.5216000080 0.9402195215 0.9136828184 2.5118739605  -999.250000  -999.250000 12.409099579 2.7399001122 7.5799999237  -999.250000  -999.250000  -999.250000
 4346.7529297 8.4163675308 -0.026238030 97.807777405 195.34240723 91.934226990 0.2659654021 8.4477844238 1.5025000572 0.9219443798 0.9231374860 2.5072040558  -999.250000  -999.250000 13.013099670 2.7339000702 7.5799999237  -999.250000  -999.250000  -999.250000
 4346.9052734 8.4172983170 -0.022389419 97.825843811 195.98770142 93.026016235 0.2699402869 8.4483833313 1.5499000549 0.9268695712 0.9052966237 2.5127971172  -999.250000  -999.250000 13.383700371 2.4971001148 7.5799999237  -999.250000  -999.250000  -999.250000
 4347.0576172 8.4116144180 -0.022050422 97.316139221 195.35119629 93.227096558 0.2723279893 8.5371131897 1.5404000282 0.9872648120 0.9097616076 2.5151500702  -999.250000  -999.250000 13.501099586 2.7204000950 7.5799999237  -999.250000  -999.250000  -999.250000
 4347.2099609 8.4147443771 -0.024985800 96.798973083 194.71339417 91.563751221 0.2715848088 8.6692495346 1.4710999727 0.9582492709 0.9309613109 2.5139300823  -999.250000  -999.250000 12.870699883 2.7890000343 7.5799999237  -999.250000  -999.250000  -999.250000
 4347.3623047 8.4252729416 -0.028478259 96.547340393 192.27349854 89.565490723 0.2712650001 8.6777954102 1.4307999611 0.9501950741 0.9384769797 2.5099248886  -999.250000  -999.250000 13.137399673 2.5406000614 7.5799999237  -999.250000  -999.250000  -999.250000
 4347.5146484 8.4219341278 -0.027720660 96.442314148 190.72810364 88.429702759 0.2759042084 8.5235433578 1.4536000490 0.9662336707 0.9601687193 2.5114829540  -999.250000  -999.250000 13.608799934 1.9807000160 7.5799999237  -999.250000  -999.250000  -999.250000
 4347.6669922 8.4027175903 -0.024034260 96.244262695 189.25979614 88.693527222 0.2860772014 8.3813648224 1.5592000484 0.9842749834 0.9694088101 2.5185630322  -999.250000  -999.250000 13.718899727 1.7874000072 7.5799999237  -999.250000  -999.250000  -999.250000
 4347.8198242 8.3898525238 -0.021341790 95.946998596 190.92340088 89.583442688 0.2940973043 8.3650350571 1.5588999987 0.9859895110 0.9675155878 2.5229189396  -999.250000  -999.250000 13.235799789 2.0174000263 7.5799999237  -999.250000  -999.250000  -999.250000
 4347.9721680 8.3938646317 -0.021890379 95.827461243 191.15711975 90.737648010 0.2927514911 8.4445018768 1.5682001114 0.9868564010 0.9765388966 2.5210700035  -999.250000  -999.250000 13.453800201 2.0290000439 7.5799999237  -999.250000  -999.250000  -999.250000
 4348.1245117 8.4038362503 -0.024218701 96.000740051 192.12870789 91.632591248 0.2865464985 8.5122451782 1.6914000511 1.0323270559 0.9737251997 2.5163679123  -999.250000  -999.250000 14.002200127 1.6474000216 7.5799999237  -999.250000  -999.250000  -999.250000
 4348.2768555 8.4069919586 -0.025301270 96.271339417 193.25559998 91.324157715 0.2823601961 8.5439586639 1.6699999571 1.0609539747 0.9412258267 2.5131790638  -999.250000  -999.250000 14.158599854 1.5156999826 7.5799999237  -999.250000  -999.250000  -999.250000
 4348.4291992 8.4039564133 -0.024925260 96.541183472 193.14889526 90.434196472 0.2786475122 8.5715703964 1.6733000278 1.0103960037 0.9260187149 2.5121319294  -999.250000  -999.250000 14.123200417 1.5293999910 7.5799999237  -999.250000  -999.250000  -999.250000
 4348.5815430 8.4002389908 -0.024291361 96.766433716 193.90179443 89.615768433 0.2741856873 8.6475324631 1.5861998796 0.9658148289 0.9296088219 2.5112259388  -999.250000  -999.250000 14.418199539 1.5300999880 7.5799999237  -999.250000  -999.250000  -999.250000
 4348.7338867 8.4035177231 -0.024696600 96.941398621 194.35200500 89.305297852 0.2725861073 8.8149309158 1.5885001421 0.9433041215 0.9381880760 2.5095560551  -999.250000  -999.250000 14.646599770 1.3415000439 7.5799999237  -999.250000  -999.250000  -999.250000
 4348.8862305 8.4140377045 -0.026267311 97.100158691 192.84500122 89.515876770 0.2747687101 8.9986143112 1.6207000017 0.9471797943 0.9415075779 2.5071399212  -999.250000  -999.250000 14.691599846 1.2187000513 7.5799999237  -999.250000  -999.250000  -999.250000
 4349.0385742 8.4235534668 -0.027585469 97.180580139 192.00630188 89.905769348 0.2769944072 9.1161823273 1.6465001106 0.9672645926 0.9444262981 2.5050740242  -999.250000  -999.250000 14.502799988 1.2732000351 7.5799999237  -999.250000  -999.250000  -999.250000
