# LAS format log file from PETREL
# Project units are specified as depth units
#==================================================================
~Version information
VERS.   2.0:
WRAP.   NO:
#==================================================================
~Well
STRT .m      4042.1052246 :
STOP .m      5226.7104492 :
STEP .m     0.00000000 :
NULL .        -999.250000 :
COMP.           : COMPANY
WELL.  Pharos 1   : WELL
FLD.            : FIELD
LOC.            : LOCATION
SRVC.           : SERVICE COMPANY
DATE.  2017-10-02 11:49:48   : Log Export Date {yyyy-MM-dd HH:mm:ss}
PROV.           : PROVINCE
UWI.   Pharos 1   : UNIQUE WELL ID
API.            : API NUMBER
#==================================================================
~Curve
DEPT .m                   : DEPTH
CAL .in                   : CAL
DRHO .g/cm3               : DRHO
DTC .us/ft                : DTC
DTS .us/ft                : DTS
GR .gAPI                  : GR
NPHI .m3/m3               : NPHI
PEF .b/e                  : PEF
POTA .%                   : POTA
RESD .ohm.m               : RESD
RESM .ohm.m               : RESM
RHOB .g/cm3               : RHOB
RT .ohm.m                 : RT
RXO .ohm.m                : RXO
THOR .ppm                 : THOR
URAN .ppm                 : URAN
Casing ._                 : Casing
Core ._                   : Core
MDTPoints ._              : MDT Points
SWC ._                    : SWC
~Parameter
#==================================================================
~Ascii
# ...
 4495.6474609 8.3554763794 -0.015952829 102.22451019 221.54190063 106.95310211 0.3212119043 8.9614686966 2.0141000748 0.7291219234 0.6696203947 2.5438599586  -999.250000  -999.250000 15.090299606 2.4863998890 7.5799999237  -999.250000  -999.250000  -999.250000
 4495.7998047 8.3613042831 -0.016991479 102.41989899 221.94270325 102.87059784 0.3159176111 8.8054323196 1.8804999590 0.7064831257 0.6822345853 2.5472431183  -999.250000  -999.250000 14.983499527 2.2667000294 7.5799999237  -999.250000  -999.250000  -999.250000
 4495.9526367 8.3526735306 -0.015044030 102.08979034 222.93089294 102.38729858 0.3095080853 8.6570777893 1.9108999968 0.7186530828 0.6961271167 2.5519740582  -999.250000  -999.250000 14.454099655 2.3807001114 7.5799999237  -999.250000  -999.250000  -999.250000
 4496.1049805 8.3375520706 -0.011808200 101.73819733 221.66079712 102.10729980 0.3019661903 8.5662927628 1.8514000177 0.7487308979 0.7172772884 2.5573599339  -999.250000  -999.250000 14.662400246 2.4189000130 7.5799999237  -999.250000  -999.250000  -999.250000
 4496.2573242 8.3312397003 -0.011422970 101.13260651 216.74540710 102.39579773 0.3011488020 8.5171766281 1.8623000383 0.7968490124 0.7760170102 2.5617969036  -999.250000  -999.250000 14.308300018 2.5648000240 7.5799999237  -999.250000  -999.250000  -999.250000
 4496.4096680 8.3497323990 -0.015670501 100.25749969 212.70629883 101.48670197 0.3041998148 8.5228633881 1.8509000540 0.9345896840 0.8952034116 2.5639879704  -999.250000  -999.250000 14.143300056 2.5989999771 7.5799999237  -999.250000  -999.250000  -999.250000
 4496.5620117 8.3778438568 -0.021392180 99.288818359 211.77830505 99.905853271 0.3014022112 8.5984220505 1.8072999716 1.0993150473 1.0304889679 2.5645589828  -999.250000  -999.250000 14.186400414 2.6387000084 7.5799999237  -999.250000  -999.250000  -999.250000
 4496.7143555 8.3889074326 -0.023670200 98.456047058 211.93931580 100.47200012 0.2975850105 8.6827268600 1.8221998215 1.1223219633 1.0654979944 2.5641610622  -999.250000  -999.250000 14.485199928 2.6293001175 7.5799999237  -999.250000  -999.250000  -999.250000
 4496.8666992 8.3903093338 -0.024133570 98.297416687 211.83500671 100.69239807 0.2935945094 8.7410583496 1.7710000277 0.9944037199 0.9901924729 2.5633161068  -999.250000  -999.250000 14.535400391 2.6844999790 7.5799999237  -999.250000  -999.250000  -999.250000
 4497.0190430 8.3915405273 -0.024001481 98.280883789 211.98350525 100.56770325 0.2897542119 8.7901544571 1.7783999443 0.9909284115 0.9460139871 2.5638720989  -999.250000  -999.250000 14.412199974 2.8357000351 7.5799999237  -999.250000  -999.250000  -999.250000
 4497.1713867 8.3951034546 -0.024286021 97.518852234 209.07769775 97.667503357 0.2869045138 8.8747844696 1.6875001192 1.0726259947 0.9416692853 2.5671548843  -999.250000  -999.250000 13.890899658 2.9505000114 7.5799999237  -999.250000  -999.250000  -999.250000
 4497.3242188 8.3946323395 -0.024310220 96.172348022 202.77890015 94.320343018 0.2857826948 8.9608621597 1.6353000402 1.0225880146 0.9279285073 2.5722780228  -999.250000  -999.250000 14.170100212 2.5531001091 7.5799999237  -999.250000  -999.250000  -999.250000
 4497.4765625 8.3851833344 -0.022910280 94.558906555 197.64181519 92.189781189 0.2858943045 8.9703207016 1.6268000603 0.8944101930 0.9808349013 2.5758318901  -999.250000  -999.250000 13.276200294 2.7676000595 7.5799999237  -999.250000  -999.250000  -999.250000
 4497.6289063 8.3807430267 -0.021482380 93.454696655 191.83760071 91.389816284 0.2884382904 8.8760366440 1.5828000307 0.9093633294 1.0012680292 2.5763258934  -999.250000  -999.250000 13.971699715 2.4849998951 7.5799999237  -999.250000  -999.250000  -999.250000
 4497.7812500 8.3893442154 -0.021571660 93.308479309 188.97180176 92.463180542 0.2939361930 8.7408857346 1.6079999208 0.9609746933 0.9645360708 2.5743529797  -999.250000  -999.250000 14.335700035 2.3724000454 7.5799999237  -999.250000  -999.250000  -999.250000
 4497.9335938 8.3940486908 -0.022120111 93.367210388 188.85409546 95.181953430 0.2952263951 8.6121940613 1.6509000063 0.9322850704 0.9327285886 2.5709431171  -999.250000  -999.250000 15.628600121 2.1919999123 7.5799999237  -999.250000  -999.250000  -999.250000
 4498.0859375 8.3886165619 -0.021945881 93.772613525 188.97129822 97.557571411 0.2930001020 8.5650682449 1.6511000395 0.9233887196 0.9095023274 2.5664770603  -999.250000  -999.250000 15.448300362 2.4697000980 7.5799999237  -999.250000  -999.250000  -999.250000
 4498.2382813 8.3756465912 -0.019973779 94.941253662 191.32659912 99.716316223 0.2890357077 8.5703840256 1.7188999653 0.8720090985 0.8742409945 2.5620267391  -999.250000  -999.250000 15.716399193 2.5243000984 7.5799999237  -999.250000  -999.250000  -999.250000
 4498.3906250 8.3667907715 -0.017278049 96.414482117 196.18269348 100.07589722 0.2907185853 8.5898113251 1.6548000574 0.7878785729 0.8071628213 2.5612568855  -999.250000  -999.250000 15.959600449 2.2916998863 7.5799999237  -999.250000  -999.250000  -999.250000
 4498.5429688 8.3738317490 -0.018065309 97.793457031 201.99609375 101.69860077 0.2972620130 8.6047821045 1.6877001524 0.7635009885 0.7652540207 2.5637810230  -999.250000  -999.250000 16.322900772 2.5304000378 7.5799999237  -999.250000  -999.250000  -999.250000
 4498.6958008 8.3809089661 -0.020605169 98.659820557 208.92889404 101.70089722 0.3029943109 8.5918827057 1.6852998734 0.7405961752 0.7386468053 2.5666790009  -999.250000  -999.250000 16.270900726 2.3394999504 7.5799999237  -999.250000  -999.250000  -999.250000
 4498.8481445 8.3911352158 -0.022806751 99.329879761 215.07319641 101.05259705 0.3024036884 8.5644674301 1.7124999762 0.7032718062 0.7088242173 2.5659110546  -999.250000  -999.250000 16.438100815 2.2304000854 7.5799999237  -999.250000  -999.250000  -999.250000
 4499.0004883 8.3820705414 -0.021797899 100.07440186 220.96910095 99.556640625 0.2980425060 8.5704164505 1.6612999439 0.7080994248 0.6983473897 2.5640199184  -999.250000  -999.250000 15.465999603 2.2377998829 7.5799999237  -999.250000  -999.250000  -999.250000
 4499.1528320 8.3663959503 -0.019170830 100.30039978 222.31010437 99.520210266 0.2976864874 8.6191234589 1.7324998379 0.6979926825 0.7119492888 2.5650529861  -999.250000  -999.250000 15.887498856 1.9634001255 7.5799999237  -999.250000  -999.250000  -999.250000
 4499.3051758 8.3597316742 -0.018074891 99.727752686 217.98309326 100.08149719 0.2967816889 8.6845922470 1.7954999208 0.7140011191 0.7531561255 2.5659608841  -999.250000  -999.250000 15.452900887 2.1737999916 7.5799999237  -999.250000  -999.250000  -999.250000
 4499.4575195 8.3649377823 -0.018923709 98.187789917 209.30020142 99.617240906 0.2942472994 8.6584787369 1.7609000206 0.8378310800 0.8312284946 2.5596969128  -999.250000  -999.250000 14.753600121 2.5039999485 7.5799999237  -999.250000  -999.250000  -999.250000
 4499.6098633 8.3710393906 -0.019958191 96.852882385 204.52940369 98.198143005 0.2909596860 8.6150112152 1.7594000101 0.9537593126 0.9138029814 2.5496468544  -999.250000  -999.250000 14.691800117 2.2032001019 7.5799999237  -999.250000  -999.250000  -999.250000
 4499.7622070 8.3775749207 -0.020620380 97.362380981 201.78649902 97.502296448 0.2947112024 8.6296997070 1.7568999529 0.9721533060 0.9618852735 2.5394389629  -999.250000  -999.250000 14.849399567 1.9741001129 7.5799999237  -999.250000  -999.250000  -999.250000
 4499.9150391 8.3805818558 -0.020153280 98.507293701 205.70489502 99.007987976 0.3034597039 8.7263145447 1.7479000092 0.9351742268 0.9407873154 2.5368440151  -999.250000  -999.250000 15.669100761 1.9695999622 7.5799999237  -999.250000  -999.250000  -999.250000
 4500.0673828 8.3813743591 -0.020473750 98.486396790 208.61070251 101.78659821 0.3115477860 8.8329095840 1.8566999435 0.8370112181 0.8619241118 2.5411539078  -999.250000  -999.250000 15.784501076 2.0086998940 7.5799999237  -999.250000  -999.250000  -999.250000
 4500.2197266 8.3876647949 -0.022671340 98.072891235 208.51040649 103.28060150 0.3115505874 8.9059295654 1.9006999731 0.7711086273 0.8244737983 2.5445730686  -999.250000  -999.250000 16.541999817 1.9778999090 7.5799999237  -999.250000  -999.250000  -999.250000
