# LAS format log file from PETREL
# Project units are specified as depth units
#==================================================================
~Version information
VERS.   2.0:
WRAP.   NO:
#==================================================================
~Well
STRT .m      4042.1052246 :
STOP .m      5226.7104492 :
STEP .m     0.00000000 :
NULL .        -999.250000 :
COMP.           : COMPANY
WELL.  Pharos 1   : WELL
FLD.            : FIELD
LOC.            : LOCATION
SRVC.           : SERVICE COMPANY
DATE.  2017-10-02 11:49:48   : Log Export Date {yyyy-MM-dd HH:mm:ss}
PROV.           : PROVINCE
UWI.   Pharos 1   : UNIQUE WELL ID
API.            : API NUMBER
#==================================================================
~Curve
DEPT .m                   : DEPTH
CAL .in                   : CAL
DRHO .g/cm3               : DRHO
DTC .us/ft                : DTC
DTS .us/ft                : DTS
GR .gAPI                  : GR
NPHI .m3/m3               : NPHI
PEF .b/e                  : PEF
POTA .%                   : POTA
RESD .ohm.m               : RESD
RESM .ohm.m               : RESM
RHOB .g/cm3               : RHOB
RT .ohm.m                 : RT
RXO .ohm.m                : RXO
THOR .ppm                 : THOR
URAN .ppm                 : URAN
Casing ._                 : Casing
Core ._                   : Core
MDTPoints ._              : MDT Points
SWC ._                    : SWC
~Parameter
#==================================================================
~Ascii
# ...
 5053.1269531 6.8044939041 0.2049991041 61.779621124 97.583259583 72.777740479 0.0605691709 8.0900831223 0.4853999615 11.925419807 18.084579468 2.6134269238 19.076070786 7.1909837723 10.830400467 3.4542000294 5.0000000000  -999.250000 1.0000000000 1.0000000000
 5053.2792969 6.9420948029 0.3011220992 59.441719055 95.689140320 61.244091034 0.0499754995 10.206069946 0.3810000122 12.530790329 19.790519714 2.6009840965 23.063299179 10.017539978 9.0534000397 3.1291999817 5.0000000000  -999.250000 1.0000000000 1.0000000000
 5053.4316406 7.0355391502 0.3682813048 57.690143585 94.307289124 54.329639435 0.0407090001 11.105739594 0.3059999943 15.978719711 22.886100769 2.6362459660 22.966470718 14.404140472 8.3285999298 2.5374000072 5.0000000000  -999.250000 1.0000000000 1.0000000000
 5053.5839844 7.0500397682 0.3402887881 57.475868225 93.983970642 50.669849396 0.0358573012 10.123430252 0.3142000139 22.647090912 28.702560425 2.6585960388 21.569210052 20.034849167 8.3404998779 2.4100999832 5.0000000000  -999.250000 1.0000000000 1.0000000000
 5053.7363281 7.0651440620 0.2463085949 58.668579102 94.844779968 47.656280518 0.0336524993 7.8270268440 0.3007000089 26.103530884 27.704410553 2.6711890697 21.316080093 27.166080475 7.8196001053 2.0072000027 5.0000000000  -999.250000 1.0000000000 1.0000000000
 5053.8886719 6.8917121887 0.1566395015 60.427860260 96.394676208 45.263019562 0.0307143498 6.0621218681 0.2646999955 27.260679245 26.388580322 2.7055289745 21.067489624 31.575199127 7.7205004692 2.0731000900 5.0000000000  -999.250000 1.0000000000 1.0000000000
 5054.0410156 6.7568302155 0.0934740826 62.002288818 98.686576843 44.329269409 0.0290295295 5.7941098213 0.2171999961 38.581039429 38.453090668 2.7121939659 25.938890457 45.892910004 7.3171000481 2.0211000443 5.0000000000  -999.250000 1.0000000000 1.0000000000
 5054.1933594 6.7547268867 0.0930859670 63.106758118 100.81529999 47.439819336 0.0308931991 6.7671151161 0.2210000008 54.912109375 56.400291443 2.6883540154 30.761129379 57.136650085 7.8187994957 2.2156000137 5.0000000000  -999.250000 1.0000000000 1.0000000000
 5054.3461914 6.8230700493 0.1518526971 63.671680450 101.56610107 56.201271057 0.0346713699 8.2453727722 0.2915000021 61.273220062 63.914958954 2.6494410038 36.555030823 71.118377686 9.6506004333 2.3438000679 5.0000000000  -999.250000 1.0000000000 1.0000000000
 5054.4985352 6.8925709724 0.2159105986 63.645820618 101.20210266 69.817398071 0.0377840586 9.3938999176 0.3802999854 52.474540710 57.363891602 2.6076378822 42.158069611 74.734878540 12.555600166 2.8375999928 5.0000000000  -999.250000 1.0000000000 1.0000000000
 5054.6508789 6.9094018936 0.2696354985 63.208728790 100.17140198 82.710403442 0.0401829295 9.5658216476 0.4476000071 42.613761902 50.512050629 2.6094338894 44.790668488 73.495162964 15.489300728 3.4214000702 5.0000000000  -999.250000 1.0000000000 1.0000000000
 5054.8032227 6.8599362373 0.2857914865 62.913841248 99.266448975 87.614646912 0.0441233814 8.5468397141 0.5008000135 45.167560577 54.307678223 2.6502609253 45.180068970 62.480098724 16.101800919 3.6284000874 5.0000000000  -999.250000 1.0000000000 1.0000000000
 5054.9555664 6.8045549393 0.2593005896 63.126220703 99.538269043 83.680023193 0.0479555018 6.5530481339 0.4999000132 34.902271271 39.227169037 2.7025749683 39.931819916 46.408290863 15.376499176 3.2992999554 5.0000000000  -999.250000 1.0000000000 1.0000000000
 5055.1079102 6.7625980377 0.2460030019 63.787780762 101.08920288 75.750793457 0.0508253612 5.6419038773 0.4702000022 25.012819290 25.636709213 2.7368879318 31.958890915 40.759651184 13.345800400 2.9679000378 5.0000000000  -999.250000 1.0000000000 1.0000000000
 5055.2602539 6.7680888176 0.2340579033 64.670112610 103.20680237 70.066871643 0.0504480898 6.3319969177 0.4686999917 25.609600067 25.409730911 2.6916298866 27.614799500 33.044319153 12.427800179 2.6533000469 5.0000000000  -999.250000 1.0000000000 1.0000000000
 5055.4125977 6.9161047935 0.2315544039 65.224250793 105.50789642 67.656532288 0.0502508283 7.6777629852 0.4460999668 27.000900269 27.630050659 2.6230769157 26.351039886 31.985780716 12.182299614 2.4667000771 5.0000000000  -999.250000 1.0000000000 1.0000000000
 5055.5654297 6.9722199440 0.3194702864 65.089271545 106.81938934 69.143791199 0.0496394187 8.6369190216 0.5109000206 26.434299469 27.473430634 2.6545169353 26.267190933 34.003219604 12.564599991 2.2794001102 5.0000000000  -999.250000 1.0000000000 1.0000000000
 5055.7177734 6.9749975204 0.4357506037 64.534606934 105.83820343 75.551559448 0.0481240600 7.9378499985 0.5666000247 26.600709915 28.758949280 2.7404279709 27.047479630 34.291259766 13.869000435 2.4561998844 5.0000000000  -999.250000 1.0000000000 1.0000000000
 5055.8701172 6.9749975204 0.4357753992 63.871261597 103.43891144 86.522819519 0.0469035096 6.7923440933 0.6654000282 29.042160034 32.666599274 2.7493820190 28.138780594 36.154739380 16.330699921 2.6521999836 5.0000000000  -999.250000 1.0000000000 1.0000000000
 5056.0224609 6.8593740463 0.3523055911 63.163360596 101.50340271 97.466682434 0.0466720387 5.6080098152 0.7141000032 34.713691711 37.685478210 2.7071969509 30.279640198 35.251541138 18.182600021 3.1807000637 5.0000000000  -999.250000 1.0000000000 1.0000000000
 5056.1748047 6.7468109131 0.2653228939 62.442108154 101.17829895 105.10179901 0.0440973118 4.3451800346 0.7710000277 31.219100952 33.642768860 2.6881799698 31.590139389 37.996219635 19.308399200 3.7307999134 5.0000000000  -999.250000 1.0000000000 1.0000000000
 5056.3271484 6.7482547760 0.1730584055 61.944950104 101.53479767 103.88390350 0.0445337296 3.5763831139 0.7984999418 25.518529892 26.023469925 2.6912760735 27.835620880 33.182670593 18.901100159 3.6294999123 5.0000000000  -999.250000 1.0000000000 1.0000000000
 5056.4794922 6.7516565323 0.0860962719 61.800388336 101.35470581 93.798393250 0.0519067906 3.2104780674 0.7066000104 25.149150848 25.179809570 2.6779329777 25.068929672 30.714309692 16.703699112 3.3722000122 5.0000000000  -999.250000 1.0000000000 1.0000000000
 5056.6318359 6.7516565323 0.0210530106 61.559661865 100.46920013 78.683616638 0.0542871691 3.0322740078 0.5748999715 23.804130554 23.440259933 2.6542079449 23.792369843 28.926620483 13.985099792 2.8055999279 5.0000000000  -999.250000 1.0000000000 1.0000000000
 5056.7841797 6.7516565323 0.0018215849 60.529991150 99.161758423 67.729331970 0.0529042594 2.9518980980 0.5048000216 20.913990021 20.914400101 2.6405169964 21.139820099 27.813119888 12.150500298 2.3259000778 5.0000000000  -999.250000 1.0000000000 1.0000000000
 5056.9370117 6.7418761253 -0.001558903 58.473991394 97.598556519 60.021850586 0.0486797504 2.8655469418 0.3880000114 20.859130859 21.365510941 2.6268200874 20.729780197 31.230600357 10.762900352 2.2486000061 5.0000000000  -999.250000 1.0000000000 1.0000000000
 5057.0893555 6.7389707565 -0.006496198 56.072441101 95.777473450 54.420890808 0.0442611501 2.7910499573 0.3443000019 21.810260773 22.090900421 2.6074409485 21.303930283 32.078350067 9.6029996872 2.1201999187 5.0000000000  -999.250000 1.0000000000 1.0000000000
 5057.2416992 6.7368268967 -0.011853150 54.471771240 93.950561523 49.414730072 0.0360281691 2.7682309151 0.2682000101 25.811769485 25.880849838 2.6042098999 23.107469559 32.590129852 8.5166997910 2.0518000126 5.0000000000  -999.250000 1.0000000000 1.0000000000
 5057.3940430 6.7346830368 -0.011932240 54.369449615 92.848922729 48.989528656 0.0287908893 2.8902490139 0.3048000038 30.156099319 31.377889633 2.6331520081 26.786699295 38.983570099 8.3970003128 1.8863999844 5.0000000000  -999.250000 1.0000000000 1.0000000000
 5057.5463867 6.7356281281 -0.005028351 55.795658112 92.983963013 50.175018311 0.0257092398 3.4943649769 0.3591000140 33.908901215 36.769329071 2.6854960918 31.568969727 49.758529663 8.3086004257 2.0534999371 5.0000000000  -999.250000 1.0000000000 1.0000000000
 5057.6987305 6.7304210663 -0.001270371 58.165260315 94.397972107 51.529708862 0.0245516691 4.2077121735 0.4137999713 47.317478180 50.639911652 2.7291049957 40.015029907 63.735931396 9.0242996216 1.7649999857 5.0000000000  -999.250000 1.0000000000 1.0000000000
