# LAS format log file from PETREL
# Project units are specified as depth units
#==================================================================
~Version information
VERS.   2.0:
WRAP.   NO:
#==================================================================
~Well
STRT .m      4042.1052246 :
STOP .m      5226.7104492 :
STEP .m     0.00000000 :
NULL .        -999.250000 :
COMP.           : COMPANY
WELL.  Pharos 1   : WELL
FLD.            : FIELD
LOC.            : LOCATION
SRVC.           : SERVICE COMPANY
DATE.  2017-10-02 11:49:48   : Log Export Date {yyyy-MM-dd HH:mm:ss}
PROV.           : PROVINCE
UWI.   Pharos 1   : UNIQUE WELL ID
API.            : API NUMBER
#==================================================================
~Curve
DEPT .m                   : DEPTH
CAL .in                   : CAL
DRHO .g/cm3               : DRHO
DTC .us/ft                : DTC
DTS .us/ft                : DTS
GR .gAPI                  : GR
NPHI .m3/m3               : NPHI
PEF .b/e                  : PEF
POTA .%                   : POTA
RESD .ohm.m               : RESD
RESM .ohm.m               : RESM
RHOB .g/cm3               : RHOB
RT .ohm.m                 : RT
RXO .ohm.m                : RXO
THOR .ppm                 : THOR
URAN .ppm                 : URAN
Casing ._                 : Casing
Core ._                   : Core
MDTPoints ._              : MDT Points
SWC ._                    : SWC
~Parameter
#==================================================================
~Ascii
# ...
 4977.5366211 6.6846542358 -0.003662805 69.981376648 125.68589020 130.70170593 0.0659686774 5.1136059761 2.7616000175 5.1945600510 6.3816871643 2.6788959503 4.7925539017 9.2813348770 16.185699463 3.3229999542 5.0000000000 1.0000000000  -999.250000 1.0000000000
 4977.6889648 6.7110857964 -0.002562716 66.280021667 119.48320007 114.94680023 0.0657337829 5.6939339638 2.4630000591 7.2871332169 11.329859734 2.6986799240 4.4646229744 11.696889877 13.716400146 2.9316999912 5.0000000000 1.0000000000  -999.250000 1.0000000000
 4977.8413086 6.7114729881 -0.004529739 62.720829010 114.21640015 95.587783813 0.0641034469 6.3424577713 2.0237998962 9.2298412323 14.743630409 2.7048130035 4.5128288269 13.519599915 11.273300171 2.2277998924 5.0000000000 1.0000000000  -999.250000 1.0000000000
 4977.9936523 6.7012696266 -0.007027635 59.860748291 110.86199951 78.338661194 0.0628692731 6.8282179832 1.6527999640 9.4977083206 13.070520401 2.7022109032 3.8676109314 17.396219254 8.9931001663 1.7378000021 5.0000000000 1.0000000000  -999.250000 1.0000000000
 4978.1459961 6.6909260750 -0.006369025 58.332290649 108.95320129 67.628517151 0.0632771030 6.8177800179 1.4177999496 9.8437490463 10.172860146 2.7026870251 3.7834179401 14.337380409 8.2465000153 1.4009000063 5.0000000000 1.0000000000  -999.250000 1.0000000000
 4978.2983398 6.7130222321 -0.004314090 58.215980530 107.93930054 62.583518982 0.0650931299 6.5458040237 1.2631000280 15.465379715 10.127459526 2.7065460682 3.7872600555 12.131859779 8.1148004532 1.4180999994 5.0000000000 1.0000000000  -999.250000 1.0000000000
 4978.4506836 6.7288608551 -0.004862946 58.673000336 107.73919678 59.115261078 0.0655734167 6.1228132248 1.1535999775 23.666469574 11.661680222 2.7035889626 4.2318921089 9.8632755280 7.5039000511 1.5635999441 5.0000000000 1.0000000000  -999.250000 1.0000000000
 4978.6030273 6.7115426064 -0.005438506 58.803680420 107.74120331 55.860919952 0.0636348724 5.8116998672 0.9954000115 23.483270645 12.964509964 2.7009088993 4.9614081383 8.7881813049 7.2803997993 1.4983999729 5.0000000000 1.0000000000  -999.250000 1.0000000000
 4978.7553711 6.7019848824 -0.005319188 58.148941040 107.06259918 54.759559631 0.0621172599 5.6983761787 0.9545999765 15.184450150 14.240670204 2.7024779320 6.1824221611 7.0967240334 7.2751002312 1.6081000566 5.0000000000 1.0000000000  -999.250000 1.0000000000
 4978.9082031 6.6998405457 -0.005415044 56.964424133 106.01790619 55.548759460 0.0619392991 5.9617209435 0.9941999912 8.9294366837 15.333040237 2.7071449757 8.4625835419 5.9270758629 7.6792993546 1.4774999619 5.0000000000 1.0000000000  -999.250000 1.0000000000
 4979.0605469 6.6885113716 -0.005393771 56.188327789 105.66159821 56.567119598 0.0622652285 6.5376181602 0.9782999754 6.8444461823 16.104450226 2.7120420933 12.689709663 5.0321860313 8.2917995453 1.5873999596 5.0000000000 1.0000000000  -999.250000 1.0000000000
 4979.2128906 6.6924529076 -0.006365492 56.521835327 106.39980316 54.625770569 0.0611613691 7.1873011589 0.8521000147 7.0023179054 16.378940582 2.7167661190 18.076339722 4.0269160271 7.5774002075 1.8888000250 5.0000000000 1.0000000000  -999.250000 1.0000000000
 4979.3652344 6.6934089661 -0.006224395 57.960899353 109.15059662 52.481311798 0.0665693730 7.4190549850 0.7981999516 8.8973665237 12.916090012 2.7249989510 22.539569855 4.1981511116 6.8973999023 1.9663000107 5.0000000000 1.0000000000  -999.250000 1.0000000000
 4979.5175781 6.6864409447 -0.005159872 59.844718933 112.97480011 52.666698456 0.0769258663 7.2228388786 0.7728000283 11.414380074 12.728940010 2.7281889915 16.061460495 4.2020769119 7.0925998688 1.9756001234 5.0000000000 1.0000000000  -999.250000 1.0000000000
 4979.6699219 6.6846542358 -0.004446420 60.964328766 114.69889832 56.924961090 0.0888826773 6.6733069420 0.8098000884 7.9626097679 7.6165461540 2.7178559303 7.5034761429 4.4543280602 7.9688997269 2.1480998993 5.0000000000 1.0000000000  -999.250000 1.0000000000
 4979.8222656 6.6862320900 -0.008686334 60.638374329 114.11699677 63.359359741 0.0909789279 6.1918277740 0.8925000429 3.2566249371 2.9989790916 2.6927800179 6.2679538727 5.1056270599 8.3369998932 2.7995998859 5.0000000000 1.0000000000  -999.250000 1.0000000000
 4979.9746094 6.7221322060 -0.010163280 59.251651764 112.65399933 65.081283569 0.0859296098 5.5517649651 0.8736000657 1.4379930496 1.2292619944 2.6707479954 3.9378359318 6.1361789703 8.3991003036 2.9946999550 5.0000000000 1.0000000000  -999.250000 1.0000000000
 4980.1274414 6.6914548874 -0.008509303 57.638858795 111.55860138 63.062320709 0.0840032399 5.3728351593 0.8429000378 2.2306630611 1.8411229849 2.6622099876 3.5552909374 7.0498619080 8.0384998322 2.9760999680 5.0000000000 1.0000000000  -999.250000 1.0000000000
 4980.2797852 6.6846542358 -0.006989542 56.689239502 111.39688873 57.145370483 0.0808911026 5.5245690346 0.7555000186 3.2972080708 3.6802420616 2.6636970043 3.5356979370 7.5033769608 6.9119000435 2.7462000847 5.0000000000 1.0000000000  -999.250000 1.0000000000
 4980.4321289 6.6846542358 -0.007754848 57.019271851 112.24960327 53.423530579 0.0740273893 5.9623479843 0.7016000152 2.7146070004 4.2099361420 2.6693079472 3.4584460258 7.1877827644 6.4145998955 2.5703001022 5.0000000000 1.0000000000  -999.250000 1.0000000000
 4980.5844727 6.6846542358 -0.007431307 58.675159454 113.95310974 51.592639923 0.0635645166 6.4799132347 0.6844000220 1.8777639866 2.9078509808 2.6822500229 3.2997469902 6.5066800117 6.3804998398 2.4086000919 5.0000000000 1.0000000000  -999.250000 1.0000000000
 4980.7368164 6.6846542358 -0.007405637 60.699748993 115.22429657 50.231521606 0.0549619608 6.6775918007 0.6805999875 1.6478940248 2.4565470219 2.6999971867 3.0673019886 5.9354591370 5.9636998177 2.3763999939 5.0000000000 1.0000000000  -999.250000 1.0000000000
 4980.8891602 6.6846542358 -0.005986620 61.594219208 115.08679962 49.034770966 0.0541221090 6.8902478218 0.7172999978 1.7471460104 2.2123620510 2.7166190147 2.8135120869 5.6956310272 5.8305997849 2.1565999985 5.0000000000 1.0000000000  -999.250000 1.0000000000
 4981.0415039 6.6846542358 -0.006368824 60.791339874 113.55850220 47.384971619 0.0537235998 6.3772292137 0.6708999872 2.3225579262 2.3080029488 2.7240653038 2.6356639862 5.6686658859 5.7832999229 2.0546998978 5.0000000000 1.0000000000  -999.250000 1.0000000000
 4981.1938477 6.7173972130 -0.010382330 59.206310272 112.22930908 50.072490692 0.0532954596 6.2795200348 0.6933000088 3.1222929955 2.5731339455 2.7210218906 2.5415689945 5.6850290298 6.3295001984 2.1342000961 5.0000000000 1.0000000000  -999.250000 1.0000000000
 4981.3461914 6.6854820251 -0.015880950 58.360721588 112.53450012 53.825569153 0.0517672487 6.0553889275 0.7675999999 4.1302518845 2.8692109585 2.7133200169 2.5244369507 5.6566128731 6.4692001343 2.3580999374 5.0000000000 1.0000000000  -999.250000 1.0000000000
 4981.4990234 6.6846542358 -0.016497331 58.975570679 113.58000183 59.854461670 0.0580647886 6.5400509834 0.8837000728 4.5501708984 3.0842390060 2.7050590515 2.5707020760 5.5873990059 7.4931998253 2.4386999607 5.0000000000 1.0000000000  -999.250000 1.0000000000
 4981.6513672 6.6846542358 -0.015412330 60.433319092 114.73359680 64.793098450 0.0664448068 6.4439969063 1.0262999535 4.2993369102 3.0376400948 2.6942009926 2.6625599861 5.5026340485 7.9724006653 2.4516000748 5.0000000000 1.0000000000  -999.250000 1.0000000000
 4981.8037109 6.6846542358 -0.017744981 61.672729492 116.21820068 69.014587402 0.0746682137 6.3188819885 1.1933000088 4.1048049927 3.0412909985 2.6813712120 2.7749979496 5.4155950546 8.6599998474 2.2941000462 5.0000000000 1.0000000000  -999.250000 1.0000000000
 4981.9560547 6.6846542358 -0.015449600 62.361301422 118.46719360 72.459472656 0.0753759667 6.3301849365 1.2654999495 3.9095640182 3.0055410862 2.6737151146 2.8854289055 5.3048338890 8.8701000214 2.4172999859 5.0000000000 1.0000000000  -999.250000 1.0000000000
 4982.1083984 6.6846542358 -0.010712790 62.682350159 120.12040710 72.823898315 0.0775925592 5.8222122192 1.2503999472 3.8554649353 2.9896640778 2.6755919456 2.9754219055 5.1372900009 8.9464998245 2.4765000343 5.0000000000 1.0000000000  -999.250000 1.0000000000
