# LAS format log file from PETREL
# Project units are specified as depth units
#==================================================================
~Version information
VERS.   2.0:
WRAP.   NO:
#==================================================================
~Well
STRT .m      4042.1052246 :
STOP .m      5226.7104492 :
STEP .m     0.00000000 :
NULL .        -999.250000 :
COMP.           : COMPANY
WELL.  Pharos 1   : WELL
FLD.            : FIELD
LOC.            : LOCATION
SRVC.           : SERVICE COMPANY
DATE.  2017-10-02 11:49:48   : Log Export Date {yyyy-MM-dd HH:mm:ss}
PROV.           : PROVINCE
UWI.   Pharos 1   : UNIQUE WELL ID
API.            : API NUMBER
#==================================================================
~Curve
DEPT .m                   : DEPTH
CAL .in                   : CAL
DRHO .g/cm3               : DRHO
DTC .us/ft                : DTC
DTS .us/ft                : DTS
GR .gAPI                  : GR
NPHI .m3/m3               : NPHI
PEF .b/e                  : PEF
POTA .%                   : POTA
RESD .ohm.m               : RESD
RESM .ohm.m               : RESM
RHOB .g/cm3               : RHOB
RT .ohm.m                 : RT
RXO .ohm.m                : RXO
THOR .ppm                 : THOR
URAN .ppm                 : URAN
Casing ._                 : Casing
Core ._                   : Core
MDTPoints ._              : MDT Points
SWC ._                    : SWC
~Parameter
#==================================================================
~Ascii
# ...
 4420.0571289 8.4265670776 -0.028493511 73.385948181 115.45549774 27.513610840 0.1574904025 8.8340549469 0.3810000122 2.0420799255 2.1104059219 2.4381780624  -999.250000  -999.250000 3.6196999550 1.0851000547 7.5799999237  -999.250000  -999.250000  -999.250000
 4420.2094727 8.4100809097 -0.026295070 74.581199646 116.86609650 27.730550766 0.1594084948 8.5492191315 0.3386000097 1.9530669451 2.0397920609 2.4200971127  -999.250000  -999.250000 3.4941000938 1.2109999657 7.5799999237  -999.250000  -999.250000  -999.250000
 4420.3618164 8.4047269821 -0.025151450 75.769989014 120.27660370 29.578439713 0.1587297022 8.1929254532 0.4072999954 2.1636140347 1.8917549849 2.4034109116  -999.250000  -999.250000 3.6417000294 1.1532000303 7.5799999237  -999.250000  -999.250000  -999.250000
 4420.5141602 8.4294462204 -0.027609570 76.311203003 123.74000549 33.537639618 0.1588054001 8.0935764313 0.4568000436 2.0454618931 1.8684070110 2.3974320889  -999.250000  -999.250000 4.1995000839 1.3876999617 7.5799999237  -999.250000  -999.250000  -999.250000
 4420.6669922 8.4476213455 -0.028567880 76.774383545 127.15730286 37.182819366 0.1597584039 8.0787744522 0.4857000113 1.8721660376 1.9024939537 2.4019711018  -999.250000  -999.250000 4.7305998802 1.5714000463 7.5799999237  -999.250000  -999.250000  -999.250000
 4420.8193359 8.4467697144 -0.027671861 77.301528931 134.76980591 40.590900421 0.1608314067 8.1376342773 0.5105000138 1.6994190216 1.8702889681 2.4135839939  -999.250000  -999.250000 5.1525998116 1.8968000412 7.5799999237  -999.250000  -999.250000  -999.250000
 4420.9716797 8.4306688309 -0.025712293 77.433296204 136.07670593 42.984588623 0.1601451933 8.2354593277 0.5404000282 1.8562740088 1.9869339466 2.4233078957  -999.250000  -999.250000 5.4186000824 2.0271000862 7.5799999237  -999.250000  -999.250000  -999.250000
 4421.1240234 8.4206037521 -0.024577949 77.294769287 130.05830383 44.669170380 0.1573306024 8.3874406815 0.6263999939 2.2070438862 2.1779909134 2.4227221012  -999.250000  -999.250000 5.7325000763 2.0420999527 7.5799999237  -999.250000  -999.250000  -999.250000
 4421.2763672 8.4280977249 -0.025787679 77.476760864 125.95310211 42.205249786 0.1571411043 8.4819707870 0.5593000054 2.3651449680 2.3521149158 2.4124040604  -999.250000  -999.250000 5.2316999435 2.0504999161 7.5799999237  -999.250000  -999.250000  -999.250000
 4421.4287109 8.4355630875 -0.027165299 77.506019592 125.26899719 37.369068146 0.1591192037 8.4173116684 0.4918000102 2.3281440735 2.2938480377 2.4006159306  -999.250000  -999.250000 4.6430001259 1.7389999628 7.5799999237  -999.250000  -999.250000  -999.250000
 4421.5810547 8.4388551712 -0.027477879 77.408897400 124.09860229 33.682720184 0.1626898944 8.2566299438 0.4208000004 2.0372519493 2.0652720928 2.3945739269  -999.250000  -999.250000 4.1923999786 1.5435999632 7.5799999237  -999.250000  -999.250000  -999.250000
 4421.7333984 8.4415702820 -0.027603799 77.167594910 125.44460297 32.550540924 0.1637710929 8.1673145294 0.4187000096 1.9239909649 1.9097980261 2.3919470310  -999.250000  -999.250000 3.9386000633 1.5235999823 7.5799999237  -999.250000  -999.250000  -999.250000
 4421.8862305 8.4562816620 -0.029126190 76.457641602 124.09789276 31.793590546 0.1677433997 8.1634778976 0.4476000071 1.9787570238 1.9195799828 2.3874878883  -999.250000  -999.250000 4.1184000969 1.4092999697 7.5799999237  -999.250000  -999.250000  -999.250000
 4422.0385742 8.4747858047 -0.030190291 75.595703125 124.63849640 30.070320129 0.1719574034 8.2328310013 0.3846000135 1.8165630102 1.8222850561 2.3824150562  -999.250000  -999.250000 3.7950999737 1.4285999537 7.5799999237  -999.250000  -999.250000  -999.250000
 4422.1909180 8.4745597839 -0.028551919 75.037528992 125.12729645 29.835420609 0.1740106940 8.3159732819 0.3944000304 1.7852059603 1.8131229877 2.3823010921  -999.250000  -999.250000 3.6837000847 1.3450000286 7.5799999237  -999.250000  -999.250000  -999.250000
 4422.3432617 8.4439201355 -0.024703881 75.180320740 123.65969086 32.495769501 0.1697517037 8.3558301926 0.4389999807 2.0139141083 1.8605600595 2.3886160851  -999.250000  -999.250000 3.9560000896 1.4911999702 7.5799999237  -999.250000  -999.250000  -999.250000
 4422.4956055 8.4092426300 -0.021594020 75.984878540 125.46200562 37.381378174 0.1606138051 8.3952493668 0.4933999777 2.1391530037 1.8835350275 2.3942480087  -999.250000  -999.250000 4.6124000549 1.7051999569 7.5799999237  -999.250000  -999.250000  -999.250000
 4422.6479492 8.4050159454 -0.021258069 77.497459412 128.85240173 43.096038818 0.1532233953 8.3762674332 0.5835999846 2.0433530807 1.9565600157 2.3946850300  -999.250000  -999.250000 5.2470002174 1.9517999887 7.5799999237  -999.250000  -999.250000  -999.250000
 4422.8002930 8.4102325439 -0.020565990 78.683532715 131.02130127 48.506240845 0.1498977989 8.3425636292 0.6597999930 2.2140479088 2.0740830898 2.3974380493  -999.250000  -999.250000 5.6115999222 2.3789999485 7.5799999237  -999.250000  -999.250000  -999.250000
 4422.9526367 8.4093017578 -0.022196149 78.895668030 134.25219727 52.199939728 0.1541682929 8.2880353928 0.7444000244 2.3148651123 2.1899631023 2.4096210003  -999.250000  -999.250000 6.1915001869 2.3952000141 7.5799999237  -999.250000  -999.250000  -999.250000
 4423.1049805 8.4224634171 -0.023968080 78.482688904 134.75610352 53.002059937 0.1615505069 8.2746391296 0.7649999857 2.2951889038 2.1965858936 2.4293351173  -999.250000  -999.250000 6.4538002014 2.5660998821 7.5799999237  -999.250000  -999.250000  -999.250000
 4423.2578125 8.4377660751 -0.025186909 78.157142639 132.08189392 49.906700134 0.1675933003 8.2591991425 0.7282000184 2.5065999031 2.3579139709 2.4465498924  -999.250000  -999.250000 5.9524998665 2.3278999329 7.5799999237  -999.250000  -999.250000  -999.250000
 4423.4101563 8.4363136292 -0.025055099 77.992866516 128.86099243 43.968330383 0.1684837043 8.2684431076 0.6628000140 2.3343479633 2.3473660946 2.4486336708  -999.250000  -999.250000 5.3063001633 2.0785000324 7.5799999237  -999.250000  -999.250000  -999.250000
 4423.5625000 8.4167327881 -0.023238240 77.368713379 126.31819916 36.610229492 0.1660369933 8.1851024628 0.5235999823 2.1747190952 2.1205589771 2.4327371120  -999.250000  -999.250000 4.1016001701 1.6283999681 7.5799999237  -999.250000  -999.250000  -999.250000
 4423.7148438 8.4195537567 -0.023289921 76.540878296 126.07779694 30.939149857 0.1648821980 8.1248006821 0.4181999564 1.8480570316 1.9056459665 2.4033110142  -999.250000  -999.250000 3.6164999008 1.3884999752 7.5799999237  -999.250000  -999.250000  -999.250000
 4423.8671875 8.4347057343 -0.024754800 76.231643677 126.80670166 28.125509262 0.1665636003 8.0486307144 0.3361000121 1.6311320066 1.7671409845 2.3766150475  -999.250000  -999.250000 3.0209000111 1.4178999662 7.5799999237  -999.250000  -999.250000  -999.250000
 4424.0195313 8.4518308640 -0.026983051 76.461929321 126.18229675 27.727550507 0.1698890030 8.0693960190 0.3242999911 1.6943160295 1.7590750456 2.3628160954  -999.250000  -999.250000 2.9570999146 1.4864000082 7.5799999237  -999.250000  -999.250000  -999.250000
 4424.1718750 8.4603996277 -0.028081629 76.052497864 126.51730347 28.407089233 0.1697551012 8.1443843842 0.3483000100 1.8156520128 1.7944099903 2.3585929871  -999.250000  -999.250000 3.2000000477 1.4707000256 7.5799999237  -999.250000  -999.250000  -999.250000
 4424.3242188 8.4604969025 -0.027886620 74.964607239 126.04750824 28.909410477 0.1684599966 8.2600774765 0.3165999949 1.8962030411 1.8342479467 2.3582010269  -999.250000  -999.250000 3.3928000927 1.4852000475 7.5799999237  -999.250000  -999.250000  -999.250000
 4424.4765625 8.4583625793 -0.027908310 73.917633057 124.01080322 29.102279663 0.1673403978 8.3115577698 0.3136999905 1.7720019817 1.8574990034 2.3616590500  -999.250000  -999.250000 3.5783998966 1.4400999546 7.5799999237  -999.250000  -999.250000  -999.250000
 4424.6293945 8.4624948502 -0.028956659 72.385162354 121.13240051 29.200159073 0.1636099070 8.2621316910 0.2684000134 1.7879259586 1.9129790068 2.3699059486  -999.250000  -999.250000 3.5390000343 1.4910999537 7.5799999237  -999.250000  -999.250000  -999.250000
