# LAS format log file from PETREL
# Project units are specified as depth units
#==================================================================
~Version information
VERS.   2.0:
WRAP.   NO:
#==================================================================
~Well
STRT .m      4042.1052246 :
STOP .m      5226.7104492 :
STEP .m     0.00000000 :
NULL .        -999.250000 :
COMP.           : COMPANY
WELL.  Pharos 1   : WELL
FLD.            : FIELD
LOC.            : LOCATION
SRVC.           : SERVICE COMPANY
DATE.  2017-10-02 11:49:48   : Log Export Date {yyyy-MM-dd HH:mm:ss}
PROV.           : PROVINCE
UWI.   Pharos 1   : UNIQUE WELL ID
API.            : API NUMBER
#==================================================================
~Curve
DEPT .m                   : DEPTH
CAL .in                   : CAL
DRHO .g/cm3               : DRHO
DTC .us/ft                : DTC
DTS .us/ft                : DTS
GR .gAPI                  : GR
NPHI .m3/m3               : NPHI
PEF .b/e                  : PEF
POTA .%                   : POTA
RESD .ohm.m               : RESD
RESM .ohm.m               : RESM
RHOB .g/cm3               : RHOB
RT .ohm.m                 : RT
RXO .ohm.m                : RXO
THOR .ppm                 : THOR
URAN .ppm                 : URAN
Casing ._                 : Casing
Core ._                   : Core
MDTPoints ._              : MDT Points
SWC ._                    : SWC
~Parameter
#==================================================================
~Ascii
# ...
 5128.7172852 7.1441497803 0.3453590870 59.103488922 96.286727905 64.070419312 0.0306013301 10.263609886 0.6481999755 33.536209106 32.843730927 2.6561837196 30.753349304 38.759258270 12.356599808 1.7754000425 5.0000000000  -999.250000 1.0000000000 1.0000000000
 5128.8696289 7.2519307137 0.4779275954 59.050102234 97.093727112 57.554679871 0.0275163297 10.169910431 0.5379999876 32.271671295 32.584861755 2.7788450718 30.752849579 39.169990540 10.235699654 1.7217999697 5.0000000000  -999.250000 1.0000000000 1.0000000000
 5129.0219727 7.3706088066 0.5679411888 59.381549835 98.287628174 53.486869812 0.0272904299 9.8952293396 0.4878000021 30.168190002 33.115680695 2.8822469711 30.873079300 40.530830383 9.9476003647 1.5661000013 5.0000000000  -999.250000 1.0000000000 1.0000000000
 5129.1743164 7.4460296631 0.5768507123 60.041240692 99.754951477 52.193069458 0.0281304996 9.6321582794 0.4878000021 30.311389923 32.187198639 2.9031620026 31.055120468 41.922851563 9.9086999893 1.5367000103 5.0000000000  -999.250000 1.0000000000 1.0000000000
 5129.3266602 7.4067015648 0.5451067090 60.753459930 100.93880463 51.664039612 0.0291194804 8.9989757538 0.4523999989 30.963369370 30.780229568 2.8977720737 29.412969589 42.626079559 9.8140001297 1.5633000135 5.0000000000  -999.250000 1.0000000000 1.0000000000
 5129.4790039 7.1155772209 0.5054314733 61.048000336 101.40129852 51.488708496 0.0291302092 8.1738843918 0.4133000076 35.707130432 34.866119385 2.9031078815 29.366689682 42.112560272 9.4358997345 1.7250000238 5.0000000000  -999.250000 1.0000000000 1.0000000000
 5129.6318359 6.8914909363 0.4520033002 60.891330719 100.96960449 53.415458679 0.0300599393 7.5315799713 0.4417999983 47.165500641 42.579540253 2.9052000046 28.462930679 41.297550201 9.2793998718 1.6995999813 5.0000000000  -999.250000 1.0000000000 1.0000000000
 5129.7841797 6.8633270264 0.3608353138 60.571720123 99.908287048 59.675189972 0.0341029204 6.8629708290 0.5214999914 46.206699371 39.937160492 2.8600668907 27.170040131 37.164001465 10.726799965 1.9428998232 5.0000000000  -999.250000 1.0000000000 1.0000000000
 5129.9365234 6.8632259369 0.2576406896 60.401840210 99.069427490 68.334030151 0.0400716700 5.9850020409 0.6047999859 35.829849243 30.648880005 2.7959430218 23.620939255 32.215820313 12.738400459 2.1324999332 5.0000000000  -999.250000 1.0000000000 1.0000000000
 5130.0888672 6.8103919029 0.1818190068 60.722301483 98.709007263 75.944038391 0.0445916913 5.2997088432 0.7429999709 25.249599457 22.109369278 2.7522320747 21.576330185 27.322549820 13.745200157 2.4037001133 5.0000000000  -999.250000 1.0000000000 1.0000000000
 5130.2412109 6.7918381691 0.1183620989 61.326889038 98.554237366 82.625892639 0.0460314900 5.1365489960 0.7996000051 21.673490524 19.518890381 2.7063601017 18.871570587 24.844430923 14.383899689 2.5032000542 5.0000000000  -999.250000 1.0000000000 1.0000000000
 5130.3935547 6.7850408554 0.0642070919 61.539451599 98.359558105 91.002952576 0.0476467200 5.2255902290 0.9190000296 24.050910950 22.220849991 2.6565680504 19.558229446 21.931459427 16.627000809 2.6751999855 5.0000000000  -999.250000 1.0000000000 1.0000000000
 5130.5458984 6.7757906914 0.0362530686 61.066120148 98.163970947 97.473602295 0.0525359288 4.9603090286 1.0096000433 21.954000473 20.740430832 2.6355850697 19.298700333 19.567430496 18.601900101 2.7307999134 5.0000000000  -999.250000 1.0000000000 1.0000000000
 5130.6982422 6.7749600410 0.0212732106 60.166198730 98.165321350 95.736450195 0.0605300888 4.2415289879 1.0355999470 16.171569824 15.409740448 2.6265799999 19.509460449 18.773000717 17.965999603 2.5668001175 5.0000000000  -999.250000 1.0000000000 1.0000000000
 5130.8505859 6.7739911079 0.0268507414 59.432849884 97.851936340 86.329032898 0.0653399378 3.7430250645 0.9599000216 17.202920914 17.287990570 2.6298398972 17.400999069 18.267389297 15.716599464 2.1426000595 5.0000000000  -999.250000 1.0000000000 1.0000000000
 5131.0034180 6.7610487938 0.0511459783 59.125911713 97.274726868 76.433723450 0.0603244603 3.7931239605 0.8547000885 20.612020493 20.772899628 2.6473629475 23.517400742 18.801750183 13.554100037 1.7437000275 5.0000000000  -999.250000 1.0000000000 1.0000000000
 5131.1557617 6.7684159279 0.0608817488 58.988765717 97.031959534 71.391876221 0.0493292995 4.1529431343 0.8349999785 22.977880478 24.913249969 2.6568748951 28.242340088 20.757570267 13.415699959 1.5033999681 5.0000000000  -999.250000 1.0000000000 1.0000000000
 5131.3081055 6.7844958305 0.0626533329 58.904628754 97.119407654 68.251480103 0.0372432396 4.2003669739 0.7870000005 19.189929962 25.702590942 2.6682159901 34.804000854 18.717710495 13.064299583 1.3801000118 5.0000000000  -999.250000 1.0000000000 1.0000000000
 5131.4604492 6.7778477669 0.0587945618 58.986869812 97.242156982 65.065132141 0.0287828706 3.8845200539 0.7520999908 21.443370819 23.351400375 2.6812250614 33.925430298 18.222959518 12.614899635 1.2510000467 5.0000000000  -999.250000 1.0000000000 1.0000000000
 5131.6127930 6.7895898819 0.0330559984 59.301525116 97.407592773 61.554111481 0.0249664299 3.5701029301 0.6578999758 21.781520844 17.262739182 2.6729240417 35.201351166 18.145130157 11.711099625 1.1987999678 5.0000000000  -999.250000 1.0000000000 1.0000000000
 5131.7651367 6.7788109779 0.0070736301 59.742160797 97.509902954 60.514461517 0.0264784191 3.4970569611 0.6014999747 19.868389130 15.142189980 2.6565899849 38.375289917 17.719730377 11.718999863 1.3286999464 5.0000000000  -999.250000 1.0000000000 1.0000000000
 5131.9174805 6.7739911079 -0.001865352 60.084930420 97.605262756 60.648399353 0.0303615108 3.3542010784 0.6151999831 21.710569382 20.289720535 2.6490190029 36.713539124 18.357959747 11.926300049 1.2263000011 5.0000000000  -999.250000 1.0000000000 1.0000000000
 5132.0698242 6.8032441139 -0.003759210 60.147010803 98.260757446 60.469490051 0.0348700583 3.3859210014 0.6290000081 21.144489288 28.212909698 2.6536140442 31.308889389 19.728090286 11.577899933 1.1934000254 5.0000000000  -999.250000 1.0000000000 1.0000000000
 5132.2221680 6.7791528702 -0.001816841 60.093997955 99.265502930 60.645210266 0.0389355309 3.4328200817 0.6237999797 21.207019806 27.486429214 2.6647291183 27.196100235 19.560529709 11.057499886 1.3694000244 5.0000000000  -999.250000 1.0000000000 1.0000000000
 5132.3750000 6.7736649513 -0.001400921 60.389099121 99.881103516 63.986919403 0.0424966402 3.4044430256 0.6286000013 20.014900208 26.142070770 2.6688129902 25.728380203 21.915300369 11.898200035 1.5528000593 5.0000000000  -999.250000 1.0000000000 1.0000000000
 5132.5273438 6.7909855843 -0.004979512 60.900501251 100.07759857 67.922813416 0.0492858104 3.2686979771 0.6604999900 18.609199524 22.373580933 2.6622850895 24.731389999 23.443670273 13.318400383 1.5164999962 5.0000000000  -999.250000 1.0000000000 1.0000000000
 5132.6796875 6.7612290382 -0.007290574 60.744628906 100.14430237 68.951210022 0.0475907996 3.3174231052 0.6812999845 17.165519714 19.401460648 2.6576991081 23.806390762 24.121580124 13.268300056 1.6565999985 5.0000000000  -999.250000 1.0000000000 1.0000000000
 5132.8320313 6.8054051399 -0.006348118 59.528511047 99.764717102 65.499938965 0.0411273800 3.4901320934 0.6528999805 14.074469566 14.614919662 2.6631150246 19.850160599 21.500650406 11.753000259 1.7520999908 5.0000000000  -999.250000 1.0000000000 1.0000000000
 5132.9843750 6.7779698372 -0.003946682 58.073989868 98.966400146 63.228839874 0.0315310396 3.6660931110 0.6398000121 17.016099930 15.192040443 2.6784050465 16.104749680 21.580129623 11.538399696 1.5326000452 5.0000000000  -999.250000 1.0000000000 1.0000000000
 5133.1367188 6.7739911079 -0.001954674 57.672145844 98.355918884 64.218727112 0.0295611806 4.0124831200 0.6567000151 28.445749283 29.150070190 2.6996378899 21.555669785 27.208719254 11.447199821 1.6058000326 5.0000000000  -999.250000 1.0000000000 1.0000000000
 5133.2890625 6.7739911079 -0.001702904 58.609230042 98.350936890 71.396232605 0.0295076892 4.5805602074 0.8186000586 41.766948700 45.563098907 2.7200129032 32.999881744 31.874460220 12.566599846 1.7649999857 5.0000000000  -999.250000 1.0000000000 1.0000000000
