# LAS format log file from PETREL
# Project units are specified as depth units
#==================================================================
~Version information
VERS.   2.0:
WRAP.   NO:
#==================================================================
~Well
STRT .m      4042.1052246 :
STOP .m      5226.7104492 :
STEP .m     0.00000000 :
NULL .        -999.250000 :
COMP.           : COMPANY
WELL.  Pharos 1   : WELL
FLD.            : FIELD
LOC.            : LOCATION
SRVC.           : SERVICE COMPANY
DATE.  2017-10-02 11:49:48   : Log Export Date {yyyy-MM-dd HH:mm:ss}
PROV.           : PROVINCE
UWI.   Pharos 1   : UNIQUE WELL ID
API.            : API NUMBER
#==================================================================
~Curve
DEPT .m                   : DEPTH
CAL .in                   : CAL
DRHO .g/cm3               : DRHO
DTC .us/ft                : DTC
DTS .us/ft                : DTS
GR .gAPI                  : GR
NPHI .m3/m3               : NPHI
PEF .b/e                  : PEF
POTA .%                   : POTA
RESD .ohm.m               : RESD
RESM .ohm.m               : RESM
RHOB .g/cm3               : RHOB
RT .ohm.m                 : RT
RXO .ohm.m                : RXO
THOR .ppm                 : THOR
URAN .ppm                 : URAN
Casing ._                 : Casing
Core ._                   : Core
MDTPoints ._              : MDT Points
SWC ._                    : SWC
~Parameter
#==================================================================
~Ascii
# ...
 4793.2846680 8.3761358261 -0.021654220 84.404800415 153.72659302 158.50379944 0.2607426941 10.003890038 2.1168999672 2.1442670822 1.9588830471 2.6179549694  -999.250000  -999.250000 24.246700287 5.2045001984 7.5799999237  -999.250000  -999.250000  -999.250000
 4793.4370117 8.3783340454 -0.022651350 83.319908142 151.44099426 156.87390137 0.2615940869 10.113019943 2.2007999420 2.2448658943 2.0272319317 2.6201140881  -999.250000  -999.250000 23.409999847 4.9830999374 7.5799999237  -999.250000  -999.250000  -999.250000
 4793.5898438 8.3689451218 -0.021340560 82.113677979 149.38040161 154.06340027 0.2590796053 10.232310295 2.2234001160 2.1897120476 2.0747880936 2.6236350536  -999.250000  -999.250000 22.972999573 4.7669000626 7.5799999237  -999.250000  -999.250000  -999.250000
 4793.7421875 8.3626890182 -0.020397481 80.778839111 146.98440552 151.00570679 0.2540912926 10.398880005 2.1712999344 2.0636150837 1.9977539778 2.6258740425  -999.250000  -999.250000 21.980400085 4.7006998062 7.5799999237  -999.250000  -999.250000  -999.250000
 4793.8945313 8.3659763336 -0.020880589 78.973777771 143.69979858 150.32890320 0.2473255992 10.528169632 2.1201000214 2.0930380821 1.9362770319 2.6284000874  -999.250000  -999.250000 22.042999268 4.9818000793 7.5799999237  -999.250000  -999.250000  -999.250000
 4794.0468750 8.3683004379 -0.021475701 77.660896301 143.00000000 149.26480103 0.2412267029 10.485710144 2.0831999779 2.1419050694 2.0383799076 2.6356189251  -999.250000  -999.250000 21.164400101 5.0715999603 7.5799999237  -999.250000  -999.250000  -999.250000
 4794.1992188 8.3617496490 -0.020744160 77.835838318 143.27799988 148.99859619 0.2405178994 10.229669571 2.1737999916 2.0928490162 2.1650240421 2.6484448910  -999.250000  -999.250000 21.007999420 5.0426998138 7.5799999237  -999.250000  -999.250000  -999.250000
 4794.3515625 8.3572845459 -0.019744290 78.986976624 144.03430176 149.28329468 0.2421053946 9.9938364029 2.1982998848 2.2102029324 2.1968688965 2.6616790295  -999.250000  -999.250000 21.165599823 4.9052000046 7.5799999237  -999.250000  -999.250000  -999.250000
 4794.5039063 8.3620948792 -0.019784510 79.988113403 145.61579895 150.03109741 0.2424985021 9.9498682022 2.1819000244 2.1190690994 2.1396179199 2.6710100174  -999.250000  -999.250000 21.118099213 5.1620998383 7.5799999237  -999.250000  -999.250000  -999.250000
 4794.6562500 8.3685073853 -0.020822980 80.341430664 146.95599365 149.99800110 0.2394195944 10.057270050 2.1219000816 1.9047470093 2.0289220810 2.6734800339  -999.250000  -999.250000 21.828699112 5.1572999954 7.5799999237  -999.250000  -999.250000  -999.250000
 4794.8085938 8.3722305298 -0.022038801 80.528381348 147.52929688 148.26310730 0.2343332022 10.149559975 2.1758999825 1.9261809587 1.9191119671 2.6694610119  -999.250000  -999.250000 21.729999542 4.6138000488 7.5799999237  -999.250000  -999.250000  -999.250000
 4794.9614258 8.3697319031 -0.021884549 80.611038208 148.26119995 146.21009827 0.2325699031 10.158249855 2.1814000607 1.9265320301 1.8918240070 2.6625618935  -999.250000  -999.250000 21.221000671 4.5763001442 7.5799999237  -999.250000  -999.250000  -999.250000
 4795.1137695 8.3633384705 -0.021012740 80.707962036 148.11579895 145.33639526 0.2358154058 10.100529671 2.0511999130 1.9255850315 1.9200220108 2.6539790630  -999.250000  -999.250000 21.481599808 4.6178002357 7.5799999237  -999.250000  -999.250000  -999.250000
 4795.2661133 8.3651418686 -0.021512659 80.981002808 148.41099548 146.22380066 0.2363747954 10.013139725 2.1171000004 1.9635030031 1.9229409695 2.6451380253  -999.250000  -999.250000 21.647699356 4.7565999031 7.5799999237  -999.250000  -999.250000  -999.250000
 4795.4184570 8.3751716614 -0.023027580 81.187652588 148.95840454 147.86540222 0.2386492044 9.9731597900 2.0847001076 1.9402990341 1.9310799837 2.6393439770  -999.250000  -999.250000 22.091199875 4.7360000610 7.5799999237  -999.250000  -999.250000  -999.250000
 4795.5708008 8.3745708466 -0.022592820 81.054443359 149.76998901 150.28900146 0.2436318994 9.9189834595 2.2418000698 1.9253619909 1.8927400112 2.6413791180  -999.250000  -999.250000 22.644800186 4.5728001595 7.5799999237  -999.250000  -999.250000  -999.250000
 4795.7231445 8.3622159958 -0.019347159 80.519828796 150.42599487 152.13479614 0.2501724064 9.8422422409 2.2741000652 1.7873790264 1.7929209471 2.6527590752  -999.250000  -999.250000 23.908899307 4.3522000313 7.5799999237  -999.250000  -999.250000  -999.250000
 4795.8754883 8.3505096436 -0.015353820 80.353202820 151.08699036 152.46609497 0.2528263032 9.7483539581 2.2572000027 1.7177850008 1.7379260063 2.6655070782  -999.250000  -999.250000 23.531900406 4.4011001587 7.5799999237  -999.250000  -999.250000  -999.250000
 4796.0278320 8.3433094025 -0.013965490 80.984443665 150.94999695 152.21479797 0.2529241145 9.6981649399 2.2997000217 1.7684030533 1.7442920208 2.6690530777  -999.250000  -999.250000 23.644899368 4.3898000717 7.5799999237  -999.250000  -999.250000  -999.250000
 4796.1801758 8.3407239914 -0.015419760 81.686073303 150.93670654 152.00369263 0.2543447018 9.7297716141 2.3673000336 1.9073799849 1.7410659790 2.6654779911  -999.250000  -999.250000 23.690399170 4.0394001007 7.5799999237  -999.250000  -999.250000  -999.250000
 4796.3330078 8.3459510803 -0.017542111 81.904800415 151.15359497 152.09519958 0.2562150061 9.7914609909 2.4495000839 1.9634200335 1.7315629721 2.6597869396  -999.250000  -999.250000 22.978000641 4.2663998604 7.5799999237  -999.250000  -999.250000  -999.250000
 4796.4853516 8.3509969711 -0.018359231 81.908287048 151.79570007 151.81100464 0.2563157976 9.9057245255 2.4172000885 1.8355519772 1.7452880144 2.6551849842  -999.250000  -999.250000 23.070499420 4.2484002113 7.5799999237  -999.250000  -999.250000  -999.250000
 4796.6376953 8.3515815735 -0.017520860 82.158721924 152.85639954 151.76910400 0.2554171979 10.057000160 2.4623999596 1.6771060228 1.7447520494 2.6524438858  -999.250000  -999.250000 22.854799271 4.2795000076 7.5799999237  -999.250000  -999.250000  -999.250000
 4796.7900391 8.3542222977 -0.017117331 82.752532959 153.89851379 152.02799988 0.2542031109 10.157509804 2.5480999947 1.6422220469 1.6911679506 2.6525499821  -999.250000  -999.250000 22.537000656 4.2389001846 7.5799999237  -999.250000  -999.250000  -999.250000
 4796.9423828 8.3637437820 -0.019854421 83.244796753 154.39599609 152.07110596 0.2586787939 10.146860123 2.5074999332 1.6593339443 1.6249239445 2.6519138813  -999.250000  -999.250000 23.178199768 4.0703001022 7.5799999237  -999.250000  -999.250000  -999.250000
 4797.0947266 8.3791351318 -0.024072260 83.297050476 153.73109436 152.06950378 0.2622323930 10.073349953 2.5943000317 1.6498090029 1.6120710373 2.6481339931  -999.250000  -999.250000 23.418199539 3.9818000793 7.5799999237  -999.250000  -999.250000  -999.250000
 4797.2470703 8.3923454285 -0.026750540 83.066810608 153.19309998 151.62890625 0.2632999122 10.022439957 2.5281000137 1.6300059557 1.6406129599 2.6436750889  -999.250000  -999.250000 23.129800797 3.8787999153 7.5799999237  -999.250000  -999.250000  -999.250000
 4797.3994141 8.3856363297 -0.025091721 82.838600159 152.92660522 152.47590637 0.2592838109 9.9328908920 2.6577000618 1.6545399427 1.6351579428 2.6437330246  -999.250000  -999.250000 22.652299881 4.1996002197 7.5799999237  -999.250000  -999.250000  -999.250000
 4797.5517578 8.3675231934 -0.021503890 82.676818848 151.84300232 152.94520569 0.2553839982 9.8632783890 2.7295000553 1.7947740555 1.5931559801 2.6472640038  -999.250000  -999.250000 22.265100479 4.2121000290 7.5799999237  -999.250000  -999.250000  -999.250000
 4797.7045898 8.3549156189 -0.018930331 82.488159180 151.06939697 152.28669739 0.2535935938 9.8625354767 2.6788001060 1.8205389977 1.6710779667 2.6491639614  -999.250000  -999.250000 22.090599060 4.5455999374 7.5799999237  -999.250000  -999.250000  -999.250000
 4797.8569336 8.3466138840 -0.017331040 82.131103516 149.72990417 148.20739746 0.2475053072 9.9687452316 2.4981000423 1.8057860136 1.7189890146 2.6495089531  -999.250000  -999.250000 21.538999557 4.5725002289 7.5799999237  -999.250000  -999.250000  -999.250000
