# LAS format log file from PETREL
# Project units are specified as depth units
#==================================================================
~Version information
VERS.   2.0:
WRAP.   NO:
#==================================================================
~Well
STRT .m      4042.1052246 :
STOP .m      5226.7104492 :
STEP .m     0.00000000 :
NULL .        -999.250000 :
COMP.           : COMPANY
WELL.  Pharos 1   : WELL
FLD.            : FIELD
LOC.            : LOCATION
SRVC.           : SERVICE COMPANY
DATE.  2017-10-02 11:49:48   : Log Export Date {yyyy-MM-dd HH:mm:ss}
PROV.           : PROVINCE
UWI.   Pharos 1   : UNIQUE WELL ID
API.            : API NUMBER
#==================================================================
~Curve
DEPT .m                   : DEPTH
CAL .in                   : CAL
DRHO .g/cm3               : DRHO
DTC .us/ft                : DTC
DTS .us/ft                : DTS
GR .gAPI                  : GR
NPHI .m3/m3               : NPHI
PEF .b/e                  : PEF
POTA .%                   : POTA
RESD .ohm.m               : RESD
RESM .ohm.m               : RESM
RHOB .g/cm3               : RHOB
RT .ohm.m                 : RT
RXO .ohm.m                : RXO
THOR .ppm                 : THOR
URAN .ppm                 : URAN
Casing ._                 : Casing
Core ._                   : Core
MDTPoints ._              : MDT Points
SWC ._                    : SWC
~Parameter
#==================================================================
~Ascii
# ...
 4717.6943359 8.3983745575 -0.024220750 89.718322754 168.39370728 141.50840759 0.3037233055 8.7780799866 1.8539000750 2.0703220367 2.0589718819 2.5525779724  -999.250000  -999.250000 22.283300400 4.1975002289 7.5799999237  -999.250000  -999.250000  -999.250000
 4717.8466797 8.3690862656 -0.018148489 90.636947632 171.78990173 143.47959900 0.2992022932 8.7851142883 1.8680000305 1.9675339460 1.9039980173 2.5606610775  -999.250000  -999.250000 23.275199890 4.2119998932 7.5799999237  -999.250000  -999.250000  -999.250000
 4717.9990234 8.3650550842 -0.017137559 91.457458496 173.76539612 144.56300354 0.2968311012 8.9018020630 1.8141999245 1.9177479744 1.8419770002 2.5586678982  -999.250000  -999.250000 24.201999664 4.1486001015 7.5799999237  -999.250000  -999.250000  -999.250000
 4718.1513672 8.3873586655 -0.020999599 91.338706970 174.25360107 144.86950684 0.2985863984 8.9803123474 1.7641000748 1.8131519556 1.7936619520 2.5470039845  -999.250000  -999.250000 24.736400604 4.3164000511 7.5799999237  -999.250000  -999.250000  -999.250000
 4718.3041992 8.4043426514 -0.025053609 90.420433044 173.03080750 144.15379333 0.3107638955 8.9826784134 1.7014000416 1.8130700588 1.8446120024 2.5413041115  -999.250000  -999.250000 23.889499664 4.6303000450 7.5799999237  -999.250000  -999.250000  -999.250000
 4718.4565430 8.4038791656 -0.024103871 89.432502747 171.24169922 144.02090454 0.3197771013 8.9344749451 1.7861001492 1.9365619421 1.9570900202 2.5507240295  -999.250000  -999.250000 24.498199463 4.2231001854 7.5799999237  -999.250000  -999.250000  -999.250000
 4718.6088867 8.3871402740 -0.020606849 89.031173706 169.37289429 144.03039551 0.3148663938 8.9490337372 1.7631000280 2.1444830894 2.0785360336 2.5635600090  -999.250000  -999.250000 24.542100906 4.1276998520 7.5799999237  -999.250000  -999.250000  -999.250000
 4718.7612305 8.3622322083 -0.016331770 89.453742981 169.78410339 143.58760071 0.3096509874 9.0111169815 1.7748000622 2.1105620861 2.1022770405 2.5674209595  -999.250000  -999.250000 24.694400787 4.0880999565 7.5799999237  -999.250000  -999.250000  -999.250000
 4718.9135742 8.3581790924 -0.015269890 90.014389038 170.53509521 141.76229858 0.3164520860 8.9667444229 1.7218999863 1.9684610367 1.9612710476 2.5638020039  -999.250000  -999.250000 24.507999420 4.1090002060 7.5799999237  -999.250000  -999.250000  -999.250000
 4719.0659180 8.3692903519 -0.016452299 90.091659546 170.59019470 139.59959412 0.3182311058 8.8738431931 1.6523000002 1.9275929928 1.9932949543 2.5591499805  -999.250000  -999.250000 23.655099869 4.2069997787 7.5799999237  -999.250000  -999.250000  -999.250000
 4719.2182617 8.3809652328 -0.020181321 89.551292419 170.33949280 138.65859985 0.3165979087 8.7364978790 1.7024999857 2.0616009235 2.0752789974 2.5571780205  -999.250000  -999.250000 23.731100082 4.0364999771 7.5799999237  -999.250000  -999.250000  -999.250000
 4719.3706055 8.3833799362 -0.022488169 88.674713135 168.21530151 139.16560364 0.3120593131 8.6382894516 1.7114000320 2.1617898941 2.0880138874 2.5554599762  -999.250000  -999.250000 24.027500153 3.9635002613 7.5799999237  -999.250000  -999.250000  -999.250000
 4719.5234375 8.3820838928 -0.023346290 88.162590027 167.00250244 140.20799255 0.3115814030 8.5291423798 1.7498999834 2.1572461128 2.1475679874 2.5556159019  -999.250000  -999.250000 24.348499298 4.1250000000 7.5799999237  -999.250000  -999.250000  -999.250000
 4719.6757813 8.3816556931 -0.022688171 88.474517822 166.95429993 140.75729370 0.3145661056 8.5023794174 1.7342998981 1.9748359919 2.0292930603 2.5602951050  -999.250000  -999.250000 23.946399689 4.1072001457 7.5799999237  -999.250000  -999.250000  -999.250000
 4719.8281250 8.3758058548 -0.018898260 89.274681091 167.84759521 141.67219543 0.3222315907 8.6095123291 1.7914999723 2.0100948811 1.8564029932 2.5670959949  -999.250000  -999.250000 23.968599319 4.1156997681 7.5799999237  -999.250000  -999.250000  -999.250000
 4719.9804688 8.3737154007 -0.015533020 89.949623108 169.35841370 142.75430298 0.3231905997 8.7469873428 1.8018000126 2.1878879070 1.8138929605 2.5720789433  -999.250000  -999.250000 24.445299149 3.9486999512 7.5799999237  -999.250000  -999.250000  -999.250000
 4720.1328125 8.3748388290 -0.015445689 90.401802063 171.05839539 143.52070618 0.3154807985 8.8437023163 1.7030999660 2.1887989044 1.9084969759 2.5687003136  -999.250000  -999.250000 24.182199478 4.3685998917 7.5799999237  -999.250000  -999.250000  -999.250000
 4720.2851563 8.3770170212 -0.016630789 90.515007019 171.78660583 143.83740234 0.3094052076 8.8173084259 1.6867001057 1.9754320383 1.9707330465 2.5616929531  -999.250000  -999.250000 25.012500763 4.3625001907 7.5799999237  -999.250000  -999.250000  -999.250000
 4720.4375000 8.3727331161 -0.015072570 90.198966980 170.71580505 143.17790222 0.3130778968 8.7095518112 1.6870999336 2.0275990963 2.0275640488 2.5601480007  -999.250000  -999.250000 25.276699066 3.9731998444 7.5799999237  -999.250000  -999.250000  -999.250000
 4720.5898438 8.3661289215 -0.013041880 89.556579590 168.62190247 141.96290588 0.3216126859 8.6178731918 1.7009999752 2.1371119022 2.1280159950 2.5651009083  -999.250000  -999.250000 25.367900848 3.7722001076 7.5799999237  -999.250000  -999.250000  -999.250000
 4720.7421875 8.3782634735 -0.015253680 88.610473633 166.41349792 140.75599670 0.3206124008 8.5785312653 1.6383999586 2.1154949665 2.1414449215 2.5714600086  -999.250000  -999.250000 25.410200119 3.7565000057 7.5799999237  -999.250000  -999.250000  -999.250000
 4720.8950195 8.3894786835 -0.019574329 87.733489990 164.98519897 140.15049744 0.3126798868 8.6651706696 1.5996999741 2.0781939030 2.0980160236 2.5742650032  -999.250000  -999.250000 25.358299255 3.9103996754 7.5799999237  -999.250000  -999.250000  -999.250000
 4721.0473633 8.3892555237 -0.022054231 87.078285217 164.36547852 138.73159790 0.3010177016 8.8269166946 1.5408999920 2.0999429226 2.0586130619 2.5785679817  -999.250000  -999.250000 24.833000183 4.1380000114 7.5799999237  -999.250000  -999.250000  -999.250000
 4721.1997070 8.3640346527 -0.017838610 86.383796692 164.63359070 136.66140747 0.2965574861 8.9727687836 1.5494999886 2.0601410866 2.0489649773 2.5993030071  -999.250000  -999.250000 24.512100220 3.6328001022 7.5799999237  -999.250000  -999.250000  -999.250000
 4721.3520508 8.3658208847 -0.018832650 84.842002869 164.40339661 135.45010376 0.2984094024 9.2197332382 1.5319000483 2.0571889877 2.0205750465 2.6386258602  -999.250000  -999.250000 24.644199371 3.7049999237 7.5799999237  -999.250000  -999.250000  -999.250000
 4721.5043945 8.3669319153 -0.020601900 82.606086731 165.26469421 131.51770020 0.2943671942 9.4166193008 1.4859999418 2.2373380661 2.1145350933 2.6689000130  -999.250000  -999.250000 23.816999435 3.6410000324 7.5799999237  -999.250000  -999.250000  -999.250000
 4721.6567383 8.3914222717 -0.024991861 81.349693298 164.05580139 124.74880219 0.2898494899 9.4461755753 1.3766000271 2.5159699917 2.2629671097 2.6625900269  -999.250000  -999.250000 22.493799210 3.5069999695 7.5799999237  -999.250000  -999.250000  -999.250000
 4721.8090820 8.3968944550 -0.024493400 81.685417175 160.24400330 120.11060333 0.2898989022 9.2082862854 1.3926000595 2.3427319527 2.2187659740 2.6263298988  -999.250000  -999.250000 21.738899231 2.9086000919 7.5799999237  -999.250000  -999.250000  -999.250000
 4721.9614258 8.3962030411 -0.023596410 83.574989319 161.33160400 123.36859894 0.2996039093 8.9260091782 1.4305000305 2.0195899010 2.0730669498 2.5928919315  -999.250000  -999.250000 22.303499222 2.9835999012 7.5799999237  -999.250000  -999.250000  -999.250000
 4722.1137695 8.4049444199 -0.025916180 85.942962646 161.45080566 132.39700317 0.3108437061 8.7751188278 1.5578000546 1.8205809593 1.9345200062 2.5758929253  -999.250000  -999.250000 24.049400330 3.5492999554 7.5799999237  -999.250000  -999.250000  -999.250000
 4722.2666016 8.4071254730 -0.026940409 87.443916321 166.50120544 138.08360291 0.3090283871 8.7146606445 1.6265999079 1.8002680540 1.9002269506 2.5679860115  -999.250000  -999.250000 24.827699661 3.5646998882 7.5799999237  -999.250000  -999.250000  -999.250000
