# LAS format log file from PETREL
# Project units are specified as depth units
#==================================================================
~Version information
VERS.   2.0:
WRAP.   NO:
#==================================================================
~Well
STRT .m      4042.1052246 :
STOP .m      5226.7104492 :
STEP .m     0.00000000 :
NULL .        -999.250000 :
COMP.           : COMPANY
WELL.  Pharos 1   : WELL
FLD.            : FIELD
LOC.            : LOCATION
SRVC.           : SERVICE COMPANY
DATE.  2017-10-02 11:49:48   : Log Export Date {yyyy-MM-dd HH:mm:ss}
PROV.           : PROVINCE
UWI.   Pharos 1   : UNIQUE WELL ID
API.            : API NUMBER
#==================================================================
~Curve
DEPT .m                   : DEPTH
CAL .in                   : CAL
DRHO .g/cm3               : DRHO
DTC .us/ft                : DTC
DTS .us/ft                : DTS
GR .gAPI                  : GR
NPHI .m3/m3               : NPHI
PEF .b/e                  : PEF
POTA .%                   : POTA
RESD .ohm.m               : RESD
RESM .ohm.m               : RESM
RHOB .g/cm3               : RHOB
RT .ohm.m                 : RT
RXO .ohm.m                : RXO
THOR .ppm                 : THOR
URAN .ppm                 : URAN
Casing ._                 : Casing
Core ._                   : Core
MDTPoints ._              : MDT Points
SWC ._                    : SWC
~Parameter
#==================================================================
~Ascii
# ...
 4193.2861328 8.3994913101 -0.023639441 99.841072083 211.27250671 85.403450012 0.2677592039 8.5804500580 1.5960998535 0.8358368278 0.8069791794 2.4902091026  -999.250000  -999.250000 11.022399902 2.6350998878 7.5799999237  -999.250000  -999.250000  -999.250000
 4193.4384766 8.3984870911 -0.022979690 99.638671875 206.10169983 85.356643677 0.2783659101 8.5780792236 1.5904999971 0.8566200137 0.8305627704 2.4960370064  -999.250000  -999.250000 10.935500145 2.5160999298 7.5799999237  -999.250000  -999.250000  -999.250000
 4193.5908203 8.4033765793 -0.023144411 99.704101563 203.19450378 85.803749084 0.2843559086 8.5390243530 1.6569999456 0.8662816286 0.8312004805 2.5005350113  -999.250000  -999.250000 11.749400139 2.3573000431 7.5799999237  -999.250000  -999.250000  -999.250000
 4193.7431641 8.3987703323 -0.022431770 99.857650757 203.93458557 84.923599243 0.2873036861 8.4994516373 1.6015000343 0.8328946829 0.8217440844 2.5044720173  -999.250000  -999.250000 11.504799843 2.2737998962 7.5799999237  -999.250000  -999.250000  -999.250000
 4193.8955078 8.3978729248 -0.022860920 99.913116455 206.19219971 84.098213196 0.2880322039 8.4629487991 1.5533000231 0.8141281009 0.8091977835 2.5074489117  -999.250000  -999.250000 11.654700279 2.2985000610 7.5799999237  -999.250000  -999.250000  -999.250000
 4194.0478516 8.3957328796 -0.022783211 99.703613281 208.57820129 83.388572693 0.2838136852 8.4454412460 1.5012999773 0.8184835911 0.8033933043 2.5065310001  -999.250000  -999.250000 12.048600197 2.0790998936 7.5799999237  -999.250000  -999.250000  -999.250000
 4194.2001953 8.3985919952 -0.022735771 99.364067078 209.92430115 83.681221008 0.2764894068 8.4405660629 1.4766999483 0.8379932046 0.8019506931 2.5015809536  -999.250000  -999.250000 12.180800438 2.1249001026 7.5799999237  -999.250000  -999.250000  -999.250000
 4194.3530273 8.3978147507 -0.021443430 99.153846741 207.48957825 84.156143188 0.2752836943 8.4239149094 1.5173000097 0.8424730897 0.8030276895 2.4955170155  -999.250000  -999.250000 12.534999847 2.1098999977 7.5799999237  -999.250000  -999.250000  -999.250000
 4194.5053711 8.3952541351 -0.020734880 99.227401733 206.38459778 84.056221008 0.2769936919 8.4173555374 1.4546999931 0.8322740793 0.8037697077 2.4903750420  -999.250000  -999.250000 12.018300056 2.3580000401 7.5799999237  -999.250000  -999.250000  -999.250000
 4194.6577148 8.3953542709 -0.021301789 99.506706238 204.77830505 84.106819153 0.2788906991 8.3904657364 1.4680000544 0.8310965896 0.8064938784 2.4881958961  -999.250000  -999.250000 12.304100037 2.1319000721 7.5799999237  -999.250000  -999.250000  -999.250000
 4194.8100586 8.4045267105 -0.023441929 99.723419189 205.90588379 84.717018127 0.2748663127 8.3047256470 1.4220999479 0.8281412125 0.8029174209 2.4879701138  -999.250000  -999.250000 12.370200157 2.2518000603 7.5799999237  -999.250000  -999.250000  -999.250000
 4194.9624023 8.4176425934 -0.024685521 99.781539917 207.34179688 85.581626892 0.2731739879 8.2489156723 1.4443000555 0.8056889772 0.8012297153 2.4883370399  -999.250000  -999.250000 12.419099808 2.4393999577 7.5799999237  -999.250000  -999.250000  -999.250000
 4195.1147461 8.4231891632 -0.024618899 99.543502808 207.91279602 85.389602661 0.2766169906 8.3266077042 1.4232000113 0.8116974831 0.8095605969 2.4882380962  -999.250000  -999.250000 11.992300034 2.6108000278 7.5799999237  -999.250000  -999.250000  -999.250000
 4195.2670898 8.4111423492 -0.023106690 99.228958130 206.69960022 83.873840332 0.2811397910 8.4824104309 1.3983999491 0.8463891149 0.8282545209 2.4907848835  -999.250000  -999.250000 10.996600151 2.7112998962 7.5799999237  -999.250000  -999.250000  -999.250000
 4195.4194336 8.3964843750 -0.022135429 99.030326843 203.81440735 82.097602844 0.2830368876 8.5584650040 1.3285000324 0.8447014093 0.8443263769 2.4968979359  -999.250000  -999.250000 10.512100220 2.8190999031 7.5799999237  -999.250000  -999.250000  -999.250000
 4195.5717773 8.3890047073 -0.021396801 98.866630554 200.38020325 81.447891235 0.2813749909 8.5674724579 1.3874000311 0.8321887255 0.8424069881 2.5017480850  -999.250000  -999.250000 10.362099648 2.6575000286 7.5799999237  -999.250000  -999.250000  -999.250000
 4195.7246094 8.3920898438 -0.021809051 99.024581909 200.55799866 82.392448425 0.2801774144 8.5723018646 1.4023000002 0.8291103244 0.8316786289 2.5028550625  -999.250000  -999.250000 10.267600060 2.7597999573 7.5799999237  -999.250000  -999.250000  -999.250000
 4195.8769531 8.3930788040 -0.022426730 99.371261597 203.08309937 84.081939697 0.2819303870 8.5321035385 1.4503999949 0.8228409886 0.8139681816 2.4998300076  -999.250000  -999.250000 10.769000053 2.7953999043 7.5799999237  -999.250000  -999.250000  -999.250000
 4196.0292969 8.3912439346 -0.022824770 99.764717102 206.12800598 85.293006897 0.2843742967 8.4287824631 1.3976999521 0.7994679809 0.8040835857 2.4958450794  -999.250000  -999.250000 10.997200012 3.0057001114 7.5799999237  -999.250000  -999.250000  -999.250000
 4196.1816406 8.3934440613 -0.023237310 100.12840271 209.20719910 85.634567261 0.2876208127 8.3737258911 1.3862999678 0.7927690744 0.8041707873 2.4937660694  -999.250000  -999.250000 10.983300209 2.9316000938 7.5799999237  -999.250000  -999.250000  -999.250000
 4196.3339844 8.3982248306 -0.022608720 100.17240143 208.78329468 85.100982666 0.2878369093 8.4255981445 1.4201999903 0.7989364862 0.8057782054 2.4933938980  -999.250000  -999.250000 10.633299828 2.9932999611 7.5799999237  -999.250000  -999.250000  -999.250000
 4196.4863281 8.4028882980 -0.021784279 99.953987122 207.87539673 84.339790344 0.2851439118 8.5150718689 1.4198000431 0.8035367727 0.8066353798 2.4927589893  -999.250000  -999.250000 10.218000412 2.8852999210 7.5799999237  -999.250000  -999.250000  -999.250000
 4196.6386719 8.4063396454 -0.022358270 99.710418701 205.22210693 84.493461609 0.2788769007 8.5743026733 1.4747999907 0.8372244835 0.8114209771 2.4909648895  -999.250000  -999.250000 10.065699577 2.9447000027 7.5799999237  -999.250000  -999.250000  -999.250000
 4196.7910156 8.4120969772 -0.024373589 99.546379089 203.19749451 85.047622681 0.2733294070 8.5765562057 1.4460999966 0.8571913838 0.8244484067 2.4884130955  -999.250000  -999.250000 10.414600372 2.7620999813 7.5799999237  -999.250000  -999.250000  -999.250000
 4196.9433594 8.4197340012 -0.026433989 99.540939331 202.22149658 85.582443237 0.2724092007 8.5546646118 1.4651000500 0.9229484200 0.8205363750 2.4884369373  -999.250000  -999.250000 10.810799599 2.8494000435 7.5799999237  -999.250000  -999.250000  -999.250000
 4197.0961914 8.4227809906 -0.027500769 99.697868347 203.11610413 85.188461304 0.2734957933 8.5571384430 1.4349000454 0.9547312260 0.8093717098 2.4908359051  -999.250000  -999.250000 10.561499596 2.7230999470 7.5799999237  -999.250000  -999.250000  -999.250000
 4197.2485352 8.4194221497 -0.027037710 99.942749023 206.69749451 84.949493408 0.2760573030 8.5803985596 1.4081000090 0.8961541057 0.7871962190 2.4926130772  -999.250000  -999.250000 10.256299973 2.9709000587 7.5799999237  -999.250000  -999.250000  -999.250000
 4197.4008789 8.4122667313 -0.025995171 100.19300079 209.60780334 85.235290527 0.2783136070 8.6215114594 1.4091000557 0.8271868229 0.7721335292 2.4915730953  -999.250000  -999.250000 10.417099953 2.7811000347 7.5799999237  -999.250000  -999.250000  -999.250000
 4197.5532227 8.4074010849 -0.024818771 100.22760010 210.70820618 86.612030029 0.2804740071 8.6673364639 1.4692000151 0.8437097073 0.7812622190 2.4891819954  -999.250000  -999.250000 10.728699684 2.8020000458 7.5799999237  -999.250000  -999.250000  -999.250000
 4197.7055664 8.4079160690 -0.024048369 100.13809967 209.82369995 87.388351440 0.2814995944 8.7030267715 1.4686000347 0.8597553968 0.7823389769 2.4889290333  -999.250000  -999.250000 10.825900078 2.7474999428 7.5799999237  -999.250000  -999.250000  -999.250000
 4197.8579102 8.4078311920 -0.023838280 100.18430328 208.94769287 87.526077271 0.2800984979 8.6702165604 1.5211999416 0.8078507781 0.7694457769 2.4895269871  -999.250000  -999.250000 11.313400269 2.5297000408 7.5799999237  -999.250000  -999.250000  -999.250000
