# LAS format log file from PETREL
# Project units are specified as depth units
#==================================================================
~Version information
VERS.   2.0:
WRAP.   NO:
#==================================================================
~Well
STRT .m      4042.1052246 :
STOP .m      5226.7104492 :
STEP .m     0.00000000 :
NULL .        -999.250000 :
COMP.           : COMPANY
WELL.  Pharos 1   : WELL
FLD.            : FIELD
LOC.            : LOCATION
SRVC.           : SERVICE COMPANY
DATE.  2017-10-02 11:49:48   : Log Export Date {yyyy-MM-dd HH:mm:ss}
PROV.           : PROVINCE
UWI.   Pharos 1   : UNIQUE WELL ID
API.            : API NUMBER
#==================================================================
~Curve
DEPT .m                   : DEPTH
CAL .in                   : CAL
DRHO .g/cm3               : DRHO
DTC .us/ft                : DTC
DTS .us/ft                : DTS
GR .gAPI                  : GR
NPHI .m3/m3               : NPHI
PEF .b/e                  : PEF
POTA .%                   : POTA
RESD .ohm.m               : RESD
RESM .ohm.m               : RESM
RHOB .g/cm3               : RHOB
RT .ohm.m                 : RT
RXO .ohm.m                : RXO
THOR .ppm                 : THOR
URAN .ppm                 : URAN
Casing ._                 : Casing
Core ._                   : Core
MDTPoints ._              : MDT Points
SWC ._                    : SWC
~Parameter
#==================================================================
~Ascii
# ...
 4868.8750000 8.3839540482 -0.024194971 84.029403687 155.81669617 139.70280457 0.2628664076 9.5039806366 2.2995998859 2.1771140099 2.2134718895 2.6582491398  -999.250000  -999.250000 21.138799667 3.6175999641 7.5799999237  -999.250000  -999.250000  -999.250000
 4869.0278320 8.3799114227 -0.023535930 85.066787720 156.85749817 142.96600342 0.2676745951 9.4515247345 2.3385000229 2.2675609589 2.2577450275 2.6551909447  -999.250000  -999.250000 21.347200394 3.8643002510 7.5799999237  -999.250000  -999.250000  -999.250000
 4869.1801758 8.3677721024 -0.021345669 86.334518433 157.68469238 147.53280640 0.2729165852 9.3591032028 2.3506000042 2.2912559509 2.2791669369 2.6471960545  -999.250000  -999.250000 22.383899689 4.0866999626 7.5799999237  -999.250000  -999.250000  -999.250000
 4869.3325195 8.3605690002 -0.017634120 86.740463257 157.87669373 150.75900269 0.2725056112 9.3338050842 2.3433001041 2.2105870247 2.2222120762 2.6444160938  -999.250000  -999.250000 22.910100937 4.5515999794 7.5799999237  -999.250000  -999.250000  -999.250000
 4869.4848633 8.3534698486 -0.012665900 85.415077209 155.86968994 149.09570313 0.2694461048 9.3182687759 2.3980998993 2.0858600140 2.1312110424 2.6451940536  -999.250000  -999.250000 22.605699539 4.3014998436 7.5799999237  -999.250000  -999.250000  -999.250000
 4869.6372070 8.3511104584 -0.010973820 82.405372620 153.03408813 141.79939270 0.2669506073 9.2716922760 2.2871000767 2.0545248985 2.0916020870 2.6415219307  -999.250000  -999.250000 21.541900635 4.0096998215 7.5799999237  -999.250000  -999.250000  -999.250000
 4869.7895508 8.3493194580 -0.013433190 79.950698853 152.49780273 132.58189392 0.2653777897 9.2618408203 2.0592999458 2.0650908947 2.0897810459 2.6327381134  -999.250000  -999.250000 19.743799210 3.9515998363 7.5799999237  -999.250000  -999.250000  -999.250000
 4869.9418945 8.3419561386 -0.015283190 80.037681580 152.01600647 128.95860291 0.2629472911 9.4195699692 1.9830999374 2.0609838963 2.0786290169 2.6318340302  -999.250000  -999.250000 18.221000671 4.1054000854 7.5799999237  -999.250000  -999.250000  -999.250000
 4870.0942383 8.3317394257 -0.013808410 82.322402954 153.17340088 134.01890564 0.2585082948 9.7076778412 2.1544001102 2.0560660362 2.0641970634 2.6507260799  -999.250000  -999.250000 18.713800430 4.3951001167 7.5799999237  -999.250000  -999.250000  -999.250000
 4870.2465820 8.3256912231 -0.013269890 84.434951782 154.45539856 142.09190369 0.2453410029 9.9893579483 2.2446000576 2.0411989689 2.0453190804 2.6816840172  -999.250000  -999.250000 20.513200760 4.8246002197 7.5799999237  -999.250000  -999.250000  -999.250000
 4870.3994141 8.3360385895 -0.015627580 84.938903809 155.41207886 146.90859985 0.2371512949 9.9594545364 2.3176999092 1.9806480408 1.9804120064 2.6943418980  -999.250000  -999.250000 21.825199127 4.8464999199 7.5799999237  -999.250000  -999.250000  -999.250000
 4870.5517578 8.3503627777 -0.018243050 85.209167480 157.60879517 147.60110474 0.2440495044 9.7064962387 2.2683999538 1.9454569817 1.9531430006 2.6777169704  -999.250000  -999.250000 21.792600632 5.0803999901 7.5799999237  -999.250000  -999.250000  -999.250000
 4870.7041016 8.3622503281 -0.019990940 85.759445190 157.42750549 147.75360107 0.2618167102 9.4682722092 2.2386999130 1.9199169874 1.9180450439 2.6489899158  -999.250000  -999.250000 22.171600342 4.8232002258 7.5799999237  -999.250000  -999.250000  -999.250000
 4870.8564453 8.3684358597 -0.020579590 85.962249756 157.13099670 149.97799683 0.2709532976 9.4281568527 2.3347001076 1.8966499567 1.8743009567 2.6338729858  -999.250000  -999.250000 22.327699661 5.0967001915 7.5799999237  -999.250000  -999.250000  -999.250000
 4871.0087891 8.3864364624 -0.024278820 85.679290771 157.21459961 152.09140015 0.2651315033 9.5177431107 2.3654000759 1.8793410063 1.8566659689 2.6262357235  -999.250000  -999.250000 22.207899094 5.2554001808 7.5799999237  -999.250000  -999.250000  -999.250000
 4871.1611328 8.3920679092 -0.025218830 85.271148682 157.32820129 152.46800232 0.2565979958 9.5892734528 2.3069999218 1.8431440592 1.8461409807 2.6179409027  -999.250000  -999.250000 22.654699326 5.4551000595 7.5799999237  -999.250000  -999.250000  -999.250000
 4871.3134766 8.3827199936 -0.023486171 84.798828125 157.66259766 151.59959412 0.2580212057 9.5551519394 2.2341001034 1.8214230537 1.8226640224 2.6159830093  -999.250000  -999.250000 22.273599625 5.5188999176 7.5799999237  -999.250000  -999.250000  -999.250000
 4871.4658203 8.3617897034 -0.018526331 84.492286682 157.59320068 151.54280090 0.2595382035 9.5044755936 2.2335000038 1.8668810129 1.8579139709 2.6240088940  -999.250000  -999.250000 22.431999207 5.5020999908 7.5799999237  -999.250000  -999.250000  -999.250000
 4871.6181641 8.3452081680 -0.014563250 83.986862183 157.75379944 151.98699951 0.2610858977 9.5323038101 2.1719999313 2.0070099831 1.9906189442 2.6361451149  -999.250000  -999.250000 22.993700027 5.4425997734 7.5799999237  -999.250000  -999.250000  -999.250000
 4871.7709961 8.3454999924 -0.014663780 83.170272827 155.95129395 151.28140259 0.2630521953 9.6234531403 2.1006999016 2.1436278820 2.1402199268 2.6394879818  -999.250000  -999.250000 23.125000000 5.5142998695 7.5799999237  -999.250000  -999.250000  -999.250000
 4871.9233398 8.3510656357 -0.014793990 82.785507202 155.81010437 148.59179688 0.2677108943 9.7137022018 2.0334999561 2.2221539021 2.2341899872 2.6345500946  -999.250000  -999.250000 22.382900238 5.5053000450 7.5799999237  -999.250000  -999.250000  -999.250000
 4872.0756836 8.3410367966 -0.012128970 82.988105774 154.97540283 145.35609436 0.2756558061 9.6036911011 1.9551001787 2.1934199333 2.2138218880 2.6355938911  -999.250000  -999.250000 21.872999191 5.2550997734 7.5799999237  -999.250000  -999.250000  -999.250000
 4872.2280273 8.3283834457 -0.009040262 83.355102539 153.40620422 143.80900574 0.2789323926 9.4168243408 1.9646999836 2.0329210758 2.1043570042 2.6488881111  -999.250000  -999.250000 21.339300156 5.0462999344 7.5799999237  -999.250000  -999.250000  -999.250000
 4872.3803711 8.3288278580 -0.010974060 83.747543335 154.58830261 145.30520630 0.2722634971 9.2936401367 1.9371999502 1.9371880293 2.0044040680 2.6696949005  -999.250000  -999.250000 21.225299835 5.4169998169 7.5799999237  -999.250000  -999.250000  -999.250000
 4872.5327148 8.3441619873 -0.014927860 83.989906311 153.99699402 148.76210022 0.2635453939 9.2894105911 1.9627999067 1.9399499893 1.9413870573 2.6737740040  -999.250000  -999.250000 22.204500198 5.4946999550 7.5799999237  -999.250000  -999.250000  -999.250000
 4872.6850586 8.3443393707 -0.014552200 84.137489319 155.16310120 151.66090393 0.2615185976 9.3377017975 1.9493000507 1.9471069574 1.9453489780 2.6623721123  -999.250000  -999.250000 23.410600662 5.3431000710 7.5799999237  -999.250000  -999.250000  -999.250000
 4872.8374023 8.3289203644 -0.011864280 84.283691406 155.61470032 153.71209717 0.2664350867 9.2983741760 1.9437000751 1.9785269499 1.9709310532 2.6480469704  -999.250000  -999.250000 23.236900330 5.6268000603 7.5799999237  -999.250000  -999.250000  -999.250000
 4872.9902344 8.3375597000 -0.013250000 83.757423401 154.31539917 154.65190125 0.2740707099 9.4007139206 1.9879000187 1.9960180521 1.9851050377 2.6361010075  -999.250000  -999.250000 23.580699921 5.5457000732 7.5799999237  -999.250000  -999.250000  -999.250000
 4873.1425781 8.3550739288 -0.016972290 82.586769104 154.07739258 153.39729309 0.2822774947 9.5416107178 1.9308998585 2.0531740189 2.0625469685 2.6246769428  -999.250000  -999.250000 23.927999496 5.3998999596 7.5799999237  -999.250000  -999.250000  -999.250000
 4873.2949219 8.3601284027 -0.018309280 81.586235046 154.02900696 149.55880737 0.2897945940 9.6429643631 1.8841000795 2.1414051056 2.1457641125 2.6127738953  -999.250000  -999.250000 23.035800934 5.5310997963 7.5799999237  -999.250000  -999.250000  -999.250000
 4873.4472656 8.3406686783 -0.013251690 81.505233765 153.49409485 144.68060303 0.2904430032 9.6483564377 1.7711000443 2.1680090427 2.1824619770 2.6141309738  -999.250000  -999.250000 21.749799728 5.3232998848 7.5799999237  -999.250000  -999.250000  -999.250000
