# LAS format log file from PETREL
# Project units are specified as depth units
#==================================================================
~Version information
VERS.   2.0:
WRAP.   NO:
#==================================================================
~Well
STRT .m      4042.1052246 :
STOP .m      5226.7104492 :
STEP .m     0.00000000 :
NULL .        -999.250000 :
COMP.           : COMPANY
WELL.  Pharos 1   : WELL
FLD.            : FIELD
LOC.            : LOCATION
SRVC.           : SERVICE COMPANY
DATE.  2017-10-02 11:49:48   : Log Export Date {yyyy-MM-dd HH:mm:ss}
PROV.           : PROVINCE
UWI.   Pharos 1   : UNIQUE WELL ID
API.            : API NUMBER
#==================================================================
~Curve
DEPT .m                   : DEPTH
CAL .in                   : CAL
DRHO .g/cm3               : DRHO
DTC .us/ft                : DTC
DTS .us/ft                : DTS
GR .gAPI                  : GR
NPHI .m3/m3               : NPHI
PEF .b/e                  : PEF
POTA .%                   : POTA
RESD .ohm.m               : RESD
RESM .ohm.m               : RESM
RHOB .g/cm3               : RHOB
RT .ohm.m                 : RT
RXO .ohm.m                : RXO
THOR .ppm                 : THOR
URAN .ppm                 : URAN
Casing ._                 : Casing
Core ._                   : Core
MDTPoints ._              : MDT Points
SWC ._                    : SWC
~Parameter
#==================================================================
~Ascii
# ...
 5204.3076172 6.9479990005 0.1075927019 67.430618286 127.77369690 22.616149902 0.0736067966 7.0487031937  -999.250000 49.203529358 38.135929108 2.7418711185 36.518711090 83.061241150  -999.250000  -999.250000 5.0000000000  -999.250000  -999.250000  -999.250000
 5204.4599609 6.8272085190 0.0764054880 68.459220886 127.27390289 16.740070343 0.0649221763 7.1392731667  -999.250000 31.705730438 34.066631317 2.7380468845 33.639820099 123.19609833  -999.250000  -999.250000 5.0000000000  -999.250000  -999.250000  -999.250000
 5204.6123047 6.8279438019 0.0588595495 68.000991821 124.19200134 14.543390274 0.0646199211 8.5840291977  -999.250000 16.770530701 21.953239441 2.7305819988 32.544979095 161.37049866  -999.250000  -999.250000 5.0000000000  -999.250000  -999.250000  -999.250000
 5204.7646484 6.8438019753 0.0699349493 66.113891602 119.94619751 14.624659538 0.0633894876 11.030429840  -999.250000 12.354249954 17.249149323 2.6891810894 28.546899796 177.94299316  -999.250000  -999.250000 5.0000000000  -999.250000  -999.250000  -999.250000
 5204.9169922 6.7841939926 0.1019299999 63.222404480 114.22689819 14.412170410 0.0605932102 13.562459946  -999.250000 15.516980171 26.981920242 2.6143190861 30.863809586 141.54739380  -999.250000  -999.250000 5.0000000000  -999.250000  -999.250000  -999.250000
 5205.0698242 4.4987368584 0.1534029990 59.869468689 107.38690186 14.347669601 0.0628829524 15.857379913  -999.250000 19.457380295 38.583290100 2.5616860390 37.657539368 91.636009216  -999.250000  -999.250000 5.0000000000  -999.250000  -999.250000  -999.250000
 5205.2221680 1.9379240274 0.2431584001 56.823421478  -999.250000 16.039949417 0.0758620128 17.871089935  -999.250000 16.221090317 28.831550598 2.5793440342 31.765029907 62.962429047  -999.250000  -999.250000 5.0000000000  -999.250000  -999.250000  -999.250000
 5205.3745117 1.9285260439 0.3531475365 54.839828491  -999.250000 21.671220779 0.0938582122 19.562299728  -999.250000 13.550689697 16.619920731 2.6413340569 24.446039200 39.782039642  -999.250000  -999.250000 5.0000000000  -999.250000  -999.250000  -999.250000
 5205.5268555 1.9203449488 0.4249494970 54.087139130  -999.250000 31.497829437 0.1023852974 21.076450348  -999.250000 17.401269913 17.174299240 2.6648170948 16.377630234 23.362899780  -999.250000  -999.250000 5.0000000000  -999.250000  -999.250000  -999.250000
 5205.6791992 1.9206559658 0.4582827091 54.011058807  -999.250000 41.672809601 0.1021481007 22.384429932  -999.250000 15.405509949 13.105750084 2.6559441090 11.261119843 11.382969856  -999.250000  -999.250000 5.0000000000  -999.250000  -999.250000  -999.250000
 5205.8315430 1.9274660349 0.4877021909  -999.250000  -999.250000 48.309070587 0.1114625037 23.406450272  -999.250000 8.9359178543 7.0980811119 2.6603269577 7.2061338425 8.8836507797  -999.250000  -999.250000 5.0000000000  -999.250000  -999.250000  -999.250000
 5205.9838867 1.9199849367 0.5129804015  -999.250000  -999.250000 50.571411133 0.1409579962 23.806770325  -999.250000 6.4115600586 4.8539400101 2.6719460487 5.0460238457 6.0991630554  -999.250000  -999.250000 5.0000000000  -999.250000  -999.250000  -999.250000
 5206.1362305 1.9154169559 0.5263242722  -999.250000  -999.250000 51.113628387 0.1813773960 23.634960175  -999.250000 6.0810470581 5.2311801910 2.6780080795 4.8946661949 6.2094678879  -999.250000  -999.250000 5.0000000000  -999.250000  -999.250000  -999.250000
 5206.2885742 1.9175319672 0.5315222740  -999.250000  -999.250000 54.958190918 0.2059365958 23.516550064  -999.250000 5.6513037682 5.5181198120 2.6791610718 4.9017419815 6.4979820251  -999.250000  -999.250000 5.0000000000  -999.250000  -999.250000  -999.250000
 5206.4414063 1.9281539917 0.5325427055  -999.250000  -999.250000 62.327590942 0.2100728005 23.494159698  -999.250000 5.2558689117 5.5140361786 2.6771299839 4.8329482079 7.0303821564  -999.250000  -999.250000 5.0000000000  -999.250000  -999.250000  -999.250000
 5206.5937500 1.9409730434 0.5335289240  -999.250000  -999.250000 61.935920715 0.2006409019 23.222349167  -999.250000 5.7525649071 7.0426812172 2.6767940521 4.3376479149 9.2283821106  -999.250000  -999.250000 5.0000000000  -999.250000  -999.250000  -999.250000
 5206.7460938 1.9212510586 0.5325626731  -999.250000  -999.250000 47.063041687 0.1523528993 22.813869476  -999.250000 7.8634548187 13.625260353 2.6755840778 5.1393280029 12.086170197  -999.250000  -999.250000 5.0000000000  -999.250000  -999.250000  -999.250000
 5206.8984375 1.9207460880 0.5329213738  -999.250000  -999.250000 33.489940643 0.0805502236 21.957519531  -999.250000 10.576459885 24.819549561 2.6758840084 5.9630942345 24.569450378  -999.250000  -999.250000 5.0000000000  -999.250000  -999.250000  -999.250000
 5207.0507813 1.9274660349 0.5339224935  -999.250000  -999.250000 34.167430878 0.0359843709 21.497949600  -999.250000 10.346469879 19.847719193 2.6766819954 5.9222469330 34.003288269  -999.250000  -999.250000 5.0000000000  -999.250000  -999.250000  -999.250000
 5207.2031250 1.9169440269 0.5336670280  -999.250000  -999.250000 41.107379913 0.0403400511 21.866390228  -999.250000 10.859399796 14.610930443 2.6761116982 7.6433200836 24.302259445  -999.250000  -999.250000 5.0000000000  -999.250000  -999.250000  -999.250000
 5207.3554688 1.9229339361 0.5347332954  -999.250000  -999.250000 39.029289246 0.1023112983 23.276580811  -999.250000 10.326609612 10.516260147 2.6774909496 8.9168281555 12.501779556  -999.250000  -999.250000 5.0000000000  -999.250000  -999.250000  -999.250000
 5207.5078125 1.9274660349 0.5383219719  -999.250000  -999.250000 32.048240662 0.2064024955 24.247489929  -999.250000 7.6273918152 6.1227440834 2.6791729927 7.1916117668 6.4275031090  -999.250000  -999.250000 5.0000000000  -999.250000  -999.250000  -999.250000
 5207.6601563 1.9274660349 0.5390080810  -999.250000  -999.250000 30.247400284 0.2770594954 24.365640640  -999.250000 5.9821639061 4.4003171921 2.6771509647 6.2933650017 4.0745477676  -999.250000  -999.250000 5.0000000000  -999.250000  -999.250000  -999.250000
 5207.8129883 1.9376461506 0.5356371999  -999.250000  -999.250000 32.402599335 0.2629955113 23.583610535  -999.250000 5.4847459793 3.8102939129 2.6723690033 4.2548317909 2.8624920845  -999.250000  -999.250000 5.0000000000  -999.250000  -999.250000  -999.250000
 5207.9653320 1.9433029890 0.5347945094  -999.250000  -999.250000 36.077049255 0.2485993952 23.105430603  -999.250000 3.2769269943 2.4452459812 2.6714749336 3.7263751030 2.1732609272  -999.250000  -999.250000 5.0000000000  -999.250000  -999.250000  -999.250000
 5208.1176758 1.9310410023 0.5338187814  -999.250000  -999.250000 39.933219910 0.2524355948 22.590909958  -999.250000 1.6357640028 1.3320759535 2.6707100868 3.1090478897 1.8494729996  -999.250000  -999.250000 5.0000000000  -999.250000  -999.250000  -999.250000
 5208.2700195 1.9128400087 0.5326666236  -999.250000  -999.250000 42.238960266 0.2839638889  -999.250000  -999.250000 1.2938020229 1.0782710314 2.6695239544 2.7547090054 1.7181700468  -999.250000  -999.250000 5.0000000000  -999.250000  -999.250000  -999.250000
 5208.4223633 1.9605340958  -999.250000  -999.250000  -999.250000 41.977588654 0.3171784878  -999.250000  -999.250000 1.8938579559 1.5248579979  -999.250000 2.5965640545 1.7261359692  -999.250000  -999.250000 5.0000000000  -999.250000  -999.250000  -999.250000
 5208.5747070 1.9349828959  -999.250000  -999.250000  -999.250000 40.066589355 0.3367184103  -999.250000  -999.250000 3.0804529190 2.4405159950  -999.250000 2.5877959728 1.8547919989  -999.250000  -999.250000 5.0000000000  -999.250000  -999.250000  -999.250000
 5208.7270508 1.9274660349  -999.250000  -999.250000  -999.250000 38.586681366 0.3208566904  -999.250000  -999.250000 3.4460699558 2.8528978825  -999.250000 2.6757559776 2.0870430470  -999.250000  -999.250000 5.0000000000  -999.250000  -999.250000  -999.250000
 5208.8793945 1.9274660349  -999.250000  -999.250000  -999.250000 37.669429779 0.3084599078  -999.250000  -999.250000 2.9499390125 2.7343559265  -999.250000 2.8085339069 2.3879330158  -999.250000  -999.250000 5.0000000000  -999.250000  -999.250000  -999.250000
