# LAS format log file from PETREL
# Project units are specified as depth units
#==================================================================
~Version information
VERS.   2.0:
WRAP.   NO:
#==================================================================
~Well
STRT .m      4042.1052246 :
STOP .m      5226.7104492 :
STEP .m     0.00000000 :
NULL .        -999.250000 :
COMP.           : COMPANY
WELL.  Pharos 1   : WELL
FLD.            : FIELD
LOC.            : LOCATION
SRVC.           : SERVICE COMPANY
DATE.  2017-10-02 11:49:48   : Log Export Date {yyyy-MM-dd HH:mm:ss}
PROV.           : PROVINCE
UWI.   Pharos 1   : UNIQUE WELL ID
API.            : API NUMBER
#==================================================================
~Curve
DEPT .m                   : DEPTH
CAL .in                   : CAL
DRHO .g/cm3               : DRHO
DTC .us/ft                : DTC
DTS .us/ft                : DTS
GR .gAPI                  : GR
NPHI .m3/m3               : NPHI
PEF .b/e                  : PEF
POTA .%                   : POTA
RESD .ohm.m               : RESD
RESM .ohm.m               : RESM
RHOB .g/cm3               : RHOB
RT .ohm.m                 : RT
RXO .ohm.m                : RXO
THOR .ppm                 : THOR
URAN .ppm                 : URAN
Casing ._                 : Casing
Core ._                   : Core
MDTPoints ._              : MDT Points
SWC ._                    : SWC
~Parameter
#==================================================================
~Ascii
# ...
 4571.2377930 8.4025650024 -0.021493681 91.286903381 175.47459412 130.43989563 0.3005372882 8.9121665955 1.9239999056 1.5904469490 1.6051490307 2.5668540001  -999.250000  -999.250000 18.925500870 4.2470998764 7.5799999237  -999.250000  -999.250000  -999.250000
 4571.3906250 8.4022178650 -0.022056382 91.208076477 174.86999512 129.93449402 0.2915396988 8.7365255356 1.8523998260 1.6046630144 1.6379970312 2.5704689026  -999.250000  -999.250000 19.192399979 4.2832999229 7.5799999237  -999.250000  -999.250000  -999.250000
 4571.5429688 8.3910875320 -0.022521900 91.214317322 174.73890686 127.82510376 0.2872194946 8.7617435455 1.8439000845 1.6146429777 1.6466170549 2.5734770298  -999.250000  -999.250000 18.449199677 4.3524999619 7.5799999237  -999.250000  -999.250000  -999.250000
 4571.6953125 8.3841323853 -0.021658050 90.921401978 174.82009888 128.27450562 0.2939681113 8.9070281982 1.8194999695 1.6016750336 1.5723390579 2.5748798847  -999.250000  -999.250000 18.965900421 4.0757999420 7.5799999237  -999.250000  -999.250000  -999.250000
 4571.8476563 8.3785772324 -0.019887550 90.800941467 174.96229553 129.13209534 0.2982322872 9.0473966599 1.7658001184 1.6333299875 1.5368499756 2.5742449760  -999.250000  -999.250000 18.417400360 4.4956002235 7.5799999237  -999.250000  -999.250000  -999.250000
 4572.0000000 8.3734016418 -0.019654360 91.124710083 175.19000244 130.82769775 0.2892467082 9.0421724319 1.7874000072 1.6166340113 1.5126219988 2.5709819794  -999.250000  -999.250000 18.410299301 4.7627000809 7.5799999237  -999.250000  -999.250000  -999.250000
 4572.1523438 8.3790225983 -0.021569129 91.405372620 175.03572083 130.59350586 0.2813715041 8.8909873962 1.8668999672 1.5690280199 1.5063639879 2.5657870770  -999.250000  -999.250000 19.017999649 4.2434000969 7.5799999237  -999.250000  -999.250000  -999.250000
 4572.3046875 8.3866920471 -0.024106501 91.261070251 174.65789795 130.75270081 0.2857153118 8.7868890762 1.7959001064 1.5765260458 1.5470529795 2.5607290268  -999.250000  -999.250000 19.158399582 4.2241997719 7.5799999237  -999.250000  -999.250000  -999.250000
 4572.4570313 8.4020242691 -0.027706970 90.575111389 174.34100342 129.67649841 0.2937608063 8.7345590591 1.8008999825 1.5410059690 1.5441960096 2.5598959923  -999.250000  -999.250000 19.582099915 3.9453003407 7.5799999237  -999.250000  -999.250000  -999.250000
 4572.6093750 8.3934593201 -0.026296290 90.019088745 175.21009827 129.49899292 0.3009751141 8.7825136185 1.7882000208 1.5028500557 1.5336289406 2.5646350384  -999.250000  -999.250000 19.797399521 3.8611001968 7.5799999237  -999.250000  -999.250000  -999.250000
 4572.7622070 8.3859968185 -0.024784161 90.134506226 176.59800720 127.76529694 0.2998932898 8.8130273819 1.7387000322 1.5644730330 1.5684659481 2.5708379745  -999.250000  -999.250000 19.718000412 3.7332000732 7.5799999237  -999.250000  -999.250000  -999.250000
 4572.9145508 8.3764677048 -0.023025040 90.676727295 177.47860718 128.49470520 0.3016980886 8.7381629944 1.6984000206 1.5355639458 1.5694589615 2.5742130280  -999.250000  -999.250000 20.712999344 3.6352999210 7.5799999237  -999.250000  -999.250000  -999.250000
 4573.0668945 8.3785543442 -0.024566980 91.080017090 177.78129578 127.99980164 0.3017087877 8.6469783783 1.7448998690 1.5263849497 1.5071339607 2.5723450184  -999.250000  -999.250000 20.260400772 3.4746999741 7.5799999237  -999.250000  -999.250000  -999.250000
 4573.2192383 8.3878049850 -0.026567230 91.158470154 178.03340149 128.98010254 0.3004859984 8.5470247269 1.8111000061 1.5113420486 1.4927179813 2.5687170029  -999.250000  -999.250000 21.233100891 3.2079000473 7.5799999237  -999.250000  -999.250000  -999.250000
 4573.3715820 8.3989343643 -0.025464481 90.722831726 175.76159668 126.12830353 0.3059312999 8.5814857483 1.8107000589 1.4690059423 1.5356260538 2.5656380653  -999.250000  -999.250000 20.293399811 3.2284998894 7.5799999237  -999.250000  -999.250000  -999.250000
 4573.5239258 8.3983039856 -0.021928729 90.130928040 171.30870056 123.72450256 0.3034461141 8.6174221039 1.8324998617 1.4532109499 1.4985959530 2.5658030510  -999.250000  -999.250000 20.795299530 2.8564000130 7.5799999237  -999.250000  -999.250000  -999.250000
 4573.6762695 8.3873987198 -0.019098571 88.822570801 166.79400635 116.36769867 0.2912940979 8.6973161697 1.7565001249 1.5811870098 1.5534240007 2.5730109215  -999.250000  -999.250000 20.248600006 2.1784999371 7.5799999237  -999.250000  -999.250000  -999.250000
 4573.8286133 8.3674411774 -0.016415751 85.253402710 160.59289551 108.07420349 0.2730669081 9.0598659515 1.6320999861 1.9707679749 1.7929279804 2.6003739834  -999.250000  -999.250000 18.826999664 2.0325999260 7.5799999237  -999.250000  -999.250000  -999.250000
 4573.9809570 8.4138965607 -0.025640970 79.799598694 157.40330505 97.078422546 0.2626377940 9.7833118439 1.4875999689 2.3494648933 2.0457129478 2.6704308987  -999.250000  -999.250000 17.133399963 1.4615999460 7.5799999237  -999.250000  -999.250000  -999.250000
 4574.1337891 8.5449047089 -0.052583531 76.848876953 159.80250549 89.374671936 0.2603276074 10.765789986 1.3309999704 2.3066949844 2.2630040646 2.7785060406  -999.250000  -999.250000 14.989800453 1.5140000582 7.5799999237  -999.250000  -999.250000  -999.250000
 4574.2861328 8.5777702332 -0.061343540 80.039146423 162.81289673 93.203239441 0.2630805075 10.909629822 1.4097000360 2.1489169598 2.1633689404 2.8588140011  -999.250000  -999.250000 15.825200081 1.6037000418 7.5799999237  -999.250000  -999.250000  -999.250000
 4574.4384766 8.5022096634 -0.048780460 86.683311462 169.21429443 106.70240021 0.2681030929 10.190259933 1.7300000191 1.8678309917 1.7817740440 2.8319358826  -999.250000  -999.250000 18.351699829 1.6384999752 7.5799999237  -999.250000  -999.250000  -999.250000
 4574.5908203 8.4202680588 -0.029486099 90.690986633 170.71987915 121.52230072 0.2843036950 9.4027786255 2.0511999130 1.8662689924 1.7667800188 2.7126259804  -999.250000  -999.250000 21.340400696 2.0021998882 7.5799999237  -999.250000  -999.250000  -999.250000
 4574.7431641 8.3827333450 -0.021742010 91.544677734 172.76040649 128.12869263 0.3011715114 9.1300344467 2.0797998905 1.9200049639 1.8707330227 2.6159811020  -999.250000  -999.250000 22.430999756 2.2787001133 7.5799999237  -999.250000  -999.250000  -999.250000
 4574.8955078 8.4133787155 -0.027761299 92.300178528 177.17120361 129.26789856 0.3145174086 9.1038618088 2.1026999950 1.9724379778 1.8494809866 2.5778949261  -999.250000  -999.250000 21.851299286 2.4498000145 7.5799999237  -999.250000  -999.250000  -999.250000
 4575.0478516 8.3822870255 -0.022168471 92.947380066 176.93580627 130.14689636 0.3197396994 8.9295835495 2.1616001129 1.7416839600 1.7018309832 2.5786581039  -999.250000  -999.250000 21.976200104 2.4993000031 7.5799999237  -999.250000  -999.250000  -999.250000
 4575.2001953 8.3544626236 -0.016482981 93.288482666 180.66520691 130.84579468 0.3148661852 8.8822860718 2.1561000347 1.5301229954 1.5278569460 2.5813679695  -999.250000  -999.250000 22.216699600 2.5076000690 7.5799999237  -999.250000  -999.250000  -999.250000
 4575.3530273 8.3732233047 -0.020336192 93.306350708 181.04679871 130.63900757 0.3098672032 8.8915700912 2.1184999943 1.4448089600 1.4657169580 2.5705609322  -999.250000  -999.250000 22.212699890 2.7500998974 7.5799999237  -999.250000  -999.250000  -999.250000
 4575.5053711 8.4080076218 -0.026276270 93.253463745 180.37699890 128.97830200 0.3003855944 9.0250015259 2.0501000881 1.3625719547 1.3985929489 2.5587019920  -999.250000  -999.250000 21.634500504 2.7497999668 7.5799999237  -999.250000  -999.250000  -999.250000
 4575.6577148 8.4278783798 -0.031105220 93.263061523 179.93469238 127.62270355 0.2913809121 9.0575551987 1.9643001556 1.4280120134 1.4047629833 2.5521490574  -999.250000  -999.250000 21.830600739 3.0827000141 7.5799999237  -999.250000  -999.250000  -999.250000
 4575.8100586 8.4155235291 -0.028074330 93.245979309 179.83020020 126.21859741 0.2848056853 9.0009765625 1.9308998585 1.4390989542 1.4228910208 2.5590438843  -999.250000  -999.250000 21.684099197 2.8842999935 7.5799999237  -999.250000  -999.250000  -999.250000
