# LAS format log file from PETREL
# Project units are specified as depth units
#==================================================================
~Version information
VERS.   2.0:
WRAP.   NO:
#==================================================================
~Well
STRT .m      4042.1052246 :
STOP .m      5226.7104492 :
STEP .m     0.00000000 :
NULL .        -999.250000 :
COMP.           : COMPANY
WELL.  Pharos 1   : WELL
FLD.            : FIELD
LOC.            : LOCATION
SRVC.           : SERVICE COMPANY
DATE.  2017-10-02 11:49:48   : Log Export Date {yyyy-MM-dd HH:mm:ss}
PROV.           : PROVINCE
UWI.   Pharos 1   : UNIQUE WELL ID
API.            : API NUMBER
#==================================================================
~Curve
DEPT .m                   : DEPTH
CAL .in                   : CAL
DRHO .g/cm3               : DRHO
DTC .us/ft                : DTC
DTS .us/ft                : DTS
GR .gAPI                  : GR
NPHI .m3/m3               : NPHI
PEF .b/e                  : PEF
POTA .%                   : POTA
RESD .ohm.m               : RESD
RESM .ohm.m               : RESM
RHOB .g/cm3               : RHOB
RT .ohm.m                 : RT
RXO .ohm.m                : RXO
THOR .ppm                 : THOR
URAN .ppm                 : URAN
Casing ._                 : Casing
Core ._                   : Core
MDTPoints ._              : MDT Points
SWC ._                    : SWC
~Parameter
#==================================================================
~Ascii
# ...
 4268.8764648 8.4133329391 -0.026825851 89.752220154 164.12350464 79.375801086 0.2192589939 8.9386224747 1.1725000143 1.4989860058 1.4760580063 2.5282618999  -999.250000  -999.250000 9.5961999893 3.4212000370 7.5799999237  -999.250000  -999.250000  -999.250000
 4269.0288086 8.4036464691 -0.025486020 88.550621033 161.46249390 76.448562622 0.2173299938 8.7919378281 1.0921000242 1.6487480402 1.5522190332 2.5293760300  -999.250000  -999.250000 8.9946002960 3.3836998940 7.5799999237  -999.250000  -999.250000  -999.250000
 4269.1811523 8.3729705811 -0.019645041 87.877471924 159.17770386 73.885002136 0.2164029032 8.5172882080 1.1203000546 1.5422730446 1.5201200247 2.5186638832  -999.250000  -999.250000 8.4937000275 3.1445999146 7.5799999237  -999.250000  -999.250000  -999.250000
 4269.3334961 8.3703279495 -0.018894680 88.367889404 158.65930176 73.538757324 0.2161501944 8.4171257019 1.0591000319 1.4573949575 1.4265869856 2.5027620792  -999.250000  -999.250000 8.6772003174 3.1616001129 7.5799999237  -999.250000  -999.250000  -999.250000
 4269.4858398 8.3844680786 -0.021560920 89.740623474 159.34190369 75.438690186 0.2205615044 8.4596443176 1.1102999449 1.3736590147 1.3783049583 2.4928059578  -999.250000  -999.250000 9.1975002289 3.1928000450 7.5799999237  -999.250000  -999.250000  -999.250000
 4269.6381836 8.3995504379 -0.022787319 91.390075684 162.44850159 77.224563599 0.2220115960 8.5075044632 1.1675000191 1.3204120398 1.3194890022 2.4888939857  -999.250000  -999.250000 9.2445001602 3.1475999355 7.5799999237  -999.250000  -999.250000  -999.250000
 4269.7910156 8.3998804092 -0.022053409 92.417953491 167.24429321 79.949127197 0.2202315032 8.4666404724 1.1653000116 1.2642240524 1.2507499456 2.4880199432  -999.250000  -999.250000 10.392299652 3.0894000530 7.5799999237  -999.250000  -999.250000  -999.250000
 4269.9433594 8.3958177567 -0.021792069 92.718643188 167.05140686 82.088119507 0.2170044035 8.4899282455 1.2201000452 1.2944829464 1.2784880400 2.4870610237  -999.250000  -999.250000 10.821399689 3.2399001122 7.5799999237  -999.250000  -999.250000  -999.250000
 4270.0957031 8.3933191299 -0.022515099 92.178878784 165.98789978 81.501991272 0.2157974988 8.6643991470 1.2674000263 1.3017749786 1.2998650074 2.4842159748  -999.250000  -999.250000 10.539500237 3.0610001087 7.5799999237  -999.250000  -999.250000  -999.250000
 4270.2480469 8.4028501511 -0.024222270 90.977401733 163.02380371 80.103919983 0.2160422057 8.8439378738 1.2381999493 1.2587490082 1.2809649706 2.4808509350  -999.250000  -999.250000 10.747300148 2.9867000580 7.5799999237  -999.250000  -999.250000  -999.250000
 4270.4003906 8.4127960205 -0.025386680 90.401832581 162.07429504 79.342437744 0.2175642997 8.8350419998 1.1603000164 1.2163100243 1.2522000074 2.4785120487  -999.250000  -999.250000 10.323200226 2.9172000885 7.5799999237  -999.250000  -999.250000  -999.250000
 4270.5527344 8.4079666138 -0.024545411 90.925338745 164.43780518 82.052307129 0.2190869004 8.6131429672 1.1805000305 1.1736179590 1.1873129606 2.4776260853  -999.250000  -999.250000 10.703300476 3.2788999081 7.5799999237  -999.250000  -999.250000  -999.250000
 4270.7050781 8.3994131088 -0.022381710 92.121986389 167.42860413 85.056106567 0.2192154974 8.3488750458 1.2003999949 1.1416790485 1.1480690241 2.4792559147  -999.250000  -999.250000 11.124899864 3.5107998848 7.5799999237  -999.250000  -999.250000  -999.250000
 4270.8574219 8.3946075439 -0.020245520 93.130378723 170.32980347 86.818466187 0.2193908989 8.2198209763 1.1862000227 1.1366569996 1.1596289873 2.4823470116  -999.250000  -999.250000 11.303799629 3.6905999184 7.5799999237  -999.250000  -999.250000  -999.250000
 4271.0097656 8.3890132904 -0.018547921 93.723594666 173.02279663 87.494140625 0.2210710943 8.2417354584 1.2271000147 1.1396700144 1.1799190044 2.4853041172  -999.250000  -999.250000 11.284899712 3.7128999233 7.5799999237  -999.250000  -999.250000  -999.250000
 4271.1625977 8.3862028122 -0.017231040 93.771797180 172.90809631 86.947303772 0.2233106941 8.3425216675 1.1905000210 1.1551120281 1.2122240067 2.4864580631  -999.250000  -999.250000 11.073699951 3.7665998936 7.5799999237  -999.250000  -999.250000  -999.250000
 4271.3149414 8.3885202408 -0.016971590 93.113700867 171.82539368 85.340347290 0.2226389945 8.4350214005 1.2043000460 1.2466599941 1.2406539917 2.4837911129  -999.250000  -999.250000 11.060500145 3.5905001163 7.5799999237  -999.250000  -999.250000  -999.250000
 4271.4672852 8.3909130096 -0.018343380 92.331863403 170.76080322 82.857093811 0.2196197063 8.4488573074 1.2386000156 1.3199349642 1.2690839767 2.4807341099  -999.250000  -999.250000 10.217800140 3.4059000015 7.5799999237  -999.250000  -999.250000  -999.250000
 4271.6196289 8.3950567245 -0.020410920 91.647407532 170.96569824 80.525833130 0.2166935056 8.3868312836 1.1966999769 1.3191540241 1.2956349850 2.4794929028  -999.250000  -999.250000 9.7694997787 3.3517000675 7.5799999237  -999.250000  -999.250000  -999.250000
 4271.7719727 8.4012050629 -0.021657370 91.396102905 172.18191528 79.376136780 0.2161933035 8.2964935303 1.1134999990 1.3322860003 1.2963440418 2.4803268909  -999.250000  -999.250000 9.3151998520 3.5715999603 7.5799999237  -999.250000  -999.250000  -999.250000
 4271.9243164 8.4072141647 -0.022542721 91.619369507 172.53540039 78.949089050 0.2170989960 8.2307128906 1.1643999815 1.3398309946 1.2710839510 2.4822220802  -999.250000  -999.250000 8.8854999542 3.5804998875 7.5799999237  -999.250000  -999.250000  -999.250000
 4272.0766602 8.4104585648 -0.023731099 92.035842896 171.25979614 79.051017761 0.2159681022 8.1866426468 1.1220999956 1.3295650482 1.2506649494 2.4830749035  -999.250000  -999.250000 8.5201997757 3.7163000107 7.5799999237  -999.250000  -999.250000  -999.250000
 4272.2290039 8.4088602066 -0.024106819 92.391296387 170.69090271 79.179412842 0.2132295966 8.1475763321 1.1789000034 1.3326940536 1.2662370205 2.4824240208  -999.250000  -999.250000 8.8184003830 3.7585999966 7.5799999237  -999.250000  -999.250000  -999.250000
 4272.3818359 8.4062938690 -0.023562020 92.525039673 170.82868958 78.834793091 0.2109373957 8.1180324554 1.1956000328 1.3406569958 1.2632980347 2.4799969196  -999.250000  -999.250000 8.6033000946 3.3949000835 7.5799999237  -999.250000  -999.250000  -999.250000
 4272.5341797 8.4034776688 -0.023346160 92.551040649 171.43359375 78.724197388 0.2096987069 8.1295785904 1.2676000595 1.3155709505 1.2440739870 2.4777290821  -999.250000  -999.250000 9.0349998474 3.3817000389 7.5799999237  -999.250000  -999.250000  -999.250000
 4272.6865234 8.4018964767 -0.023564991 92.457283020 170.97940063 77.712806702 0.2072155029 8.1668186188 1.2342000008 1.2823209763 1.2469290495 2.4775979519  -999.250000  -999.250000 8.8482999802 3.2602000237 7.5799999237  -999.250000  -999.250000  -999.250000
 4272.8388672 8.4087772369 -0.024429210 92.381767273 171.47560120 76.166732788 0.2044149041 8.2029047012 1.2503000498 1.2615469694 1.2478909492 2.4787499905  -999.250000  -999.250000 8.7054004669 3.1591000557 7.5799999237  -999.250000  -999.250000  -999.250000
 4272.9912109 8.4119281769 -0.024697389 92.434944153 171.95779419 74.603157043 0.2005591989 8.2613248825 1.1888999939 1.1916450262 1.2432179451 2.4778549671  -999.250000  -999.250000 8.5236997604 3.0799000263 7.5799999237  -999.250000  -999.250000  -999.250000
 4273.1435547 8.4180326462 -0.025538061 92.237121582 168.88360596 73.708877563 0.2038421929 8.3484544754 1.1256999969 1.2324409485 1.2319040298 2.4747879505  -999.250000  -999.250000 8.8091001511 2.9755001068 7.5799999237  -999.250000  -999.250000  -999.250000
 4273.2958984 8.4203748703 -0.026211200 91.838119507 169.37699890 73.912666321 0.2121248990 8.4021711349 1.1332000494 1.5068240166 1.2361929417 2.4725151062  -999.250000  -999.250000 9.1246995926 2.9231998920 7.5799999237  -999.250000  -999.250000  -999.250000
 4273.4482422 8.4111690521 -0.025115373 91.767127991 171.01570129 74.365303040 0.2152944058 8.3933563232 1.1359000206 1.5021369457 1.2478489876 2.4750020504  -999.250000  -999.250000 9.6596002579 2.6691999435 7.5799999237  -999.250000  -999.250000  -999.250000
