# LAS format log file from PETREL
# Project units are specified as depth units
#==================================================================
~Version information
VERS.   2.0:
WRAP.   NO:
#==================================================================
~Well
STRT .m      4042.1052246 :
STOP .m      5226.7104492 :
STEP .m     0.00000000 :
NULL .        -999.250000 :
COMP.           : COMPANY
WELL.  Pharos 1   : WELL
FLD.            : FIELD
LOC.            : LOCATION
SRVC.           : SERVICE COMPANY
DATE.  2017-10-02 11:49:48   : Log Export Date {yyyy-MM-dd HH:mm:ss}
PROV.           : PROVINCE
UWI.   Pharos 1   : UNIQUE WELL ID
API.            : API NUMBER
#==================================================================
~Curve
DEPT .m                   : DEPTH
CAL .in                   : CAL
DRHO .g/cm3               : DRHO
DTC .us/ft                : DTC
DTS .us/ft                : DTS
GR .gAPI                  : GR
NPHI .m3/m3               : NPHI
PEF .b/e                  : PEF
POTA .%                   : POTA
RESD .ohm.m               : RESD
RESM .ohm.m               : RESM
RHOB .g/cm3               : RHOB
RT .ohm.m                 : RT
RXO .ohm.m                : RXO
THOR .ppm                 : THOR
URAN .ppm                 : URAN
Casing ._                 : Casing
Core ._                   : Core
MDTPoints ._              : MDT Points
SWC ._                    : SWC
~Parameter
#==================================================================
~Ascii
# ...
 4117.6958008 8.3778476715 -0.018301349 101.33619690 225.45460510 101.48570251 0.3179579079 8.5161199570 1.6409000158 0.7195038199 0.7399389148 2.5116391182  -999.250000  -999.250000 15.863401413 2.7123000622 7.5799999237  -999.250000  -999.250000  -999.250000
 4117.8481445 8.3876743317 -0.022995509 101.88089752 226.34779358 99.675376892 0.3158223927 8.4106073380 1.6114000082 0.7456433177 0.7334753275 2.5039730072  -999.250000  -999.250000 14.822400093 2.8698000908 7.5799999237  -999.250000  -999.250000  -999.250000
 4118.0004883 8.4105739594 -0.027385790 102.25100708 227.99119568 99.274986267 0.3089880943 8.2600612640 1.6280001402 0.7660264969 0.7345268130 2.4991190434  -999.250000  -999.250000 14.676600456 2.7881999016 7.5799999237  -999.250000  -999.250000  -999.250000
 4118.1528320 8.4368362427 -0.031441111 102.39889526 229.53099060 100.08979797 0.3013314009 8.1530895233 1.6538000107 0.7466884255 0.7415760756 2.4986989498  -999.250000  -999.250000 13.862500191 3.1273000240 7.5799999237  -999.250000  -999.250000  -999.250000
 4118.3051758 8.4483404160 -0.033118900 102.44539642 230.38760376 100.37349701 0.3052510023 8.2040023804 1.7312999964 0.7465037704 0.7364119887 2.5023729801  -999.250000  -999.250000 13.556500435 3.0841999054 7.5799999237  -999.250000  -999.250000  -999.250000
 4118.4575195 8.4446029663 -0.031295951 102.44249725 230.86749268 100.76170349 0.3175567091 8.3354063034 1.8155001402 0.7691720724 0.7378093004 2.5093760490  -999.250000  -999.250000 14.574899673 2.5195000172 7.5799999237  -999.250000  -999.250000  -999.250000
 4118.6098633 8.4356737137 -0.026167300 102.45130157 231.09559631 101.81900024 0.3247416019 8.4579792023 1.8279999495 0.7810950279 0.7572196126 2.5175759792  -999.250000  -999.250000 15.169599533 2.3131999969 7.5799999237  -999.250000  -999.250000  -999.250000
 4118.7622070 8.4248018265 -0.021957260 102.49810028 231.21850586 103.10780334 0.3206970990 8.5431289673 1.8091000319 0.7666053176 0.7741159201 2.5191740990  -999.250000  -999.250000 15.804900169 2.3380999565 7.5799999237  -999.250000  -999.250000  -999.250000
 4118.9150391 8.4139165878 -0.021592360 102.48290253 231.17469788 103.53199768 0.3132964969 8.5817594528 1.7546000481 0.7010002732 0.7959449291 2.5147690773  -999.250000  -999.250000 15.558099747 2.5236999989 7.5799999237  -999.250000  -999.250000  -999.250000
 4119.0673828 8.4118175507 -0.023389840 102.29570770 231.13949585 102.67680359 0.3060305119 8.5791282654 1.7850000858 0.6796982288 0.7930704951 2.5107409954  -999.250000  -999.250000 15.841800690 2.4119999409 7.5799999237  -999.250000  -999.250000  -999.250000
 4119.2197266 8.4136924744 -0.023915390 101.95899963 229.86860657 100.42949677 0.2981148958 8.5756406784 1.7220000029 0.6972882748 0.7592393160 2.5112810135  -999.250000  -999.250000 15.212699890 2.4235999584 7.5799999237  -999.250000  -999.250000  -999.250000
 4119.3720703 8.4095134735 -0.022476381 101.62789917 228.22219849 97.711067200 0.2978012860 8.5665006638 1.7467999458 0.7077729106 0.7423133850 2.5152440071  -999.250000  -999.250000 14.735199928 2.2704999447 7.5799999237  -999.250000  -999.250000  -999.250000
 4119.5244141 8.4004173279 -0.020140730 101.35330200 225.66819763 95.403427124 0.3100284040 8.5491504669 1.6744998693 0.7554221153 0.7276247144 2.5203309059  -999.250000  -999.250000 14.572799683 2.0197000504 7.5799999237  -999.250000  -999.250000  -999.250000
 4119.6767578 8.3940382004 -0.019172121 101.06620789 224.26870728 94.867691040 0.3285953104 8.5306100845 1.6799999475 0.7906891704 0.7079538703 2.5225460529  -999.250000  -999.250000 14.145199776 2.2969999313 7.5799999237  -999.250000  -999.250000  -999.250000
 4119.8291016 8.3979082108 -0.019877549 100.92079926 224.21469116 96.060737610 0.3406493962 8.4872884750 1.6783001423 0.7412484884 0.7193834186 2.5198729038  -999.250000  -999.250000 15.059000015 2.2976000309 7.5799999237  -999.250000  -999.250000  -999.250000
 4119.9814453 8.4127883911 -0.020938691 100.99250031 224.04960632 97.671066284 0.3382368088 8.4127206802 1.6536999941 0.7070410252 0.7412403226 2.5170819759  -999.250000  -999.250000 15.204400063 2.5371999741 7.5799999237  -999.250000  -999.250000  -999.250000
 4120.1337891 8.4227838516 -0.021363160 101.23210144 224.71659851 98.871459961 0.3305402100 8.3406200409 1.6224999428 0.7326772213 0.7337399721 2.5178120136  -999.250000  -999.250000 15.097700119 2.7456998825 7.5799999237  -999.250000  -999.250000  -999.250000
 4120.2866211 8.4139642715 -0.021503570 101.55510712 225.30979919 98.993148804 0.3306626081 8.2879076004 1.5977001190 0.7748227119 0.7237566113 2.5209898949  -999.250000  -999.250000 14.969300270 2.8717000484 7.5799999237  -999.250000  -999.250000  -999.250000
 4120.4389648 8.4005413055 -0.022610400 101.81500244 227.44679260 98.426223755 0.3376477063 8.2558755875 1.5994999409 0.8309274912 0.7448924184 2.5246660709  -999.250000  -999.250000 14.284099579 2.9760999680 7.5799999237  -999.250000  -999.250000  -999.250000
 4120.5913086 8.4008913040 -0.018542940 102.08280182 230.91009521 98.117538452 0.3469820023 8.2815475464 1.6139998436 0.8300958872 0.7714231014 2.5381610394  -999.250000  -999.250000 14.604800224 2.8954999447 7.5799999237  -999.250000  -999.250000  -999.250000
 4120.7436523 8.4125680923 -0.010468320 102.33940125 233.42289734 98.067298889 0.3567158878 8.5286130905 1.6332000494 0.7817168832 0.7815663815 2.5742819309  -999.250000  -999.250000 14.137399673 2.8933999538 7.5799999237  -999.250000  -999.250000  -999.250000
 4120.8959961 8.4188499451 -0.012508320 102.40910339 233.45080566 98.750106812 0.3616276085 9.0437841415 1.6880999804 0.8376811743 0.8183575869 2.6161239147  -999.250000  -999.250000 14.269700050 2.8380000591 7.5799999237  -999.250000  -999.250000  -999.250000
 4121.0483398 8.4209451675 -0.024196209 102.27349854 231.14149475 99.857643127 0.3547657132 9.4693517685 1.6526999474 0.9877421260 0.8941876888 2.6270601749  -999.250000  -999.250000 14.395299911 2.9834001064 7.5799999237  -999.250000  -999.250000  -999.250000
 4121.2006836 8.4221200943 -0.031326272 102.04148865 229.48829651 101.06870270 0.3368018866 9.4735326767 1.6963999271 1.0422710180 0.9049332738 2.5972700119  -999.250000  -999.250000 14.741900444 2.9835000038 7.5799999237  -999.250000  -999.250000  -999.250000
 4121.3530273 8.4026308060 -0.025163271 101.26210022 230.81880188 100.95729828 0.3224824965 9.0824384689 1.6963999271 0.9359735250 0.8145180941 2.5552549362  -999.250000  -999.250000 15.083200455 2.6508998871 7.5799999237  -999.250000  -999.250000  -999.250000
 4121.5053711 8.3774127960 -0.015899161 99.082267761 227.05909729 99.087409973 0.3259876072 8.6369142532 1.6861999035 0.8066353798 0.7380431294 2.5291500092  -999.250000  -999.250000 14.911000252 2.5248000622 7.5799999237  -999.250000  -999.250000  -999.250000
 4121.6582031 8.3765201569 -0.015879000 96.082221985 223.80039978 94.072196960 0.3419111073 8.4125328064 1.6060000658 0.7594109178 0.7213991284 2.5180559158  -999.250000  -999.250000 14.274900436 2.1484999657 7.5799999237  -999.250000  -999.250000  -999.250000
 4121.8105469 8.3873186111 -0.020200791 94.569923401 213.52671814 89.658256531 0.3528274894 8.3635015488 1.4989999533 0.7500138283 0.7174484134 2.5119330883  -999.250000  -999.250000 13.808500290 2.0004000664 7.5799999237  -999.250000  -999.250000  -999.250000
 4121.9628906 8.3957633972 -0.022601200 95.756446838 210.18020630 90.075599670 0.3503485024 8.4463100433 1.5695999861 0.7435221076 0.7123034000 2.5109899044  -999.250000  -999.250000 13.862999916 1.9261999130 7.5799999237  -999.250000  -999.250000  -999.250000
 4122.1152344 8.4013996124 -0.022554170 99.270072937 216.16999817 95.432479858 0.3408148885 8.6100463867 1.6742000580 0.7740144134 0.6983717084 2.5178499222  -999.250000  -999.250000 15.019800186 1.9864001274 7.5799999237  -999.250000  -999.250000  -999.250000
 4122.2675781 8.3970851898 -0.020982889 102.73400116 224.95938110 102.23269653 0.3364096880 8.7484731674 1.7989000082 0.8388751149 0.7007386088 2.5258209705  -999.250000  -999.250000 16.008499146 2.2778000832 7.5799999237  -999.250000  -999.250000  -999.250000
