# LAS format log file from PETREL
# Project units are specified as depth units
#==================================================================
~Version information
VERS.   2.0:
WRAP.   NO:
#==================================================================
~Well
STRT .m      4042.1052246 :
STOP .m      5226.7104492 :
STEP .m     0.00000000 :
NULL .        -999.250000 :
COMP.           : COMPANY
WELL.  Pharos 1   : WELL
FLD.            : FIELD
LOC.            : LOCATION
SRVC.           : SERVICE COMPANY
DATE.  2017-10-02 11:49:48   : Log Export Date {yyyy-MM-dd HH:mm:ss}
PROV.           : PROVINCE
UWI.   Pharos 1   : UNIQUE WELL ID
API.            : API NUMBER
#==================================================================
~Curve
DEPT .m                   : DEPTH
CAL .in                   : CAL
DRHO .g/cm3               : DRHO
DTC .us/ft                : DTC
DTS .us/ft                : DTS
GR .gAPI                  : GR
NPHI .m3/m3               : NPHI
PEF .b/e                  : PEF
POTA .%                   : POTA
RESD .ohm.m               : RESD
RESM .ohm.m               : RESM
RHOB .g/cm3               : RHOB
RT .ohm.m                 : RT
RXO .ohm.m                : RXO
THOR .ppm                 : THOR
URAN .ppm                 : URAN
Casing ._                 : Casing
Core ._                   : Core
MDTPoints ._              : MDT Points
SWC ._                    : SWC
~Parameter
#==================================================================
~Ascii
 4042.1052246 8.3921337128 -0.023042930 102.08950043 226.08189392 90.028060913 0.2880082130 8.5609436035 1.7164999247 0.6823235154 0.6680073142 2.5127940178  -999.250000  -999.250000 10.897800446 2.9226000309 7.5799999237  -999.250000  -999.250000  -999.250000
 4042.2575684 8.3959369659 -0.023282031 102.28180695 226.51449585 87.814666748 0.2842490077 8.5475187302 1.6188999414 0.6999570727 0.6749423742 2.5130770206  -999.250000  -999.250000 10.462300301 2.9045999050 7.5799999237  -999.250000  -999.250000  -999.250000
 4042.4099121 8.4003515244 -0.023730980 102.70659637 227.06809998 87.723587036 0.2843461037 8.6123752594 1.6124000549 0.7341393232 0.6771792769 2.5109848976  -999.250000  -999.250000 9.6960000992 3.2025001049 7.5799999237  -999.250000  -999.250000  -999.250000
 4042.5625000 8.4049348831 -0.024458760 102.77459717 227.73080444 90.318656921 0.2874720097 8.7302465439 1.6690001488 0.7443397045 0.6780766845 2.5061609745  -999.250000  -999.250000 10.563500404 3.2079999447 7.5799999237  -999.250000  -999.250000  -999.250000
 4042.7148438 8.4052877426 -0.024580561 102.54859924 227.48358154 93.051200867 0.2900922000 8.8223457336 1.7364001274 0.6898968816 0.6857414246 2.5016639233  -999.250000  -999.250000 11.113900185 3.1431999207 7.5799999237  -999.250000  -999.250000  -999.250000
 4042.8671875 8.4029111862 -0.024345551 103.00499725 228.02819824 94.415748596 0.2893759012 8.8568782806 1.7476999760 0.6422684193 0.6896951795 2.4994618893  -999.250000  -999.250000 10.979900360 3.3905999660 7.5799999237  -999.250000  -999.250000  -999.250000
 4043.0195313 8.4021205902 -0.024866991 103.99810028 228.83091736 94.688987732 0.2869223058 8.8469066620 1.7340998650 0.6820849180 0.6900323033 2.4971730709  -999.250000  -999.250000 11.190699577 3.3966999054 7.5799999237  -999.250000  -999.250000  -999.250000
 4043.1721191 8.4039382935 -0.025640180 103.94680023 228.46420288 94.537757874 0.2853997946 8.8454761505 1.6816999912 0.7170706987 0.6899706125 2.4930689335  -999.250000  -999.250000 11.405599594 3.4221000671 7.5799999237  -999.250000  -999.250000  -999.250000
 4043.3244629 8.4057245255 -0.025274580 103.22119904 227.91279602 93.563720703 0.2839153111 8.8500785828 1.6729999781 0.6684433818 0.6803820133 2.4916019440  -999.250000  -999.250000 11.928299904 3.2153000832 7.5799999237  -999.250000  -999.250000  -999.250000
 4043.4768066 8.4079732895 -0.024095951 102.20120239 227.35369873 91.861511230 0.2820169926 8.8228540421 1.6090999842 0.6391885281 0.6726871729 2.4944341183  -999.250000  -999.250000 12.037799835 2.8721001148 7.5799999237  -999.250000  -999.250000  -999.250000
 4043.6291504 8.4105091095 -0.023112269 101.51869965 226.40400696 91.377700806 0.2799622118 8.7756395340 1.5463999510 0.6836277246 0.6719403863 2.4980061054  -999.250000  -999.250000 12.750300407 2.8766999245 7.5799999237  -999.250000  -999.250000  -999.250000
 4043.7814941 8.4112882614 -0.023895260 101.85880280 225.44090271 92.002479553 0.2783480883 8.7593498230 1.5332000256 0.6993095875 0.6809266806 2.4977691174  -999.250000  -999.250000 12.909899712 2.9777998924 7.5799999237  -999.250000  -999.250000  -999.250000
 4043.9340820 8.4115438461 -0.025579350 101.89440155 224.16130066 92.506973267 0.2772392929 8.7770185471 1.5109000206 0.6762894988 0.6979408860 2.4938919544  -999.250000  -999.250000 13.062299728 3.1331000328 7.5799999237  -999.250000  -999.250000  -999.250000
 4044.0864258 8.4135522842 -0.026687330 101.97530365 223.08760071 91.767311096 0.2778556049 8.7974319458 1.5236999989 0.6557369828 0.7003080845 2.4911170006  -999.250000  -999.250000 13.131199837 2.9481000900 7.5799999237  -999.250000  -999.250000  -999.250000
 4044.2387695 8.4177055359 -0.027290020 102.21730042 223.17210388 89.507926941 0.2820453942 8.8164529800 1.4742000103 0.6497008801 0.6863293052 2.4894461632  -999.250000  -999.250000 12.673700333 2.7772998810 7.5799999237  -999.250000  -999.250000  -999.250000
 4044.3911133 8.4207191467 -0.026952250 102.39409637 223.75810242 87.234413147 0.2866334021 8.8320417404 1.4214999676 0.6783431768 0.6936604977 2.4875130653  -999.250000  -999.250000 12.822500229 2.6120998859 7.5799999237  -999.250000  -999.250000  -999.250000
 4044.5437012 8.4196653366 -0.025695870 102.64600372 224.85600281 86.346626282 0.2872548997 8.8242511749 1.3997000456 0.7228227854 0.7064458728 2.4848089218  -999.250000  -999.250000 12.647700310 2.4716000557 7.5799999237  -999.250000  -999.250000  -999.250000
 4044.6960449 8.4074277878 -0.022660110 102.67479706 223.15870667 87.683212280 0.2851878107 8.8011112213 1.4178999662 0.7430995107 0.6934338212 2.4836580753  -999.250000  -999.250000 13.024200439 2.5006000996 7.5799999237  -999.250000  -999.250000  -999.250000
 4044.8483887 8.3902091980 -0.018536231 102.68779755 225.00979614 90.378929138 0.2833299041 8.8130340576 1.4933999777 0.7729027867 0.6749809980 2.4854760170  -999.250000  -999.250000 13.152500153 2.5243000984 7.5799999237  -999.250000  -999.250000  -999.250000
 4045.0007324 8.3795194626 -0.017092250 102.86170197 225.25590515 93.045341492 0.2843016982 8.8335409164 1.5493999720 0.7918528914 0.6673406959 2.4876780510  -999.250000  -999.250000 13.446399689 2.6900000572 7.5799999237  -999.250000  -999.250000  -999.250000
 4045.1533203 8.3785390854 -0.019347381 102.85330200 226.26710510 94.162696838 0.2856070101 8.7755975723 1.5478999615 0.6975026727 0.6672738791 2.4889199734  -999.250000  -999.250000 13.077099800 2.9224998951 7.5799999237  -999.250000  -999.250000  -999.250000
 4045.3056641 8.3878259659 -0.021878811 102.74680328 226.37670898 94.276916504 0.2835488915 8.6193532944 1.5753998756 0.6361895800 0.6527460814 2.4902830124  -999.250000  -999.250000 13.535400391 2.7076001167 7.5799999237  -999.250000  -999.250000  -999.250000
 4045.4580078 8.3941822052 -0.022784101 102.54570007 224.28460693 93.429992676 0.2785468102 8.4530267715 1.5097999573 0.6693586111 0.6558039784 2.4927148819  -999.250000  -999.250000 13.590100288 2.6665000916 7.5799999237  -999.250000  -999.250000  -999.250000
 4045.6103516 8.3910665512 -0.021439251 102.38719940 223.33920288 91.638816833 0.2738814056 8.3508720398 1.5391000509 0.6937838197 0.6716098189 2.4958138466  -999.250000  -999.250000 13.030699730 2.5789000988 7.5799999237  -999.250000  -999.250000  -999.250000
 4045.7626953 8.3844308853 -0.020081069 102.22160339 221.82550049 89.835319519 0.2746731937 8.2784576416 1.5076999664 0.6829831004 0.6669493914 2.4977030754  -999.250000  -999.250000 12.489100456 2.5538001060 7.5799999237  -999.250000  -999.250000  -999.250000
 4045.9152832 8.3816194534 -0.019788809 101.93930054 219.93359375 90.220710754 0.2803116143 8.3595371246 1.4753999710 0.7275140285 0.6614322066 2.4972290993  -999.250000  -999.250000 12.039600372 2.8412001133 7.5799999237  -999.250000  -999.250000  -999.250000
 4046.0676270 8.3931131363 -0.021642881 101.62419891 219.08050537 92.718193054 0.2854388058 8.5914554596 1.5643999577 0.7923163176 0.6662551165 2.4945449829  -999.250000  -999.250000 12.242799759 2.9848001003 7.5799999237  -999.250000  -999.250000  -999.250000
 4046.2199707 8.4157953262 -0.025336770 101.28398895 218.26559448 93.538871765 0.2847467959 8.8373823166 1.5687999725 0.7808585167 0.6692352891 2.4915621281  -999.250000  -999.250000 12.198300362 3.0360999107 7.5799999237  -999.250000  -999.250000  -999.250000
 4046.3723145 8.4250650406 -0.027253300 101.06430054 217.05349731 93.532386780 0.2813579142 8.8207864761 1.5929000378 0.7301766872 0.6743962765 2.4903230667  -999.250000  -999.250000 12.106300354 2.9605000019 7.5799999237  -999.250000  -999.250000  -999.250000
 4046.5249023 8.4230594635 -0.027246060 101.02600098 217.78210449 92.528358459 0.2835147083 8.6398105621 1.5563999414 0.7173298001 0.6848580241 2.4906630516  -999.250000  -999.250000 12.053299904 2.8612000942 7.5799999237  -999.250000  -999.250000  -999.250000
 4046.6772461 8.4070749283 -0.024822060 101.18170166 216.26730347 91.202079773 0.2868759930 8.4487686157 1.5774000883 0.7447757721 0.7000476718 2.4912180901  -999.250000  -999.250000 11.541500092 2.8849999905 7.5799999237  -999.250000  -999.250000  -999.250000
