# LAS format log file from PETREL
# Project units are specified as depth units
#==================================================================
~Version information
VERS.   2.0:
WRAP.   NO:
#==================================================================
~Well
STRT .m      4042.1052246 :
STOP .m      5226.7104492 :
STEP .m     0.00000000 :
NULL .        -999.250000 :
COMP.           : COMPANY
WELL.  Pharos 1   : WELL
FLD.            : FIELD
LOC.            : LOCATION
SRVC.           : SERVICE COMPANY
DATE.  2017-10-02 11:49:48   : Log Export Date {yyyy-MM-dd HH:mm:ss}
PROV.           : PROVINCE
UWI.   Pharos 1   : UNIQUE WELL ID
API.            : API NUMBER
#==================================================================
~Curve
DEPT .m                   : DEPTH
CAL .in                   : CAL
DRHO .g/cm3               : DRHO
DTC .us/ft                : DTC
DTS .us/ft                : DTS
GR .gAPI                  : GR
NPHI .m3/m3               : NPHI
PEF .b/e                  : PEF
POTA .%                   : POTA
RESD .ohm.m               : RESD
RESM .ohm.m               : RESM
RHOB .g/cm3               : RHOB
RT .ohm.m                 : RT
RXO .ohm.m                : RXO
THOR .ppm                 : THOR
URAN .ppm                 : URAN
Casing ._                 : Casing
Core ._                   : Core
MDTPoints ._              : MDT Points
SWC ._                    : SWC
~Parameter
#==================================================================
~Ascii
# ...
 4642.1040039 8.3877277374 -0.023747209 93.869819641 183.88090515 136.40460205 0.3066715896 9.1256637573 2.0768001080 1.2534749508 1.2474379539 2.5736660957  -999.250000  -999.250000 22.007699966 3.6300001144 7.5799999237  -999.250000  -999.250000  -999.250000
 4642.2563477 8.3987274170 -0.024905723 94.452728271 184.92160034 136.56610107 0.3023135960 9.0936660767 1.9753999710 1.2419810295 1.2644920349 2.5700459480  -999.250000  -999.250000 22.087699890 3.7485001087 7.5799999237  -999.250000  -999.250000  -999.250000
 4642.4086914 8.4012708664 -0.025727030 94.780357361 186.07749939 137.40060425 0.2961792946 8.9645528793 1.9298000336 1.2531889677 1.2646969557 2.5645029545  -999.250000  -999.250000 21.625499725 4.1655001640 7.5799999237  -999.250000  -999.250000  -999.250000
 4642.5610352 8.3995294571 -0.025276359 94.833106995 188.63240051 139.56190491 0.3004370034 8.8000698090 2.0021998882 1.1479510069 1.2394889593 2.5622739792  -999.250000  -999.250000 22.094499588 3.9586002827 7.5799999237  -999.250000  -999.250000  -999.250000
 4642.7133789 8.3986234665 -0.024930591 94.775787354 189.56019592 142.29820251 0.3116579056 8.8057298660 2.1147999763 1.1096730232 1.2090330124 2.5592930317  -999.250000  -999.250000 22.984800339 3.9666001797 7.5799999237  -999.250000  -999.250000  -999.250000
 4642.8662109 8.3988409042 -0.024597879 94.827957153 190.26310730 144.11360168 0.3170435131 8.8900356293 2.1454999447 1.2608699799 1.1769399643 2.5561590195  -999.250000  -999.250000 23.513700485 3.6919000149 7.5799999237  -999.250000  -999.250000  -999.250000
 4643.0185547 8.4003801346 -0.024061769 94.793167114 189.83140564 144.92559814 0.3167896867 8.9131202698 2.1226999760 1.2627179623 1.1559829712 2.5560040474  -999.250000  -999.250000 23.226200104 4.0864000320 7.5799999237  -999.250000  -999.250000  -999.250000
 4643.1708984 8.3950433731 -0.023324979 94.586868286 190.45211792 144.62849426 0.3100639880 8.8894605637 2.1103999615 1.2059210539 1.1548190117 2.5600399971  -999.250000  -999.250000 22.964700699 4.0584998131 7.5799999237  -999.250000  -999.250000  -999.250000
 4643.3232422 8.3886137009 -0.023086170 94.506217957 192.77630615 143.69720459 0.3091433048 8.9274988174 2.1085999012 1.1792650223 1.1682130098 2.5633869171  -999.250000  -999.250000 22.139299393 4.2979998589 7.5799999237  -999.250000  -999.250000  -999.250000
 4643.4755859 8.3879880905 -0.022835409 95.094978333 194.65390015 143.14630127 0.3148253858 9.0019855499 2.0755999088 1.1882259846 1.1754020452 2.5646901131  -999.250000  -999.250000 21.767400742 4.3035001755 7.5799999237  -999.250000  -999.250000  -999.250000
 4643.6279297 8.3913335800 -0.022371359 95.631278992 196.34489441 143.00430298 0.3206760883 9.0499458313 2.1533999443 1.1975729465 1.1579209566 2.5652649403  -999.250000  -999.250000 22.344900131 3.9533002377 7.5799999237  -999.250000  -999.250000  -999.250000
 4643.7802734 8.3904514313 -0.021876611 95.438507080 192.62919617 141.69949341 0.3161211014 9.0786361694 2.0961000919 1.1914780140 1.1443589926 2.5651168823  -999.250000  -999.250000 21.802600861 4.0528998375 7.5799999237  -999.250000  -999.250000  -999.250000
 4643.9326172 8.3829097748 -0.022049559 94.763198853 188.49180603 139.59570313 0.3079487979 9.1268243790 2.0290999413 1.2057169676 1.1527830362 2.5636160374  -999.250000  -999.250000 21.420600891 4.0120000839 7.5799999237  -999.250000  -999.250000  -999.250000
 4644.0849609 8.3760833740 -0.022627549 94.213287354 188.10639954 138.74040222 0.3052156866 9.1597023010 2.0638000965 1.2282630205 1.1715639830 2.5617020130  -999.250000  -999.250000 21.968700409 3.6628000736 7.5799999237  -999.250000  -999.250000  -999.250000
 4644.2377930 8.3756208420 -0.022934370 94.160926819 187.58650208 138.94479370 0.3034836948 9.1538248062 2.1059000492 1.2550410032 1.1847289801 2.5621709824  -999.250000  -999.250000 21.559600830 3.8471999168 7.5799999237  -999.250000  -999.250000  -999.250000
 4644.3901367 8.3747529984 -0.021921860 93.835189819 186.51249695 137.14559937 0.3028840125 9.1615352631 1.9932999611 1.3160020113 1.2196480036 2.5656340122  -999.250000  -999.250000 21.230100632 4.0845999718 7.5799999237  -999.250000  -999.250000  -999.250000
 4644.5424805 8.3744821548 -0.020608719 93.094871521 186.14509583 132.59049988 0.3048925102 9.1506805420 1.9955999851 1.3236049414 1.2455300093 2.5697290897  -999.250000  -999.250000 19.158500671 3.9923002720 7.5799999237  -999.250000  -999.250000  -999.250000
 4644.6948242 8.3837347031 -0.021275740 92.320175171 185.36579895 128.62159729 0.3025119007 9.0738039017 2.0007998943 1.2641210556 1.2361530066 2.5727479458  -999.250000  -999.250000 18.994100571 3.6607999802 7.5799999237  -999.250000  -999.250000  -999.250000
 4644.8471680 8.3950786591 -0.023832571 91.822822571 183.40269470 126.81620026 0.2973318100 9.0358390808 1.9579000473 1.2632999420 1.2320070267 2.5760428905  -999.250000  -999.250000 18.383300781 3.5436999798 7.5799999237  -999.250000  -999.250000  -999.250000
 4644.9995117 8.4078521729 -0.027115270 91.831993103 183.36160278 127.61440277 0.2943294942 9.1285591125 2.0325000286 1.3045560122 1.2508189678 2.5823650360  -999.250000  -999.250000 19.710899353 3.2227001190 7.5799999237  -999.250000  -999.250000  -999.250000
 4645.1518555 8.4144163132 -0.028686110 92.274726868 183.50669861 129.03630066 0.2942304015 9.2716665268 2.0406000614 1.3361669779 1.3025360107 2.5901310444  -999.250000  -999.250000 19.453399658 3.2179999352 7.5799999237  -999.250000  -999.250000  -999.250000
 4645.3041992 8.4130573273 -0.028669739 93.040618896 185.75799561 132.27740479 0.2920609117 9.3153648376 2.0882000923 1.2837179899 1.3153259754 2.5938739777  -999.250000  -999.250000 20.618099213 3.5195999146 7.5799999237  -999.250000  -999.250000  -999.250000
 4645.4570313 8.4036836624 -0.026568869 93.571296692 188.02009583 133.74719238 0.2894968092 9.1894264221 2.1335999966 1.1081249714 1.2421829700 2.5912580490  -999.250000  -999.250000 20.514200211 3.4339001179 7.5799999237  -999.250000  -999.250000  -999.250000
 4645.6093750 8.3996334076 -0.025567699 93.626762390 185.27890015 134.04760742 0.2874445915 9.0223817825 2.1868000031 1.0455030203 1.1540809870 2.5843520164  -999.250000  -999.250000 21.010299683 3.3134000301 7.5799999237  -999.250000  -999.250000  -999.250000
 4645.7617188 8.4009790421 -0.025882160 93.723983765 185.42431641 133.50430298 0.2933272123 8.8951091766 2.1912999153 1.1254340410 1.1444790363 2.5772249699  -999.250000  -999.250000 20.533399582 3.1284000874 7.5799999237  -999.250000  -999.250000  -999.250000
 4645.9140625 8.4075078964 -0.026794991 93.832443237 186.48939514 135.83099365 0.3010317981 8.8589706421 2.1640999317 1.1243560314 1.1792949438 2.5717360973  -999.250000  -999.250000 21.872400284 3.1579999924 7.5799999237  -999.250000  -999.250000  -999.250000
 4646.0664063 8.4048252106 -0.026205342 93.955436707 186.98519897 137.50239563 0.3049244881 8.8950786591 2.1823000908 1.2254250050 1.1975239515 2.5666069984  -999.250000  -999.250000 22.391300201 3.2002999783 7.5799999237  -999.250000  -999.250000  -999.250000
 4646.2187500 8.4026489258 -0.025951801 94.294128418 189.04969788 137.43490601 0.3060866892 8.9537067413 2.0968999863 1.2971659899 1.2260090113 2.5607318878  -999.250000  -999.250000 23.344299316 3.1933000088 7.5799999237  -999.250000  -999.250000  -999.250000
 4646.3710938 8.4061918259 -0.026723810 94.816703796 190.28289795 134.93620300 0.3090740144 8.9392242432 1.9845999479 1.2567960024 1.2426060438 2.5543589592  -999.250000  -999.250000 22.378999710 3.2885000706 7.5799999237  -999.250000  -999.250000  -999.250000
 4646.5234375 8.4083433151 -0.027037600 95.360847473 190.90789795 137.01040649 0.3123751879 8.8674077988 2.0264999866 1.1453230381 1.2616380453 2.5516219139  -999.250000  -999.250000 22.330900192 3.6480000019 7.5799999237  -999.250000  -999.250000  -999.250000
 4646.6757813 8.3996686935 -0.025071461 95.769660950 193.05979919 140.73069763 0.3098244071 8.8088350296 2.0720999241 1.2282429934 1.2740850449 2.5548720360  -999.250000  -999.250000 22.768400192 3.8010001183 7.5799999237  -999.250000  -999.250000  -999.250000
