# LAS format log file from PETREL
# Project units are specified as depth units
#==================================================================
~Version information
VERS.   2.0:
WRAP.   NO:
#==================================================================
~Well
STRT .m      4859.1215820 :
STOP .m      5249.8750000 :
STEP .m     0.00000000 :
NULL .        -999.250000 :
COMP.           : COMPANY
WELL.  Proteus 1ST2   : WELL
FLD.            : FIELD
LOC.            : LOCATION
SRVC.           : SERVICE COMPANY
DATE.  2017-10-02 11:49:53   : Log Export Date {yyyy-MM-dd HH:mm:ss}
PROV.           : PROVINCE
UWI.   Proteus 1ST2   : UNIQUE WELL ID
API.            : API NUMBER
#==================================================================
~Curve
DEPT .m                   : DEPTH
BIT .in                   : BIT
CAL .in                   : CAL
DTC .us/ft                : DTC
DTS .us/ft                : DTS
GR .gAPI                  : GR
NPHI .m3/m3               : NPHI
PEF .b/e                  : PEF
POTA .%                   : POTA
RESD .ohm.m               : RESD
RESM .ohm.m               : RESM
RESS .ohm.m               : RESS
RHOB .g/cm3               : RHOB
THOR .ppm                 : THOR
URAN .ppm                 : URAN
FT_PRESS ._               : FT_PRESS
FT_PRESA ._               : FT_PRESA
FT_HYDB ._                : FT_HYDB
FT_TEMP ._                : FT_TEMP
FT_MOB ._                 : FT_MOB
FT_CODE ._                : FT_CODE
GS_GASA .%                : GS_GASA
Casing ._                 : Casing
~Parameter
#==================================================================
~Ascii
# ...
 5007.2543945 4.1250000000 4.2446999550 69.648498535 107.18540192 11.159299850 0.0335000008 3.2111999989 0.0425995588 463.45489502 319.96038818 251.54679871 2.2846000195 1.5371509790 0.3731522858 7274.4531250 7274.4531250 8059.7675781  -999.250000 21.046211243 1.0000000000 0.4600000083 4.1210803986
 5007.4067383 4.1250000000 4.2593002319 69.983299255 107.14779663 10.463600159 0.0324999988 3.3726999760 0.0477237888 679.23052979 367.15420532 340.35848999 2.2974586487 1.3765330315 0.3546493053 7274.5097656 7274.5097656 8060.0546875  -999.250000 20.865585327 1.0000000000 0.4600000083 4.1210823059
 5007.5590820 4.1250000000 4.3060998917 69.889503479 106.44049835 8.7095003128 0.0310047921 3.5996000767 0.0419528484 802.89831543 410.18869019 790.17272949 2.2978987694 1.3877069950 0.4276252091 7274.5659180 7274.5659180 8060.3422852  -999.250000 20.684959412 1.0000000000 0.4300000072 4.1210842133
 5007.7114258 4.1250000000 4.4295997620 69.748001099 109.04869843 10.899900436 0.0296044871 3.7393999100 0.0483705103 1039.4150391 430.56109619 496.99798584 2.3102602959 1.4537459612 0.4320676923 7274.6225586 7274.6225586 8060.6293945  -999.250000 20.504333496 1.0000000000 0.3876806796 4.1210861206
 5007.8637695 4.1250000000 4.4640002251 69.436096191 109.15829468 14.149000168 0.0292012822 3.7839999199 0.0399999991 1556.8160400 502.72891235 422.52789307 2.3173773289 1.6318720579 0.3684954941 7274.6791992 7274.6791992 8060.9169922  -999.250000 20.323707581 1.0000000000 0.3750756085 4.1210880280
 5008.0166016 4.1250000000 4.3674998283 68.943931580 106.81439972 15.901300430 0.0286999997 3.6463999748 0.0390172191 1950.0000000 497.26290894 470.83041382 2.3280999660 1.6834629774 0.3549224138 7274.7358398 7274.7358398 8061.2050781  -999.250000 20.142501831 1.0000000000 0.3499999940 4.1210894585
 5008.1689453 4.1250000000 4.3235998154 69.202697754 105.71790314 15.514100075 0.0278999992 3.4788000584 0.0313188396 1950.0000000 505.16040039 498.65560913 2.3357999325 1.6320539713 0.4339210987 7274.7919922 7274.7919922 8061.4926758  -999.250000 19.961875916 1.0000000000 0.3369523287 4.1210913658
 5008.3212891 4.1250000000 4.3323998451 69.225097656 105.27269745 14.507200241 0.0275999997 3.3008000851 0.0489918105 1950.0000000 497.95419312 519.88348389 2.3561000824 1.4436160326 0.4602927864 7274.8486328 7274.8486328 8061.7797852  -999.250000 19.781250000 1.0000000000 0.3199999928 4.1210932732
 5008.4736328 4.1250000000 4.3937997818 69.446800232 104.79138947 16.040500641 0.0269000009 3.2272000313 0.0199999996 1950.0000000 494.90390015 542.48571777 2.3552999496 1.5016000271 0.5175999999 7274.9052734 7274.9052734 8062.0673828  -999.250000 19.600622177 1.0000000000 0.3199999928 4.1210951805
 5008.6259766 4.1250000000 4.4917998314 69.185997009 103.62139893 15.578700066 0.0271000005 3.2732999325 0.0199999996 1922.3430176 439.77319336 515.57312012 2.3615798950 1.5275670290 0.4444454014 7274.9614258 7274.9614258 8062.3544922  -999.250000 19.419996262 1.0000000000 0.3038520813 4.1210970879
 5008.7783203 4.1250000000 4.5019998550 67.513702393 103.19049835 16.892900467 0.0268009584 3.0887999535 0.0199999996 1850.2919922 411.97421265 470.35861206 2.3766515255 1.5401070118 0.5369775295 7275.0180664 7275.0180664 8062.6420898  -999.250000 19.239370346 1.0000000000 0.2970261574 4.1210989952
 5008.9306641 4.1250000000 4.3909001350 66.745201111 102.50240326 16.454799652 0.0269993600 3.2156999111 0.0380852707 1820.3299561 396.91390991 435.63650513 2.4017195702 1.7472529411 0.5036123991 7275.0747070 7275.0747070 8062.9291992  -999.250000 19.058744431 1.0000000000 0.2800000012 4.1211009026
 5009.0830078 4.1250000000 4.3352999687 67.506301880 101.61389923 18.771799088 0.0277974345 3.3541998863 0.0399999991 1936.4739990 427.85839844 412.85940552 2.4123659134 1.9079979658 0.6153662801 7275.1308594 7275.1308594 8063.2167969  -999.250000 18.878118515 1.0000000000 0.2800000012 4.1211028099
 5009.2358398 4.1250000000 4.3638000488 67.478401184 100.65750122 17.898000717 0.0294000003 3.7367999554 0.0483959205 1950.0000000 380.38610840 385.65060425 2.4270000458 1.8624080420 0.6533058286 7275.1875000 7275.1875000 8063.5048828  -999.250000 18.696912766 1.0000000000 0.2727447450 4.1211047173
 5009.3881836 4.1250000000 4.3937997818 67.508499146 100.62519836 19.610599518 0.0315999985 3.9324998856 0.0500000007 1276.5999756 352.34729004 365.87908936 2.4317998886 2.0215840340 0.6083803177 7275.2441406 7275.2441406 8063.7924805  -999.250000 18.516286850 1.0000000000 0.2700000107 4.1211066246
 5009.5405273 4.1250000000 4.4727997780 67.195800781 99.832969666 17.704599380 0.0335000008 3.9121000767 0.0422507897 1643.1710205 375.15280151 335.28149414 2.4270000458 2.1163020134 0.6035968065 7275.3007813 7275.3007813 8064.0795898  -999.250000 18.335659027 1.0000000000 0.2599999905 4.1211085320
 5009.6928711 4.1250000000 4.4881000519 66.104103088 100.44619751 17.264200211 0.0355000012 4.1258997917 0.0251483005 1826.9100342 403.52490234 310.67510986 2.4317998886 2.1934599876 0.7058488727 7275.3569336 7275.3569336 8064.3671875  -999.250000 18.155033112 1.0000000000 0.2599999905 4.1211104393
 5009.8452148 4.1250000000 4.4317998886 66.626403809 101.94609833 17.035400391 0.0373000018 4.1696000099 0.0128975101 1856.7459717 398.62850952 318.09130859 2.4465000629 2.3460540771 0.7455006838 7275.4135742 7275.4135742 8064.6542969  -999.250000 17.974407196 1.0000000000 0.2500000000 4.1211118698
 5009.9975586 4.1250000000 4.2709999084 67.227996826 102.34069824 19.882900238 0.0384000018 4.2493000031 -0.003558266 1616.2800293 341.19189453 277.95590210 2.4388246536 2.4730179310 0.8068174124 7275.4702148 7275.4702148 8064.9418945  -999.250000 17.793781281 1.0000000000 0.2500000000 4.1211137772
 5010.1499023 4.1250000000 4.2915000916 67.596900940 100.85389709 18.568599701 0.0374031961 4.3657999039 0.0029115521 1838.2230225 288.51031494 246.47999573 2.4101920128 2.4751689434 0.8091769218 7275.5263672 7275.5263672 8065.2290039  -999.250000 17.613155365 1.0000000000 0.2399999946 4.1211156845
 5010.3022461 4.1250000000 4.3211998940 68.542602539 101.80619812 16.427799225 0.0363035239 4.5810999870 -0.002264837 1880.3060303 280.51849365 245.30999756 2.3842830658 2.2444050312 0.9167284966 7275.5830078 7275.5830078 8065.5166016  -999.250000 17.432527542 1.0000000000 0.2399999946 4.1211175919
 5010.4545898 4.1250000000 4.3529000282 68.931396484 105.30470276 12.046999931 0.0366987176 5.0897998810 -0.004190939 1860.8089600 271.58709717 257.93618774 2.3588812351 2.0695950985 0.8900405765 7275.6391602 7275.6391602 8065.8037109  -999.250000 17.251901627 1.0000000000 0.2399999946 4.1211194992
 5010.6074219 4.1250000000 4.4084000587 70.332878113 107.35700226 11.582699776 0.0372000001 5.3270998001 0.0000000000 1763.3929443 264.69610596 283.72351074 2.3166000843 1.8781969547 0.7535213232 7275.6958008 7275.6958008 8066.0922852  -999.250000 17.070697784 1.0000000000 0.2390727848 4.1211214066
 5010.7597656 4.1250000000 4.4004001617 69.890502930 107.82710266 10.049400330 0.0366000012 4.4309000969 0.0000000000 1755.5379639 296.11099243 267.23388672 2.2997000217 1.6662290096 0.6287267804 7275.7524414 7275.7524414 8066.3793945  -999.250000 16.890069962 1.0000000000 0.2300000042 4.1211233139
 5010.9121094 4.1250000000 4.4230999947 69.538597107 106.63700104 11.171699524 0.0359000005 3.4212999344 -0.004838989 1557.5959473 339.95581055 281.33401489 2.3096001148 1.5501619577 0.5723233223 7275.8090820 7275.8090820 8066.6669922  -999.250000 16.709444046 1.0000000000 0.2300000042 4.1211252213
 5011.0644531 4.1250000000 4.4260001183 69.550102234 105.86129761 13.169300079 0.0364999995 2.6586000919 -0.014515630 1389.1949463 358.91040039 294.25100708 2.3122999668 1.4457900524 0.5948054790 7275.8652344 7275.8652344 8066.9541016  -999.250000 16.528818130 1.0000000000 0.2300000042 4.1211271286
 5011.2167969 4.1250000000 4.4580998421 72.008697510 106.19429779 11.506899834 0.0379999988 2.8215000629 -0.015807729 965.28021240 334.03808594 314.64041138 2.3247001171 1.4283740520 0.5935100913 7275.9218750 7275.9218750 8067.2416992  -999.250000 16.348192215 1.0000000000 0.2300000042 4.1211290359
