# LAS format log file from PETREL
# Project units are specified as depth units
#==================================================================
~Version information
VERS.   2.0:
WRAP.   NO:
#==================================================================
~Well
STRT .m      4859.1215820 :
STOP .m      5249.8750000 :
STEP .m     0.00000000 :
NULL .        -999.250000 :
COMP.           : COMPANY
WELL.  Proteus 1ST2   : WELL
FLD.            : FIELD
LOC.            : LOCATION
SRVC.           : SERVICE COMPANY
DATE.  2017-10-02 11:49:53   : Log Export Date {yyyy-MM-dd HH:mm:ss}
PROV.           : PROVINCE
UWI.   Proteus 1ST2   : UNIQUE WELL ID
API.            : API NUMBER
#==================================================================
~Curve
DEPT .m                   : DEPTH
BIT .in                   : BIT
CAL .in                   : CAL
DTC .us/ft                : DTC
DTS .us/ft                : DTS
GR .gAPI                  : GR
NPHI .m3/m3               : NPHI
PEF .b/e                  : PEF
POTA .%                   : POTA
RESD .ohm.m               : RESD
RESM .ohm.m               : RESM
RESS .ohm.m               : RESS
RHOB .g/cm3               : RHOB
THOR .ppm                 : THOR
URAN .ppm                 : URAN
FT_PRESS ._               : FT_PRESS
FT_PRESA ._               : FT_PRESA
FT_HYDB ._                : FT_HYDB
FT_TEMP ._                : FT_TEMP
FT_MOB ._                 : FT_MOB
FT_CODE ._                : FT_CODE
GS_GASA .%                : GS_GASA
Casing ._                 : Casing
~Parameter
#==================================================================
~Ascii
# ...
 5027.8286133 4.1250000000 4.5311999321 70.658203125 122.89129639 124.31659698 0.1956000030 6.0998001099 1.4189720154 9.0986995697 9.2236995697 9.4667997360 2.7116999626 19.213359833 2.5452890396  -999.250000  -999.250000 8092.7036133  -999.250000  -999.250000 1.8685872555 0.2300000042 4.1213326454
 5027.9809570 4.1250000000 4.4727997780 70.816398621 124.44068909 131.10670471 0.1975000054 5.4833998680 1.4687620401 8.1909999847 8.2644996643 8.4322004318 2.7009999752 18.915599823 2.7154679298  -999.250000  -999.250000 8092.9223633  -999.250000  -999.250000 1.8787435293 0.2300000042 4.1213345528
 5028.1333008 4.1250000000 4.4917998314 71.304901123 125.33370209 133.51609802 0.2008000016 6.1189999580 1.4432090521 7.6620998383 7.7091999054 7.7379999161 2.6740999222 18.267080307 2.6226971149  -999.250000  -999.250000 8093.1411133  -999.250000  -999.250000 1.8888996840 0.2300000042 4.1213364601
 5028.2856445 4.1250000000 4.4903001785 71.875999451 125.90329742 140.40260315 0.1977999955 6.9043002129 1.4132750034 7.6290998459 7.5784997940 7.7550997734 2.6631000042 18.014049530 2.5985360146  -999.250000  -999.250000 8093.3598633  -999.250000  -999.250000 1.8990559578 0.2300000042 4.1213378906
 5028.4379883 4.1250000000 4.4697999954 71.917800903 126.32599640 133.19209290 0.1970999986 7.3421001434 1.4277650118 7.8222999573 7.7115001678 7.8157000542 2.6872000694 17.652420044 2.6772010326  -999.250000  -999.250000 8093.5786133  -999.250000  -999.250000 1.9092122316 0.2389961481 4.1213397980
 5028.5903320 4.1250000000 4.4376997948 71.662696838 127.05239105 143.07980347 0.1934999973 7.1395998001 1.4334059954 7.9566998482 7.8828001022 7.9580998421 2.6965699196 17.387369156 2.7564749718  -999.250000  -999.250000 8093.7968750  -999.250000  -999.250000 1.9193685055 0.2399999946 4.1213417053
 5028.7426758 4.1250000000 4.4442000389 70.771499634 125.80119324 143.07980347 0.1997798681 7.5044999123 1.4144910574 8.1237001419 7.9930000305 8.1520996094 2.6990919113 17.292129517 2.7101500034  -999.250000  -999.250000 8094.0156250  -999.250000  -999.250000 1.9295247793 0.2399999946 4.1213436127
 5028.8950195 4.1250000000 4.4991002083 70.093803406 123.74079895 143.93820190 0.2084721178 7.7128000259 1.4264620543 8.1378002167 8.0551996231 8.1515998840 2.7027881145 17.434059143 2.5842509270  -999.250000  -999.250000 8094.2343750  -999.250000  -999.250000 1.9396809340 0.2500000000 4.1213455200
 5029.0473633 4.1250000000 4.5399999619 70.547096252 126.33499908 134.05050659 0.2156769186 7.9657001495 1.4290690422 8.1185998917 7.9755001068 8.1549997330 2.7095782757 17.576700211 2.5318930149  -999.250000  -999.250000 8094.4531250  -999.250000  -999.250000 1.9498372078 0.2500000000 4.1213474274
 5029.2001953 4.1250000000 4.5574998856 71.545600891 128.44009399 134.37420654 0.2115000039 7.6479001045 1.4199999571 7.9773998260 7.7846999168 7.9258999825 2.7202000618 17.559289932 2.4600250721  -999.250000  -999.250000 8094.6723633  -999.250000  -999.250000 1.9600260258 0.2500000000 4.1213493347
 5029.3525391 4.1250000000 4.5750999451 71.918197632 129.42140198 132.18380737 0.1990000010 8.5173997879 1.4199999571 8.2088003159 8.0958003998 8.1269998550 2.7026000023 17.672149658 2.4382300377  -999.250000  -999.250000 8094.8911133  -999.250000  -999.250000 1.9701822996 0.2500000000 4.1213512421
 5029.5048828 4.1250000000 4.5780000687 71.251800537 126.91750336 131.63650513 0.1903000027 8.8353996277 1.4307990074 8.5763998032 8.4368000031 8.4307003021 2.6900999546 18.182380676 2.4904839993  -999.250000  -999.250000 8095.1098633  -999.250000  -999.250000 1.9803385735 0.2399999946 4.1213531494
 5029.6572266 4.1250000000 4.5647997856 70.340599060 124.68350220 123.64659882 0.1991000026 9.1930999756 1.3969789743 9.1260004044 9.0052995682 9.1287002563 2.7119998932 18.632850647 2.3537549973  -999.250000  -999.250000 8095.3286133  -999.250000  -999.250000 1.9904948473 0.2399999946 4.1213550568
 5029.8095703 4.1250000000 4.5517001152 69.248199463 122.83860016 126.71309662 0.2161000073 8.2491998672 1.3385770321 10.282199860 10.225999832 10.610799789 2.6977458000 18.523590088 2.1292850971  -999.250000  -999.250000 8095.5473633  -999.250000  -999.250000 2.0006511211 0.2399999946 4.1213569641
 5029.9619141 4.1250000000 4.4815001488 70.249900818 123.93430328 135.80279541 0.2254699767 7.9457001686 1.2986650467 11.503800392 11.387299538 11.440500259 2.6581273079 18.157939911 1.9338309765  -999.250000  -999.250000 8095.7661133  -999.250000  -999.250000 2.0108072758 0.2399999946 4.1213588715
 5030.1142578 4.1250000000 4.4668998718 71.142799377 126.12660980 134.97709656 0.2278923094 8.0733995438 1.2959350348 9.8268995285 9.8879995346 9.9158000946 2.6593954563 18.303300858 1.9824229479  -999.250000  -999.250000 8095.9848633  -999.250000  -999.250000 2.0209634304 0.2431778312 4.1213603020
 5030.2666016 4.1250000000 4.4697999954 71.869697571 127.43190002 123.36820221 0.2153403759 9.6314001083 1.3205800056 8.6152000427 8.5206003189 8.6202001572 2.7112333775 18.596080780 1.9614679813  -999.250000  -999.250000 8096.2036133  -999.250000  -999.250000 2.0311198235 0.2500000000 4.1213622093
 5030.4194336 4.1250000000 4.5048999786 70.166725159 124.24629974 108.94509888 0.2131000012 11.161100388 1.3405359983 8.6471004486 8.5604000092 8.6226997375 2.7532999516 18.853229523 1.8273210526  -999.250000  -999.250000 8096.4228516  -999.250000  -999.250000 2.0413086414 0.2500000000 4.1213641167
 5030.5717773 4.1250000000 4.5194997787 68.083702087 123.52400208 115.04689789 0.2251999974 10.036299706 1.3500000238 10.369199753 10.406100273 10.116499901 2.7767999172 19.238140106 1.7383550406  -999.250000  -999.250000 8096.6416016  -999.250000  -999.250000 2.0514647961 0.2500000000 4.1213660240
 5030.7241211 4.1250000000 4.4881000519 68.358802795 123.75900269 129.01980591 0.2331999987 8.9261999130 1.3552240133 13.158100128 13.066300392 13.069299698 2.7439999580 20.338760376 1.6700650454  -999.250000  -999.250000 8096.8603516  -999.250000  -999.250000 2.0616211891 0.2500000000 4.1213679314
 5030.8764648 4.1250000000 4.5282998085 70.226600647 127.45040131 141.03340149 0.2241999954 8.6717996597 1.3704040051 11.229000092 11.397999763 12.148300171 2.7053000927 21.240840912 1.8314779997  -999.250000  -999.250000 8097.0791016  -999.250000  -999.250000 2.0717773438 0.2500000000 4.1213698387
 5031.0288086 4.1250000000 4.4843997955 71.578201294 130.53599548 145.39489746 0.2149000019 8.0697002411 1.4162609577 8.6881999969 8.9077997208 9.0438995361 2.6951000690 21.480979919 2.0550880432  -999.250000  -999.250000 8097.2978516  -999.250000  -999.250000 2.0819334984 0.2399999946 4.1213717461
 5031.1811523 4.1250000000 4.3937997818 71.492599487 131.88240051 143.68809509 0.2166000009 7.4608001709 1.4551579952 7.3389000893 7.4454998970 7.3138999939 2.7048690319 21.709220886 2.2107400894  -999.250000  -999.250000 8097.5166016  -999.250000  -999.250000 2.0920898914 0.2499776632 4.1213736534
 5031.3334961 4.1250000000 4.3821001053 70.667198181 130.38839722 146.30569458 0.2220824361 7.0591998100 1.4548640251 6.5201997757 6.6166000366 6.4787001610 2.7118775845 20.986719131 2.3826930523  -999.250000  -999.250000 8097.7348633  -999.250000  -999.250000 2.1022460461 0.2500000000 4.1213755608
 5031.4858398 4.1250000000 4.3850002289 72.836997986 131.37980652 150.90550232 0.2254891098 7.0314998627 1.4295430183 7.0683999062 7.2522001266 7.5820999146 2.6878771782 19.893999100 2.5289299488  -999.250000  -999.250000 8097.9536133  -999.250000  -999.250000 2.1124024391 0.2482457608 4.1213774681
 5031.6381836 4.1250000000 4.4054999352 72.532402039 130.48620605 151.34359741 0.2270948738 6.8516001701 1.3896299601 7.6803998947 7.9918999672 8.5122003555 2.6878998280 19.379379272 2.6005620956  -999.250000  -999.250000 8098.1723633  -999.250000  -999.250000 2.1225585938 0.2500000000 4.1213793755
 5031.7910156 4.1250000000 4.3966999054  -999.250000 129.09680176 137.87170410 0.2231999934 7.5528998375 1.3750699759 7.3733000755 7.5524997711 7.8250999451 2.7267000675 19.584110260 2.5326659679  -999.250000  -999.250000 8098.3920898  -999.250000  -999.250000 2.1327474117 0.2500000000 4.1213812828
