# LAS format log file from PETREL
# Project units are specified as depth units
#==================================================================
~Version information
VERS.   2.0:
WRAP.   NO:
#==================================================================
~Well
STRT .m      4859.1215820 :
STOP .m      5249.8750000 :
STEP .m     0.00000000 :
NULL .        -999.250000 :
COMP.           : COMPANY
WELL.  Proteus 1ST2   : WELL
FLD.            : FIELD
LOC.            : LOCATION
SRVC.           : SERVICE COMPANY
DATE.  2017-10-02 11:49:53   : Log Export Date {yyyy-MM-dd HH:mm:ss}
PROV.           : PROVINCE
UWI.   Proteus 1ST2   : UNIQUE WELL ID
API.            : API NUMBER
#==================================================================
~Curve
DEPT .m                   : DEPTH
BIT .in                   : BIT
CAL .in                   : CAL
DTC .us/ft                : DTC
DTS .us/ft                : DTS
GR .gAPI                  : GR
NPHI .m3/m3               : NPHI
PEF .b/e                  : PEF
POTA .%                   : POTA
RESD .ohm.m               : RESD
RESM .ohm.m               : RESM
RESS .ohm.m               : RESS
RHOB .g/cm3               : RHOB
THOR .ppm                 : THOR
URAN .ppm                 : URAN
FT_PRESS ._               : FT_PRESS
FT_PRESA ._               : FT_PRESA
FT_HYDB ._                : FT_HYDB
FT_TEMP ._                : FT_TEMP
FT_MOB ._                 : FT_MOB
FT_CODE ._                : FT_CODE
GS_GASA .%                : GS_GASA
Casing ._                 : Casing
~Parameter
#==================================================================
~Ascii
# ...
 4937.3027344 4.1250000000 4.3991999626 64.187797546 118.08360291 125.00509644 0.1348000020 7.0335001945 1.3376580477 12.647500038 12.521300316 12.088000298 2.6934986115 13.464249611 1.6233940125  -999.250000  -999.250000  -999.250000  -999.250000  -999.250000  -999.250000 0.1607526690 4.1202230453
 4937.4550781 4.1250000000 4.3888998032 66.453903198 123.03020477 117.34940338 0.1127706096 7.6525001526 1.2505259514 9.5916004181 9.4514999390 9.1423997879 2.7428417206 12.330060005 1.8683329821  -999.250000  -999.250000  -999.250000  -999.250000  -999.250000  -999.250000 0.1700000018 4.1202249527
 4937.6074219 4.1250000000 4.3685002327 67.316596985 123.93720245 103.43620300 0.0955551267 8.7976999283 1.2115240097 7.2399001122 7.1960000992 7.1645998955 2.8145699501 11.459970474 1.7819720507  -999.250000  -999.250000  -999.250000  -999.250000  -999.250000  -999.250000 0.1899999976 4.1202268600
 4937.7597656 4.1250000000 4.3723998070 66.716003418 123.25530243 82.260200500 0.0915128216 9.1056995392 1.2854319811 7.3380999565 7.1722998619 7.2330999374 2.8357326984 11.510860443 1.6580560207  -999.250000  -999.250000  -999.250000  -999.250000  -999.250000  -999.250000 0.1834187806 4.1202287674
 4937.9125977 4.1250000000 4.3548002243 63.731094360 112.83940125 81.564300537 0.1067999974 7.0338997841 1.4077099562 9.6274003983 9.4202995300 9.6916999817 2.7751998901 12.405900002 2.1149330139  -999.250000  -999.250000  -999.250000  -999.250000  -999.250000  -999.250000 0.2099999934 4.1202306747
 4938.0649414 4.1250000000 4.3529000282 59.758396149 106.32409668 99.419601440 0.1322000027 6.0920000076 1.6513839960 13.437500000 13.608400345 14.535099983 2.7030999660 13.264789581 2.7509400845  -999.250000  -999.250000  -999.250000  -999.250000  -999.250000  -999.250000 0.2399999946 4.1202321053
 4938.2172852 4.1250000000 4.3460001945 59.134799957 106.32759857 135.43629456 0.1605000049 5.4878997803 1.9689249992 13.345800400 14.479000092 16.518899918 2.6607000828 14.606809616 3.1613199711  -999.250000  -999.250000  -999.250000  -999.250000  -999.250000  -999.250000 0.2539860308 4.1202340126
 4938.3696289 4.1250000000 4.3723998070 62.745899200 112.62799835 167.68280029 0.1772000045 5.1901001930 2.3299610615 8.2341003418 8.8165998459 11.004699707 2.6496999264 16.110450745 3.5869588852  -999.250000  -999.250000  -999.250000  -999.250000  -999.250000  -999.250000 0.2600135505 4.1202359200
 4938.5219727 4.1250000000 4.4756999016 70.068000793 121.81970215 178.58149719 0.1859000027 5.2158999443 2.5718679428 4.4337000847 4.6318001747 4.5893001556 2.6510953903 17.553609848 3.8237419128  -999.250000  -999.250000  -999.250000  -999.250000  -999.250000  -999.250000 0.2899999917 4.1202378273
 4938.6743164 4.1250000000 4.5100002289 77.067504883 131.78309631 179.07069397 0.1946718842 5.5753002167 2.7358090878 2.8873999119 2.9848999977 2.9825000763 2.6667497158 17.552900314 3.9480528831  -999.250000  -999.250000  -999.250000  -999.250000  -999.250000  -999.250000 0.3016209602 4.1202397346
 4938.8266602 4.1250000000 4.5264000893 79.570899963 137.55380249 174.40449524 0.1907128096 5.6875000000 2.8324270248 2.7593998909 2.8801000118 2.7151999474 2.6786618233 17.318979263 3.8336060047  -999.250000  -999.250000  -999.250000  -999.250000  -999.250000  -999.250000 0.3155045807 4.1202416420
 4938.9790039 4.1250000000 4.5015997887 79.579399109 139.79780579 172.33850098 0.1914974302 5.4513001442 2.8399999142 2.7270998955 2.8550000191 2.8527998924 2.6851792336 17.035560608 3.8666529655  -999.250000  -999.250000  -999.250000  -999.250000  -999.250000  -999.250000 0.3400000036 4.1202435493
 4939.1318359 4.1250000000 4.4230999947 79.668426514 137.99440002 174.65840149 0.1873999983 4.7056999207 2.8370211124 2.7160000801 2.8787000179 2.9619998932 2.6856000423 16.884439468 3.6210050583  -999.250000  -999.250000  -999.250000  -999.250000  -999.250000  -999.250000 0.3982808292 4.1202454567
 4939.2841797 4.1250000000 4.3906002045 80.079299927 138.31610107 173.49899292 0.1912000030 4.2915000916 2.8365108967 2.7219998837 2.9019000530 3.0455000401 2.6935000420 16.006689072 3.8272430897  -999.250000  -999.250000  -999.250000  -999.250000  -999.250000  -999.250000 0.5510589480 4.1202473640
 4939.4365234 4.1250000000 4.3948001862 79.201499939 136.93409729 178.60600281 0.1828999966 4.2944002151 2.9100360870 2.6886000633 2.8812000751 3.0102999210 2.6861000061 15.684080124 4.0170660019  -999.250000  -999.250000  -999.250000  -999.250000  -999.250000  -999.250000 0.6050404906 4.1202492714
 4939.5888672 4.1250000000 4.3906002045 78.435997009 135.97230530 179.73910522 0.1879999936 4.6861000061 3.0428459644 2.6802000999 2.8245000839 2.9633998871 2.6663000584 15.949460030 4.0574469566  -999.250000  -999.250000  -999.250000  -999.250000  -999.250000  -999.250000 0.6543172002 4.1202511787
 4939.7412109 4.1250000000 4.3821001053 77.859199524 133.89109802 181.36230469 0.1943999976 4.9931001663 3.0677490234 2.7778999805 2.8747999668 2.9925000668 2.6398000717 15.705100060 4.0823640823  -999.250000  -999.250000  -999.250000  -999.250000  -999.250000  -999.250000 0.6700179577 4.1202530861
 4939.8935547 4.1250000000 4.3894000053 78.316802979 134.95350647 184.84210205 0.2073999941 5.1765999794 3.0499999523 2.8717000484 2.9823999405 3.0924000740 2.6431889534 15.502280235 3.9912250042  -999.250000  -999.250000  -999.250000  -999.250000  -999.250000  -999.250000 0.6899999976 4.1202545166
 4940.0458984 4.1250000000 4.4611001015 79.321907043 137.34970093 186.06219482 0.2075993568 5.6918001175 3.1009969711 2.8334999084 2.9595999718 3.0933001041 2.6539654732 15.042340279 3.8896629810  -999.250000  -999.250000  -999.250000  -999.250000  -999.250000  -999.250000 0.6600000262 4.1202564240
 4940.1982422 4.1250000000 4.5234999657 80.288696289 140.27830505 184.43899536 0.2096932679 6.7635002136 3.1600000858 2.6535000801 2.7743999958 2.8752000332 2.6724405289 14.387220383 3.8559100628  -999.250000  -999.250000  -999.250000  -999.250000  -999.250000  -999.250000 0.6100000143 4.1202583313
 4940.3505859 4.1250000000 4.5234999657 80.817001343 142.10929871 173.99949646 0.2158801258 7.4597001076 3.0717959404 2.4598999023 2.5782001019 2.6663999557 2.6840627193 13.527079582 3.7564859390  -999.250000  -999.250000  -999.250000  -999.250000  -999.250000  -999.250000 0.5703511238 4.1202602386
 4940.5034180 4.1250000000 4.5795001984 80.268676758 141.45069885 170.69239807 0.2205999941 7.5184998512 2.9900000095 2.2818000317 2.4089999199 2.4621000290 2.7091000080 12.468350410 3.6226119995  -999.250000  -999.250000  -999.250000  -999.250000  -999.250000  -999.250000 0.4799999893 4.1202621460
 4940.6557617 4.1250000000 4.5770998001 79.542396545 138.86250305 164.19949341 0.2143999934 7.2909998894 2.9612960815 2.2016000748 2.3376998901 2.4230000973 2.7205998898 11.554699898 3.3942220211  -999.250000  -999.250000  -999.250000  -999.250000  -999.250000  -999.250000 0.4498938918 4.1202640533
 4940.8081055 4.1250000000 4.4893999100 78.459701538 135.03729248 155.33779907 0.2116000056 7.1482000351 2.9460170269 2.1935999393 2.3573000431 2.4477000237 2.7479999065 10.759079933 3.0734579563  -999.250000  -999.250000  -999.250000  -999.250000  -999.250000  -999.250000 0.4369654059 4.1202659607
 4940.9604492 4.1250000000 4.3976998329 77.490592957 133.03669739 144.90289307 0.2175000012 7.4804000854 2.8870689869 2.2802999020 2.4941000938 2.5696001053 2.7753999233 10.360919952 2.5004150867  -999.250000  -999.250000  -999.250000  -999.250000  -999.250000  -999.250000 0.3799999952 4.1202678680
 4941.1127930 4.1250000000 4.4102001190 76.779594421 131.69569397 132.38099670 0.2270999998 7.9663000107 2.8105850220 2.4235999584 2.6544001102 2.7428998947 2.8104000092 9.9376478195 2.0070550442  -999.250000  -999.250000  -999.250000  -999.250000  -999.250000  -999.250000 0.3600000143 4.1202697754
 4941.2651367 4.1250000000 4.4562001228 77.139503479 130.83680725 129.17919922 0.2377000004 8.9605998993 2.7694640160 2.3678998947 2.5810999870 2.7212998867 2.8284420967 9.6480503082 1.6329029799  -999.250000  -999.250000  -999.250000  -999.250000  -999.250000  -999.250000 0.3499999940 4.1202716827
