# LAS format log file from PETREL
# Project units are specified as depth units
#==================================================================
~Version information
VERS.   2.0:
WRAP.   NO:
#==================================================================
~Well
STRT .m      4859.1215820 :
STOP .m      5249.8750000 :
STEP .m     0.00000000 :
NULL .        -999.250000 :
COMP.           : COMPANY
WELL.  Proteus 1ST2   : WELL
FLD.            : FIELD
LOC.            : LOCATION
SRVC.           : SERVICE COMPANY
DATE.  2017-10-02 11:49:53   : Log Export Date {yyyy-MM-dd HH:mm:ss}
PROV.           : PROVINCE
UWI.   Proteus 1ST2   : UNIQUE WELL ID
API.            : API NUMBER
#==================================================================
~Curve
DEPT .m                   : DEPTH
BIT .in                   : BIT
CAL .in                   : CAL
DTC .us/ft                : DTC
DTS .us/ft                : DTS
GR .gAPI                  : GR
NPHI .m3/m3               : NPHI
PEF .b/e                  : PEF
POTA .%                   : POTA
RESD .ohm.m               : RESD
RESM .ohm.m               : RESM
RESS .ohm.m               : RESS
RHOB .g/cm3               : RHOB
THOR .ppm                 : THOR
URAN .ppm                 : URAN
FT_PRESS ._               : FT_PRESS
FT_PRESA ._               : FT_PRESA
FT_HYDB ._                : FT_HYDB
FT_TEMP ._                : FT_TEMP
FT_MOB ._                 : FT_MOB
FT_CODE ._                : FT_CODE
GS_GASA .%                : GS_GASA
Casing ._                 : Casing
~Parameter
#==================================================================
~Ascii
# ...
 5163.6166992 4.1250000000 4.6196999550 63.310501099  -999.250000 122.55829620 0.0682814717 10.223899841 0.4244366884 22.257299423 20.308799744 19.732000351 3.0375361443 16.126270294 2.7629148960  -999.250000  -999.250000  -999.250000  -999.250000  -999.250000 3.0644562244 0.1599999964 4.1229968071
 5163.7690430 4.1250000000 4.6013998985 63.212898254  -999.250000 127.43009949 0.0768724307 9.8874998093 0.4558443129 29.076400757 26.879499435 25.475799561 3.0111858845 15.960559845 2.8498919010  -999.250000  -999.250000  -999.250000  -999.250000  -999.250000 3.0600595474 0.1599999964 4.1229987144
 5163.9213867 4.1250000000 4.7154002190 62.792999268  -999.250000 116.69730377 0.0829804465 11.310500145 0.4525383115 34.555500031 31.703300476 29.231800079 2.9523887634 14.790590286 2.8441119194  -999.250000  -999.250000  -999.250000  -999.250000  -999.250000 3.0556628704 0.1500000060 4.1230006218
 5164.0742188 4.1250000000 4.7877998352 63.103996277  -999.250000 87.479499817 0.0830999985 20.769399643 0.4067651927 30.696899414 27.236600876 26.248800278 2.9240999222 13.215180397 2.6434569359  -999.250000  -999.250000  -999.250000  -999.250000  -999.250000 3.0512521267 0.1500000060 4.1230025291
 5164.2265625 4.1250000000 4.8645000458 62.636699677  -999.250000 77.261100769 0.0790999979 29.741800308 0.3392361999 33.205200195 29.113000870 26.291799545 2.9644999504 11.779470444 2.3076128960  -999.250000  -999.250000  -999.250000  -999.250000  -999.250000 3.0468554497 0.1500000060 4.1230044365
 5164.3789063 4.1250000000 4.8828001022 62.832000732  -999.250000 73.982498169 0.0755999982 22.053899765 0.2939142883 45.814498901 39.486198425 33.417598724 2.9605998993 10.941329956 2.2313001156  -999.250000  -999.250000  -999.250000  -999.250000  -999.250000 3.0424587727 0.1599651426 4.1230058670
 5164.5312500 4.1250000000 4.8733000755 63.496101379  -999.250000 73.432197571 0.0746999979 25.653699875 0.2606925070 47.818000793 42.176300049 38.528800964 2.9186999798 10.297019958 2.2395410538  -999.250000  -999.250000  -999.250000  -999.250000  -999.250000 3.0380620956 0.1500000060 4.1230077744
 5164.6835938 4.1250000000 4.8264999390 63.759803772  -999.250000 74.591697693 0.0763999969 44.668800354 0.3163270950 38.503299713 33.141300201 28.585500717 2.8529000282 10.609279633 2.1718111038  -999.250000  -999.250000  -999.250000  -999.250000  -999.250000 3.0336654186 0.1500000060 4.1230096817
 5164.8359375 4.1250000000 4.7548999786 65.117202759  -999.250000 74.803703308 0.0791999996 35.979000092 0.3560501039 30.154899597 25.324899673 23.224000931 2.8583824635 11.653670311 2.4695339203  -999.250000  -999.250000  -999.250000  -999.250000  -999.250000 3.0292687416 0.1500000060 4.1230115891
 5164.9882813 4.1250000000 4.7476000786 65.068397522  -999.250000 82.325103760 0.0764089450 28.719699860 0.3387219012 23.554599762 20.191600800 18.857000351 2.9122269154 11.351119995 2.5440580845  -999.250000  -999.250000  -999.250000  -999.250000  -999.250000 3.0248720646 0.1700000018 4.1230134964
 5165.1406250 4.1250000000 4.7293000221 65.644500732  -999.250000 93.223701477 0.0776958317 14.555199623 0.2704421878 21.565799713 19.272600174 18.059400558 2.9548633099 10.650429726 2.2956199646  -999.250000  -999.250000  -999.250000  -999.250000  -999.250000 3.0204753876 0.1700000018 4.1230154037
 5165.2929688 4.1250000000 4.7095999718 65.273399353  -999.250000 93.661796570 0.0749089792 18.205200195 0.2500000000 25.446300507 22.815900803 22.181900024 2.9923799038 10.195500374 2.0497000217  -999.250000  -999.250000  -999.250000  -999.250000  -999.250000 3.0160787106 0.1700000018 4.1230173111
 5165.4458008 4.1250000000 4.6862001419 62.052047729  -999.250000 75.334602356 0.0608000010 13.269900322 0.2412019074 42.799701691 37.272998810 33.743801117 2.9195001125 10.305930138 1.8684060574  -999.250000  -999.250000  -999.250000  -999.250000  -999.250000 3.0116679668 0.1700000018 4.1230192184
 5165.5981445 4.1250000000 4.6781001091 59.414100647  -999.250000 54.467098236 0.0494000018 9.5389003754 0.2195173055 95.329696655 78.946800232 73.037200928 2.8417999744 9.5796699524 1.8495939970  -999.250000  -999.250000  -999.250000  -999.250000  -999.250000 3.0072712898 0.1700000018 4.1230211258
 5165.7504883 4.1250000000 4.6890997887 56.601600647  -999.250000 44.299198151 0.0456000008 8.8305997849 0.2016845942 130.15629578 123.18830109 103.64179993 2.9303998947 8.9544229507 1.4631780386  -999.250000  -999.250000  -999.250000  -999.250000  -999.250000 3.0028748512 0.1700000018 4.1230230331
 5165.9028320 4.1250000000 4.6919999123 56.621101379  -999.250000 59.047698975 0.0502000004 9.1647996902 0.2068721056 114.24639893 100.11319733 80.837402344 2.8828999996 9.0416717529 1.0788489580  -999.250000  -999.250000  -999.250000  -999.250000  -999.250000 2.9984781742 0.1700000018 4.1230249405
 5166.0551758 4.1250000000 4.6890997887 57.675804138  -999.250000 66.244003296 0.0571999997 10.478400230 0.2045712024 93.094200134 83.065101624 72.175598145 2.7254047394 8.3974390030 0.8179618716  -999.250000  -999.250000  -999.250000  -999.250000  -999.250000 2.9940814972 0.1700000018 4.1230268478
 5166.2075195 4.1250000000 4.7007999420 59.687503815  -999.250000 65.780197144 0.0577980801 40.126499176 0.1678989977 117.58309937 103.81420135 91.327102661 2.6800441742 7.2439270020 0.4767670929  -999.250000  -999.250000  -999.250000  -999.250000  -999.250000 2.9896848202 0.1700000018 4.1230282784
 5166.3598633 4.1250000000 4.6525998116 60.810501099  -999.250000 47.319900513 0.0495266020 96.015602112 0.1176268980 182.29040527 160.25120544 124.73880005 2.6833887100 5.8658890724 0.3428756893  -999.250000  -999.250000  -999.250000  -999.250000  -999.250000 2.9852881432 0.1700000018 4.1230301857
 5166.5122070 4.1250000000 4.6276998520 58.750000000  -999.250000 33.552398682 0.0407282040 105.01349640 0.1812077016 197.33790588 210.18739319 156.38499451 2.5380673409 6.7934851646 0.1590639949  -999.250000  -999.250000  -999.250000  -999.250000  -999.250000 2.9808914661 0.1700000018 4.1230320930
 5166.6650391 4.1250000000 4.6599001884 57.327354431  -999.250000 28.682800293 0.0355000012 28.414600372 0.2703442872 197.19810486 184.80780029 149.25390625 2.5597999096 8.5093622208 0.2120818943  -999.250000  -999.250000  -999.250000  -999.250000  -999.250000 2.9764807224 0.1700000018 4.1230340004
 5166.8173828 4.1250000000 4.5977001190 55.253898621  -999.250000 29.378799438 0.0318999998 12.375200272 0.2800000012 157.75329590 135.51719666 104.49109650 2.7212998867 9.4631996155 0.0112278899  -999.250000  -999.250000  -999.250000  -999.250000  -999.250000 2.9720840454 0.1700000018 4.1230359077
 5166.9697266 4.1250000000 4.5838999748 54.560501099  -999.250000 44.482200623 0.0311999992 9.7445001602 0.2703076899 88.806900024 81.845298767 72.417999268 2.8791000843 9.1514482498 0.1251138002  -999.250000  -999.250000  -999.250000  -999.250000  -999.250000 2.9676873684 0.1700000018 4.1230378151
 5167.1220703 4.1250000000 4.6086997986 56.230495453  -999.250000 57.477500916 0.0355000012 9.2466001511 0.2500000000 60.774700165 56.931900024 52.533000946 2.7915999889 8.7251157761 0.2930941880  -999.250000  -999.250000  -999.250000  -999.250000  -999.250000 2.9632906914 0.1644380391 4.1230397224
 5167.2744141 4.1250000000 4.6364998817 56.953098297  -999.250000 57.280899048 0.0395999998 9.7461996078 0.2321967036 75.649002075 69.446502686 68.711799622 2.7994000912 7.6694869995 0.4591512978  -999.250000  -999.250000  -999.250000  -999.250000  -999.250000 2.9588940144 0.1549953818 4.1230416298
 5167.4267578 4.1250000000 4.6364998817 57.685501099  -999.250000 41.325901031 0.0364999995 9.0067996979 0.2132807970 126.80989838 112.97049713 89.903900146 2.8514332771 6.7167367935 0.5010296702  -999.250000  -999.250000  -999.250000  -999.250000  -999.250000 2.9544973373 0.1500000060 4.1230435371
 5167.5791016 4.1250000000 4.6343002319 56.982398987  -999.250000 30.654300690 0.0314162932 8.8013000488 0.1953579932 223.27059937 179.52470398 132.54379272 2.7872068882 6.5989518166 0.6665120721  -999.250000  -999.250000  -999.250000  -999.250000  -999.250000 2.9501006603 0.1500000060 4.1230454445
