# LAS format log file from PETREL
# Project units are specified as depth units
#==================================================================
~Version information
VERS.   2.0:
WRAP.   NO:
#==================================================================
~Well
STRT .m      4859.1215820 :
STOP .m      5249.8750000 :
STEP .m     0.00000000 :
NULL .        -999.250000 :
COMP.           : COMPANY
WELL.  Proteus 1ST2   : WELL
FLD.            : FIELD
LOC.            : LOCATION
SRVC.           : SERVICE COMPANY
DATE.  2017-10-02 11:49:53   : Log Export Date {yyyy-MM-dd HH:mm:ss}
PROV.           : PROVINCE
UWI.   Proteus 1ST2   : UNIQUE WELL ID
API.            : API NUMBER
#==================================================================
~Curve
DEPT .m                   : DEPTH
BIT .in                   : BIT
CAL .in                   : CAL
DTC .us/ft                : DTC
DTS .us/ft                : DTS
GR .gAPI                  : GR
NPHI .m3/m3               : NPHI
PEF .b/e                  : PEF
POTA .%                   : POTA
RESD .ohm.m               : RESD
RESM .ohm.m               : RESM
RESS .ohm.m               : RESS
RHOB .g/cm3               : RHOB
THOR .ppm                 : THOR
URAN .ppm                 : URAN
FT_PRESS ._               : FT_PRESS
FT_PRESA ._               : FT_PRESA
FT_HYDB ._                : FT_HYDB
FT_TEMP ._                : FT_TEMP
FT_MOB ._                 : FT_MOB
FT_CODE ._                : FT_CODE
GS_GASA .%                : GS_GASA
Casing ._                 : Casing
~Parameter
#==================================================================
~Ascii
# ...
 5208.8793945 4.1250000000 4.5809001923 59.355495453  -999.250000 66.914497375 0.2903015912 10.762399673 0.3284304142 13.673500061 13.463999748 14.626899719 2.8492996693 12.942219734 0.4269036055  -999.250000  -999.250000  -999.250000  -999.250000  -999.250000  -999.250000 0.2665917575 4.1235513687
 5209.0322266 4.1250000000 4.5757999420 60.881767273  -999.250000 64.067001343 0.2917999923 9.7235002518 0.3442609906 9.2382001877 9.5263004303 9.9419002533 2.8587999344 12.768600464 0.6376010776  -999.250000  -999.250000  -999.250000  -999.250000  -999.250000  -999.250000 0.2700000107 4.1235532761
 5209.1845703 4.1250000000 4.5954999924 61.777301788  -999.250000 80.056701660 0.2448000014 8.9082002640 0.3672268093 9.6145000458 9.5627002716 9.7718000412 2.8203001022 12.170869827 0.9897609949  -999.250000  -999.250000  -999.250000  -999.250000  -999.250000  -999.250000 0.2700000107 4.1235551834
 5209.3369141 4.1250000000 4.6043000221 63.964801788  -999.250000 90.715698242 0.2029999942 7.9798002243 0.3812951148 12.447899818 12.588100433 12.459199905 2.7836000919 12.166640282 1.0829520226  -999.250000  -999.250000  -999.250000  -999.250000  -999.250000  -999.250000 0.2820374072 4.1235570908
 5209.4892578 4.1250000000 4.6050000191 63.359401703  -999.250000 91.591903687 0.1884000003 8.4819002151 0.3743982017 18.643299103 18.700500488 19.161800385 2.7669000626 11.799180031 1.4005670547  -999.250000  -999.250000  -999.250000  -999.250000  -999.250000  -999.250000 0.2899999917 4.1235589981
 5209.6416016 4.1250000000 4.6101999283 59.697299957  -999.250000 70.891601563 0.1816000044 8.9423999786 0.3755559921 35.051998138 33.615100861 25.404300690 2.7734000683 10.920120239 1.6651920080  -999.250000  -999.250000  -999.250000  -999.250000  -999.250000  -999.250000 0.2899999917 4.1235609055
 5209.7939453 4.1250000000 4.5904002190 58.632801056  -999.250000 63.628898621 0.1836999953 10.023699760 0.3565306962 41.121299744 39.162799835 26.573400497 2.7907445431 9.5085611343 1.7374960184  -999.250000  -999.250000  -999.250000  -999.250000  -999.250000  -999.250000 0.3167264760 4.1235628128
 5209.9462891 4.1250000000 4.5809001923 58.125000000  -999.250000 53.499500275 0.2044335455 10.225399971 0.3173224032 24.014099121 22.271900177 15.659700394 2.7848193645 7.9761118889 1.7204719782  -999.250000  -999.250000  -999.250000  -999.250000  -999.250000  -999.250000 0.3100000024 4.1235647202
 5210.0986328 4.1250000000 4.5721998215 61.240200043  -999.250000 58.648101807 0.2363974303 9.5305995941 0.3358128965 18.120800018 16.302099228 16.219499588 2.7730379105 8.2394208908 1.9293520451  -999.250000  -999.250000  -999.250000  -999.250000  -999.250000  -999.250000 0.3100000024 4.1235666275
 5210.2509766 4.1250000000 4.5780000687 65.683601379  -999.250000 90.189399719 0.2205512822 6.8357000351 0.4223893881 12.956999779 12.090900421 17.256900787 2.7558550835 10.431360245 2.7821350098  -999.250000  -999.250000  -999.250000  -999.250000  -999.250000  -999.250000 0.3100000024 4.1235685349
 5210.4038086 4.1250000000 4.5574998856 66.567626953  -999.250000 153.32569885 0.1519999951 4.6135997772 0.5114011168 12.411399841 11.112700462 15.636300087 2.7263998985 12.735670090 4.0296640396  -999.250000  -999.250000  -999.250000  -999.250000  -999.250000  -999.250000 0.3100000024 4.1235699654
 5210.5561523 4.1250000000 4.5282998085 65.107398987  -999.250000 195.50300598 0.1133000031 3.9888999462 0.5794371963 21.205699921 18.949399948 19.264799118 2.6654000282 14.793439865 4.9286880493  -999.250000  -999.250000  -999.250000  -999.250000  -999.250000  -999.250000 0.3000000119 4.1235718727
 5210.7084961 4.1250000000 4.6219000816 62.919895172  -999.250000 170.53280640 0.1083000004 4.3018999100 0.6185861230 34.462200165 33.768600464 37.108600616 2.6465001106 15.979220390 5.2502441406  -999.250000  -999.250000  -999.250000  -999.250000  -999.250000  -999.250000 0.3000000119 4.1235737801
 5210.8608398 4.1250000000 4.6416001320 60.996101379  -999.250000 115.11650085 0.1330000013 5.3154997826 0.6692404747 36.439201355 31.578599930 34.890598297 2.6377000809 16.507200241 4.9412679672  -999.250000  -999.250000  -999.250000  -999.250000  -999.250000  -999.250000 0.3000000119 4.1235756874
 5211.0131836 4.1250000000 4.6423001289 62.431594849  -999.250000 78.217796326 0.1947000027 5.9127998352 0.6997116804 24.657100677 19.385499954 20.427799225 2.6364998817 16.068090439 4.2078628540  -999.250000  -999.250000  -999.250000  -999.250000  -999.250000  -999.250000 0.2899999917 4.1235775948
 5211.1655273 4.1250000000 4.6364998817 65.107398987  -999.250000 93.349098206 0.2727000117 5.7958002090 0.7001966834 11.872400284 9.7917003632 9.5558004379 2.6327121258 14.568730354 3.5157461166  -999.250000  -999.250000  -999.250000  -999.250000  -999.250000  -999.250000 0.2834127843 4.1235795021
 5211.3178711 4.1250000000 4.6378998756 67.197303772  -999.250000 123.11630249 0.3425760269 5.3204002380 0.6998947859 7.7835001945 6.5949997902 6.4155001640 2.6427676678 13.882809639 3.3774430752  -999.250000  -999.250000  -999.250000  -999.250000  -999.250000  -999.250000 0.2800000012 4.1235814095
 5211.4702148 4.1250000000 4.6131000519 67.412101746  -999.250000 157.69509888 0.3733019233 5.2776999474 0.7599316835 7.8513998985 6.5836000443 6.3171000481 2.6603434086 15.133379936 3.7161190510  -999.250000  -999.250000  -999.250000  -999.250000  -999.250000  -999.250000 0.2700000107 4.1235833168
 5211.6225586 4.1250000000 4.6013998985 66.679702759  -999.250000 178.04780579 0.3075118661 5.8129000664 0.8465856910 8.9638004303 7.1114001274 7.2768998146 2.6562132835 16.979270935 4.1398448944  -999.250000  -999.250000  -999.250000  -999.250000  -999.250000  -999.250000 0.2599999905 4.1235852242
 5211.7753906 4.1250000000 4.6131000519 67.041000366  -999.250000 165.36540222 0.1850000024 5.8912000656 0.8663836122 14.193400383 11.119500160 11.472700119 2.6023001671 17.729759216 4.3263587952  -999.250000  -999.250000  -999.250000  -999.250000  -999.250000  -999.250000 0.2599999905 4.1235871315
 5211.9277344 4.1250000000 4.6394000053 67.382797241  -999.250000 116.96559906 0.1334999949 6.6600999832 0.8182914257 28.535800934 24.429800034 23.307600021 2.5539999008 17.095190048 4.1825928688  -999.250000  -999.250000  -999.250000  -999.250000  -999.250000  -999.250000 0.2700000107 4.1235890388
 5212.0800781 4.1250000000 4.6489000320 67.724601746  -999.250000 75.690101624 0.1250000000 7.3361001015 0.8091315031 36.895900726 33.572200775 28.988300323 2.5226998329 15.494319916 3.7547559738  -999.250000  -999.250000  -999.250000  -999.250000  -999.250000  -999.250000 0.2823274136 4.1235909462
 5212.2324219 4.1250000000 4.6599001884 68.027297974  -999.250000 56.414798737 0.1404999942 8.6605997086 0.6424348950 29.936300278 23.327499390 25.326700211 2.4881000519 12.907110214 3.5160470009  -999.250000  -999.250000  -999.250000  -999.250000  -999.250000  -999.250000 0.3000000119 4.1235923767
 5212.3847656 4.1250000000 4.6744999886 67.587898254  -999.250000 66.757499695 0.1448999941 10.354599953 0.5428692102 23.031999588 16.771200180 16.754699707 2.5211939812 10.454019547 3.1765739918  -999.250000  -999.250000  -999.250000  -999.250000  -999.250000  -999.250000 0.2971267402 4.1235942841
 5212.5371094 4.1250000000 4.6715998650 67.675796509  -999.250000 74.958503723 0.1470929682 13.059499741 0.4292334020 23.872999191 17.896299362 16.896400452 2.5646605492 8.3097581863 2.6708619595  -999.250000  -999.250000  -999.250000  -999.250000  -999.250000  -999.250000 0.2899999917 4.1235961914
 5212.6894531 4.1250000000 4.6715998650 66.572303772  -999.250000 73.139099121 0.1669362187 12.696299553 0.3161725998 27.404300690 22.796600342 20.968799591 2.6099548340 6.7530078888 2.3019011021  -999.250000  -999.250000  -999.250000  -999.250000  -999.250000  -999.250000 0.2899999917 4.1235980988
 5212.8417969 4.1250000000 4.6634998322 66.503898621  -999.250000 83.619499207 0.2371743470 13.151599884 0.2396945953 24.930700302 19.884099960 18.725799561 2.5598616600 6.1753392220 2.4104390144  -999.250000  -999.250000  -999.250000  -999.250000  -999.250000  -999.250000 0.2800000012 4.1236000061
