# LAS format log file from PETREL
# Project units are specified as depth units
#==================================================================
~Version information
VERS.   2.0:
WRAP.   NO:
#==================================================================
~Well
STRT .m      4859.1215820 :
STOP .m      5249.8750000 :
STEP .m     0.00000000 :
NULL .        -999.250000 :
COMP.           : COMPANY
WELL.  Proteus 1ST2   : WELL
FLD.            : FIELD
LOC.            : LOCATION
SRVC.           : SERVICE COMPANY
DATE.  2017-10-02 11:49:53   : Log Export Date {yyyy-MM-dd HH:mm:ss}
PROV.           : PROVINCE
UWI.   Proteus 1ST2   : UNIQUE WELL ID
API.            : API NUMBER
#==================================================================
~Curve
DEPT .m                   : DEPTH
BIT .in                   : BIT
CAL .in                   : CAL
DTC .us/ft                : DTC
DTS .us/ft                : DTS
GR .gAPI                  : GR
NPHI .m3/m3               : NPHI
PEF .b/e                  : PEF
POTA .%                   : POTA
RESD .ohm.m               : RESD
RESM .ohm.m               : RESM
RESS .ohm.m               : RESS
RHOB .g/cm3               : RHOB
THOR .ppm                 : THOR
URAN .ppm                 : URAN
FT_PRESS ._               : FT_PRESS
FT_PRESA ._               : FT_PRESA
FT_HYDB ._                : FT_HYDB
FT_TEMP ._                : FT_TEMP
FT_MOB ._                 : FT_MOB
FT_CODE ._                : FT_CODE
GS_GASA .%                : GS_GASA
Casing ._                 : Casing
~Parameter
#==================================================================
~Ascii
# ...
 4916.7290039 4.1250000000 4.4581999779  -999.250000  -999.250000 97.405097961 0.2540999949  -999.250000 1.3300000429  -999.250000 2.9130589962 3.1173520088 2.6363000870 9.7940998077 2.8856999874  -999.250000  -999.250000  -999.250000  -999.250000  -999.250000  -999.250000 1.4964183569 5.0000000000
 4916.8813477 4.1250000000 4.4527997971  -999.250000  -999.250000 92.574203491 0.2372999936  -999.250000 1.2000000477  -999.250000 2.9470880032 3.1354820728 2.7697999477 9.3909997940 2.5576000214  -999.250000  -999.250000  -999.250000  -999.250000  -999.250000  -999.250000 0.1099999994 5.0000000000
 4917.0336914 4.1250000000 4.4590997696  -999.250000  -999.250000 98.590698242 0.2413000017  -999.250000 1.1299999952  -999.250000 3.0622780323 3.2351789474 2.7850000858 9.2643003464 2.5443000793  -999.250000  -999.250000  -999.250000  -999.250000  -999.250000  -999.250000 1.0900446177 5.0000000000
 4917.1860352 4.1250000000 4.4539999962  -999.250000  -999.250000 107.88449860 0.2588000000  -999.250000 1.1699999571  -999.250000 3.1480529308 3.2752470970 2.8046000004 9.4677000046 2.6486001015  -999.250000  -999.250000  -999.250000  -999.250000  -999.250000  -999.250000 1.2257518768 5.0000000000
 4917.3383789 4.1250000000 4.4523000717  -999.250000  -999.250000 120.59960175 0.2761999965  -999.250000 1.2599999905  -999.250000 2.9531209469 3.0544710159 2.6736197472 10.437000275 2.6875998974  -999.250000  -999.250000  -999.250000  -999.250000  -999.250000  -999.250000 0.1099999994 5.0000000000
 4917.4907227 4.1250000000 4.4454998970  -999.250000  -999.250000 126.39679718 0.2855699658  -999.250000 1.3300000429  -999.250000 2.5876019001 2.6338291168 2.5586683750 12.370699883 2.6575999260  -999.250000  -999.250000  -999.250000  -999.250000  -999.250000  -999.250000 0.1180566400 5.0000000000
 4917.6430664 4.1250000000 4.4454998970  -999.250000  -999.250000 125.23690033 0.2819118500  -999.250000 1.4800000191  -999.250000 2.4966709614 2.5218648911 2.4149608612 13.905900002 2.6131999493  -999.250000  -999.250000  -999.250000  -999.250000  -999.250000  -999.250000 0.2848425210 5.0000000000
 4917.7954102 4.1250000000 4.4454998970  -999.250000  -999.250000 121.88710022 0.2823984027  -999.250000 1.6000000238  -999.250000 2.4823749065 2.4973249435 2.3708403111 14.082300186 2.7915999889  -999.250000  -999.250000  -999.250000  -999.250000  -999.250000  -999.250000 0.1099999994 5.0000000000
 4917.9482422 4.1250000000 4.4562001228 80.498939514 156.28680420 120.26390076 0.2790000141  -999.250000 1.5700000525  -999.250000 2.4771420956 2.4808869362 2.3585000038 14.130200386 3.0857999325  -999.250000  -999.250000  -999.250000  -999.250000  -999.250000  -999.250000 1.2043024302 5.0000000000
 4918.1005859 4.1250000000 4.4565000534 78.981697083 157.84570313 115.37640381 0.2836999893  -999.250000 1.6499999762  -999.250000 2.5104970932 2.5219399929 2.4124000072 14.156399727 2.8843998909  -999.250000  -999.250000  -999.250000  -999.250000  -999.250000  -999.250000 0.1099999994 5.0000000000
 4918.2529297 4.1250000000 4.4640002251 78.187599182 157.56480408 110.39430237 0.2818999887  -999.250000 1.6299999952  -999.250000 2.5389440060 2.5567569733 2.4546999931 14.154999733 2.8322000504  -999.250000  -999.250000  -999.250000  -999.250000  -999.250000  -999.250000 0.1099999994 5.0000000000
 4918.4052734 4.1250000000 4.4723000526 77.605102539 154.28799438 106.45230103 0.2707999945  -999.250000 1.6000000238  -999.250000 2.5873970985 2.6094729900 2.5039999485 13.938899994 2.6756000519  -999.250000  -999.250000  -999.250000  -999.250000  -999.250000  -999.250000 1.1370840073 5.0000000000
 4918.5576172 4.1250000000 4.4660000801 77.556198120 153.83889771 111.14569855 0.2800999880  -999.250000 1.5800000429  -999.250000 2.6733269691 2.7004408836 2.5304000378 13.562500000 2.6303999424  -999.250000  -999.250000  -999.250000  -999.250000  -999.250000  -999.250000 0.1099999994 5.0000000000
 4918.7099609 4.1250000000 4.4661998749 76.886199951 152.22740173 104.41799927 0.2804000080  -999.250000 1.6399999857  -999.250000 2.6753180027 2.7098588943 2.5906071663 13.192399979 2.7876000404  -999.250000  -999.250000  -999.250000  -999.250000  -999.250000  -999.250000 0.3623233438 5.0000000000
 4918.8623047 4.1250000000 4.4650001526 76.741302490 150.83799744 106.96869659 0.2771105468  -999.250000 1.6599999666  -999.250000 2.6569559574 2.6873679161 2.5623912811 13.334300041 2.7927000523  -999.250000  -999.250000  -999.250000  -999.250000  -999.250000  -999.250000 0.5951465964 5.0000000000
 4919.0146484 4.1250000000 4.4843997955 76.496299744 151.24229431 99.956497192 0.2571640909  -999.250000 1.6499999762  -999.250000 2.6839439869 2.7153129578 2.5330939293 13.228799820 2.6847000122  -999.250000  -999.250000  -999.250000  -999.250000  -999.250000  -999.250000 0.1000000015 4.8710937500
 4919.1669922 4.1250000000 4.4640002251 76.240592957 151.05880737 103.43630219 0.2514182627  -999.250000 1.6499999762  -999.250000 2.7890059948 2.8266959190 2.5282154083 12.182900429 2.7848000526  -999.250000  -999.250000  -999.250000  -999.250000  -999.250000  -999.250000 0.1000000015 4.1200008392
 4919.3198242 4.1250000000 4.4565000534 76.651405334 148.28590393 105.52330017 0.2470999956  -999.250000 1.6200000048  -999.250000 2.8613400459 2.9209280014 2.4951000214 12.133999825 2.9184000492  -999.250000  -999.250000  -999.250000  -999.250000  -999.250000  -999.250000 0.1000000015 4.1200027466
 4919.4721680 4.1250000000 4.4503002167 77.808296204 148.19110107 116.90540314 0.2458000034  -999.250000 1.6299999952  -999.250000 2.8609929085 2.9202110767 2.4581000805 12.453800201 2.9670000076  -999.250000  -999.250000  -999.250000  -999.250000  -999.250000  -999.250000 1.2465149164 4.1200046539
 4919.6245117 4.1250000000 4.4478998184 79.617797852 150.16630554 118.71109772 0.2504999936  -999.250000 1.6299999952  -999.250000 2.7740840912 2.8340981007 2.4121000767 12.764399529 2.9361000061  -999.250000  -999.250000  -999.250000  -999.250000  -999.250000  -999.250000 0.9407575727 4.1200060844
 4919.7768555 4.1250000000 4.4425997734 80.703697205 151.08619690 118.03240204 0.2425000072  -999.250000 1.5900000334  -999.250000 2.6341779232 2.6889910698 2.4112000465 12.865300179 3.0399999619  -999.250000  -999.250000  -999.250000  -999.250000  -999.250000  -999.250000 0.1000000015 4.1200079918
 4919.9291992 4.1250000000 4.4381999969 80.933502197 153.55509949 110.82430267 0.2399999946  -999.250000 1.6200000048  -999.250000  -999.250000  -999.250000 2.4396998882 12.465299606 3.1861999035  -999.250000  -999.250000  -999.250000  -999.250000  -999.250000  -999.250000 0.9219648838 4.1200098991
 4920.0815430 4.1250000000 4.4415998459 79.895698547 155.34712219 120.84999847 0.2401999980  -999.250000 1.6499999762  -999.250000  -999.250000  -999.250000 2.4444847107 12.214200020 3.0829999447  -999.250000  -999.250000  -999.250000  -999.250000  -999.250000  -999.250000 1.4536383152 4.1200118065
 4920.2338867 4.1250000000 4.4333000183 79.502891541 153.63638306 119.90550232 0.2469782680  -999.250000 1.6200000048  -999.250000  -999.250000  -999.250000 2.4642364979 12.123299599 3.2706999779  -999.250000  -999.250000  -999.250000  -999.250000  -999.250000  -999.250000 0.9408112168 4.1200137138
 4920.3862305 4.1250000000 4.4415998459 81.210990906 155.76679993 118.99400330 0.2482958287  -999.250000 1.6299999952  -999.250000  -999.250000  -999.250000 2.4755637646 12.297400475 3.1498999596  -999.250000  -999.250000  -999.250000  -999.250000  -999.250000  -999.250000 1.0192739964 4.1200156212
 4920.5385742 4.1250000000 4.4430999756 81.898300171 154.18928528 112.71320343 0.2481006384  -999.250000 1.6699999571  -999.250000  -999.250000  -999.250000 2.4767961502 13.225899696 2.8996999264  -999.250000  -999.250000  -999.250000  -999.250000  -999.250000  -999.250000 0.1099999994 4.1200175285
 4920.6914063 4.1250000000 4.4454998970 83.216598511 154.52870178 114.10459900 0.2500000000  -999.250000 1.6900000572  -999.250000  -999.250000  -999.250000 2.4927000999 13.205499649 2.8420999050  -999.250000  -999.250000  -999.250000  -999.250000  -999.250000  -999.250000 0.6179559827 4.1200194359
