# LAS format log file from PETREL
# Project units are specified as depth units
#==================================================================
~Version information
VERS.   2.0:
WRAP.   NO:
#==================================================================
~Well
STRT .m      4859.1215820 :
STOP .m      5249.8750000 :
STEP .m     0.00000000 :
NULL .        -999.250000 :
COMP.           : COMPANY
WELL.  Proteus 1ST2   : WELL
FLD.            : FIELD
LOC.            : LOCATION
SRVC.           : SERVICE COMPANY
DATE.  2017-10-02 11:49:53   : Log Export Date {yyyy-MM-dd HH:mm:ss}
PROV.           : PROVINCE
UWI.   Proteus 1ST2   : UNIQUE WELL ID
API.            : API NUMBER
#==================================================================
~Curve
DEPT .m                   : DEPTH
BIT .in                   : BIT
CAL .in                   : CAL
DTC .us/ft                : DTC
DTS .us/ft                : DTS
GR .gAPI                  : GR
NPHI .m3/m3               : NPHI
PEF .b/e                  : PEF
POTA .%                   : POTA
RESD .ohm.m               : RESD
RESM .ohm.m               : RESM
RESS .ohm.m               : RESS
RHOB .g/cm3               : RHOB
THOR .ppm                 : THOR
URAN .ppm                 : URAN
FT_PRESS ._               : FT_PRESS
FT_PRESA ._               : FT_PRESA
FT_HYDB ._                : FT_HYDB
FT_TEMP ._                : FT_TEMP
FT_MOB ._                 : FT_MOB
FT_CODE ._                : FT_CODE
GS_GASA .%                : GS_GASA
Casing ._                 : Casing
~Parameter
#==================================================================
~Ascii
# ...
 5233.5683594 4.1250000000 4.6627998352 63.564498901  -999.250000 47.312000275 0.2012999952 10.488599777  -999.250000 4.7607998848 5.2019000053 4.6683001518 2.7423813343  -999.250000  -999.250000  -999.250000  -999.250000  -999.250000  -999.250000  -999.250000  -999.250000 0.1800000072 4.1238541603
 5233.7207031 4.1250000000 4.6634998322 62.597698212  -999.250000  -999.250000 0.1961166114 9.3073997498  -999.250000 5.6191000938 5.7767000198 4.7319998741 2.7559564114  -999.250000  -999.250000  -999.250000  -999.250000  -999.250000  -999.250000  -999.250000  -999.250000 0.1800000072 4.1238560677
 5233.8730469 4.1250000000 4.6627998352 62.363300323  -999.250000  -999.250000 0.1824439168 9.1336002350  -999.250000 7.4025001526 6.8042998314 5.6744999886 2.7404501438  -999.250000  -999.250000  -999.250000  -999.250000  -999.250000  -999.250000  -999.250000  -999.250000 0.1700000018 4.1238579750
 5234.0253906 4.1250000000 4.6627998352 62.382801056  -999.250000  -999.250000 0.1701394320 9.6091003418  -999.250000 9.6156997681 8.6496000290 6.5659999847 2.7335221767  -999.250000  -999.250000  -999.250000  -999.250000  -999.250000  -999.250000  -999.250000  -999.250000 0.1700000018 4.1238598824
 5234.1782227 4.1250000000 4.6744999886 62.102096558  -999.250000  -999.250000 0.1685999930 10.809499741  -999.250000 22.872400284 17.494300842 8.8726997375 2.7490000725  -999.250000  -999.250000  -999.250000  -999.250000  -999.250000  -999.250000  -999.250000  -999.250000 0.1700000018 4.1238617897
 5234.3305664 4.1250000000 4.6656999588 62.880901337  -999.250000  -999.250000 0.1746000051 11.267999649  -999.250000 16.558700562 17.513500214 7.5724000931 2.7641000748  -999.250000  -999.250000  -999.250000  -999.250000  -999.250000  -999.250000  -999.250000  -999.250000 0.1700000018 4.1238632202
 5234.4829102 4.1250000000 4.6627998352 64.228500366  -999.250000  -999.250000 0.1820999980 10.159000397  -999.250000 9.8622999191 6.6363000870 5.5602002144 2.7437000275  -999.250000  -999.250000  -999.250000  -999.250000  -999.250000  -999.250000  -999.250000  -999.250000 0.1632730961 4.1238651276
 5234.6352539 4.1250000000 4.6634998322 65.058601379  -999.250000  -999.250000 0.1950999945 8.9385004044  -999.250000 5.3067002296 4.5766000748 5.0763001442 2.7225000858  -999.250000  -999.250000  -999.250000  -999.250000  -999.250000  -999.250000  -999.250000  -999.250000 0.1500000060 4.1238670349
 5234.7875977 4.1250000000 4.6774001122 64.492202759  -999.250000  -999.250000 0.2028000057 8.0527000427  -999.250000 5.2936000824 4.9138998985 5.0598998070 2.7342998981  -999.250000  -999.250000  -999.250000  -999.250000  -999.250000  -999.250000  -999.250000  -999.250000 0.1500000060 4.1238689423
 5234.9399414 4.1250000000 4.6774001122 65.888702393  -999.250000  -999.250000 0.2093999982 7.4145998955  -999.250000 7.8678998947 5.8902997971 4.8901000023 2.7193479538  -999.250000  -999.250000  -999.250000  -999.250000  -999.250000  -999.250000  -999.250000  -999.250000 0.1500000060 4.1238708496
 5235.0922852 4.1250000000 4.6708002090 65.429702759  -999.250000  -999.250000 0.2148824334 7.8250999451  -999.250000 8.7754001617 7.5124001503 5.5942997932 2.7089333534  -999.250000  -999.250000  -999.250000  -999.250000  -999.250000  -999.250000  -999.250000  -999.250000 0.1500000060 4.1238727570
 5235.2446289 4.1250000000 4.6568999290 64.892601013  -999.250000  -999.250000 0.2268615365 8.2033004761  -999.250000 8.6626996994 7.9903998375 6.7919998169 2.6935493946  -999.250000  -999.250000  -999.250000  -999.250000  -999.250000  -999.250000  -999.250000  -999.250000 0.1599999964 4.1238746643
 5235.3969727 4.1250000000 4.6656999588 66.142601013  -999.250000  -999.250000 0.2337778807 9.2712001801  -999.250000 8.4465999603 11.140700340 8.4867000580 2.7003779411  -999.250000  -999.250000  -999.250000  -999.250000  -999.250000  -999.250000  -999.250000  -999.250000 0.1500000060 4.1238765717
 5235.5498047 4.1250000000 4.6627998352 63.696113586  -999.250000  -999.250000 0.2355999947 8.8973999023  -999.250000 9.5052003860 14.435500145 11.099499702 2.6965999603  -999.250000  -999.250000  -999.250000  -999.250000  -999.250000  -999.250000  -999.250000  -999.250000 0.1599999964 4.1238784790
 5235.7021484 4.1250000000 4.6525998116 62.109401703  -999.250000  -999.250000 0.2330999970 8.8410997391  -999.250000 11.081500053 13.510899544 11.117799759 2.7107000351  -999.250000  -999.250000  -999.250000  -999.250000  -999.250000  -999.250000  -999.250000  -999.250000 0.1500000060 4.1238803864
 5235.8544922 4.1250000000 4.6599001884 61.728500366  -999.250000  -999.250000 0.2343000025 7.8136000633  -999.250000 13.110699654 13.012299538 9.5445003510 2.7014000416  -999.250000  -999.250000  -999.250000  -999.250000  -999.250000  -999.250000  -999.250000  -999.250000 0.1500000060 4.1238822937
 5236.0068359 4.1250000000 4.6599001884 61.005901337  -999.250000  -999.250000 0.2304999977 7.9285998344  -999.250000 10.193499565 11.068699837 9.1553001404 2.7042000294  -999.250000  -999.250000  -999.250000  -999.250000  -999.250000  -999.250000  -999.250000  -999.250000 0.1500000060 4.1238842010
 5236.1591797 4.1250000000 4.6561999321 61.191398621  -999.250000  -999.250000 0.2321999967 8.0636997223  -999.250000 9.6739997864 8.9670000076 7.8310999870 2.7036018372  -999.250000  -999.250000  -999.250000  -999.250000  -999.250000  -999.250000  -999.250000  -999.250000 0.1500000060 4.1238856316
 5236.3115234 4.1250000000 4.6568999290 61.630901337  -999.250000  -999.250000 0.2295086235 8.5087003708  -999.250000 8.6274995804 8.3120002747 7.7142000198 2.7063908577  -999.250000  -999.250000  -999.250000  -999.250000  -999.250000  -999.250000  -999.250000  -999.250000 0.1500000060 4.1238875389
 5236.4638672 4.1250000000 4.6568999290 61.806594849  -999.250000  -999.250000 0.2276060879 7.9068999290  -999.250000 9.9106998444 9.8828001022 9.1484003067 2.7175641060  -999.250000  -999.250000  -999.250000  -999.250000  -999.250000  -999.250000  -999.250000  -999.250000 0.1500000060 4.1238894463
 5236.6162109 4.1250000000 4.6568999290 62.412101746  -999.250000  -999.250000 0.2236128151 7.5697999001  -999.250000 12.829799652 12.385000229 10.768699646 2.7386322021  -999.250000  -999.250000  -999.250000  -999.250000  -999.250000  -999.250000  -999.250000  -999.250000 0.1500000060 4.1238913536
 5236.7690430 4.1250000000 4.6561999321 62.979747772  -999.250000  -999.250000 0.2222999930 7.1399998665  -999.250000 14.083000183 13.787199974 12.720700264 2.7520999908  -999.250000  -999.250000  -999.250000  -999.250000  -999.250000  -999.250000  -999.250000  -999.250000 0.1500000060 4.1238932610
 5236.9213867 4.1250000000 4.6511001587 63.369098663  -999.250000  -999.250000 0.2251999974 6.9520001411  -999.250000 14.917499542 13.659399986 12.762399673 2.7618000507  -999.250000  -999.250000  -999.250000  -999.250000  -999.250000  -999.250000  -999.250000  -999.250000 0.1500000060 4.1238951683
 5237.0737305 4.1250000000 4.6599001884 63.417999268  -999.250000  -999.250000 0.2261999995 6.3351998329  -999.250000 9.5321998596 10.784600258 12.913499832 2.7750000954  -999.250000  -999.250000  -999.250000  -999.250000  -999.250000  -999.250000  -999.250000  -999.250000 0.1500000060 4.1238970757
 5237.2260742 4.1250000000 4.6489000320 63.281299591  -999.250000  -999.250000 0.2300000042 6.6977000237  -999.250000 9.3062000275 11.545499802 13.032500267 2.7683000565  -999.250000  -999.250000  -999.250000  -999.250000  -999.250000  -999.250000  -999.250000  -999.250000 0.1510840654 4.1238989830
 5237.3784180 4.1250000000 4.6599001884 62.988300323  -999.250000  -999.250000 0.2273000032 7.0178999901  -999.250000 11.732799530 16.025400162 14.290900230 2.7500000000  -999.250000  -999.250000  -999.250000  -999.250000  -999.250000  -999.250000  -999.250000  -999.250000 0.1542941332 4.1239008904
 5237.5307617 4.1250000000 4.6599001884 63.037101746  -999.250000  -999.250000 0.2301000059 7.3755998611  -999.250000 15.404600143 23.265100479 16.468399048 2.7397329807  -999.250000  -999.250000  -999.250000  -999.250000  -999.250000  -999.250000  -999.250000  -999.250000 0.1400000006 4.1239027977
