# LAS format log file from PETREL
# Project units are specified as depth units
#==================================================================
~Version information
VERS.   2.0:
WRAP.   NO:
#==================================================================
~Well
STRT .m      4859.1215820 :
STOP .m      5249.8750000 :
STEP .m     0.00000000 :
NULL .        -999.250000 :
COMP.           : COMPANY
WELL.  Proteus 1ST2   : WELL
FLD.            : FIELD
LOC.            : LOCATION
SRVC.           : SERVICE COMPANY
DATE.  2017-10-02 11:49:53   : Log Export Date {yyyy-MM-dd HH:mm:ss}
PROV.           : PROVINCE
UWI.   Proteus 1ST2   : UNIQUE WELL ID
API.            : API NUMBER
#==================================================================
~Curve
DEPT .m                   : DEPTH
BIT .in                   : BIT
CAL .in                   : CAL
DTC .us/ft                : DTC
DTS .us/ft                : DTS
GR .gAPI                  : GR
NPHI .m3/m3               : NPHI
PEF .b/e                  : PEF
POTA .%                   : POTA
RESD .ohm.m               : RESD
RESM .ohm.m               : RESM
RESS .ohm.m               : RESS
RHOB .g/cm3               : RHOB
THOR .ppm                 : THOR
URAN .ppm                 : URAN
FT_PRESS ._               : FT_PRESS
FT_PRESA ._               : FT_PRESA
FT_HYDB ._                : FT_HYDB
FT_TEMP ._                : FT_TEMP
FT_MOB ._                 : FT_MOB
FT_CODE ._                : FT_CODE
GS_GASA .%                : GS_GASA
Casing ._                 : Casing
~Parameter
#==================================================================
~Ascii
# ...
 4892.0400391 4.1250000000 4.4930000305  -999.250000  -999.250000 132.60910034 0.2847000062  -999.250000 1.5700000525  -999.250000 2.7231380939 2.7651739120 2.2743000984 13.957500458 2.3484001160  -999.250000  -999.250000  -999.250000  -999.250000  -999.250000  -999.250000 0.0900000036 5.0000000000
 4892.1923828 4.1250000000 4.5001001358  -999.250000  -999.250000 134.03930664 0.2847000062  -999.250000 1.5099999905  -999.250000 2.7605760098 2.8333570957 2.3310000896 13.239700317 2.5682001114  -999.250000  -999.250000  -999.250000  -999.250000  -999.250000  -999.250000 0.0900000036 5.0000000000
 4892.3447266 4.1250000000 4.4991998672  -999.250000  -999.250000 131.68429565 0.2824999988  -999.250000 1.4900000095  -999.250000 2.9456810951 3.0450489521 2.3500390053 13.034700394 2.5329000950  -999.250000  -999.250000  -999.250000  -999.250000  -999.250000  -999.250000 1.3787226677 5.0000000000
 4892.4970703 4.1250000000 4.5226001740  -999.250000  -999.250000 128.35130310 0.2863875329  -999.250000 1.4600000381  -999.250000 3.1167290211 3.2310640812 2.3702352047 12.668299675 2.5713999271  -999.250000  -999.250000  -999.250000  -999.250000  -999.250000  -999.250000 1.0230519772 5.0000000000
 4892.6494141 4.1250000000 4.4979000092  -999.250000  -999.250000 129.40510559 0.2819144130  -999.250000 1.4400000572  -999.250000 3.0041730404 3.1206750870 2.3963162899 12.225600243 2.4019000530  -999.250000  -999.250000  -999.250000  -999.250000  -999.250000  -999.250000 0.7757659554 5.0000000000
 4892.8017578 4.1250000000 4.4962000847  -999.250000  -999.250000 132.22500610 0.2825977504  -999.250000 1.4600000381  -999.250000 2.7799971104 2.8696579933 2.4575035572 12.569100380 2.5869998932  -999.250000  -999.250000  -999.250000  -999.250000  -999.250000  -999.250000 0.7058915496 5.0000000000
 4892.9545898 4.1250000000 4.4991002083  -999.250000  -999.250000 134.54359436 0.2757999897  -999.250000 1.4500000477  -999.250000 2.6907510757 2.7474410534 2.3958001137 12.931300163 2.8248999119  -999.250000  -999.250000  -999.250000  -999.250000  -999.250000  -999.250000 1.0879932642 5.0000000000
 4893.1069336 4.1250000000 4.4906001091  -999.250000  -999.250000 135.50500488 0.2734000087  -999.250000 1.4600000381  -999.250000 2.6743829250 2.7042798996 2.3850998878 13.526900291 2.9158999920  -999.250000  -999.250000  -999.250000  -999.250000  -999.250000  -999.250000 1.3073999882 5.0000000000
 4893.2592773 4.1250000000 4.4524002075  -999.250000  -999.250000 134.29840088 0.2743999958  -999.250000 1.5399999619  -999.250000 2.6294090748 2.6612560749 2.3333001137 13.571999550 2.8447999954  -999.250000  -999.250000  -999.250000  -999.250000  -999.250000  -999.250000 0.0900000036 5.0000000000
 4893.4116211 4.1250000000 4.4868998528  -999.250000  -999.250000 134.98460388 0.2825999856  -999.250000 1.5499999523  -999.250000 2.6256890297 2.6636250019 2.3719999790 13.229999542 2.9133000374  -999.250000  -999.250000  -999.250000  -999.250000  -999.250000  -999.250000 0.0900000036 5.0000000000
 4893.5639648 4.1250000000 4.4903998375  -999.250000  -999.250000 138.82510376 0.2971999943  -999.250000 1.5599999428  -999.250000 2.5782780647 2.6215600967 2.3701059818 13.272700310 3.0383000374  -999.250000  -999.250000  -999.250000  -999.250000  -999.250000  -999.250000 1.2403390408 5.0000000000
 4893.7163086 4.1250000000 4.4795999527  -999.250000  -999.250000 142.92869568 0.3193290830  -999.250000 1.5700000525  -999.250000 2.4720120430 2.5021100044 2.2510826588 12.623100281 3.1340999603  -999.250000  -999.250000  -999.250000  -999.250000  -999.250000  -999.250000 0.0900000036 5.0000000000
 4893.8686523 4.1250000000 4.5001001358  -999.250000  -999.250000 142.11340332 0.3313615322  -999.250000 1.6299999952  -999.250000 2.3863060474 2.4112980366 2.1604902744 12.787799835 2.8819000721  -999.250000  -999.250000  -999.250000  -999.250000  -999.250000  -999.250000 0.1132529527 5.0000000000
 4894.0209961 4.1250000000 4.4903998375  -999.250000  -999.250000 135.94909668 0.3070782125  -999.250000 1.6799999475  -999.250000 2.3269948959 2.3626749516 2.0864372253 12.947299957 2.7574000359  -999.250000  -999.250000  -999.250000  -999.250000  -999.250000  -999.250000 0.0900000036 5.0000000000
 4894.1738281 4.1250000000 4.4882001877  -999.250000  -999.250000 132.29289246 0.2829000056  -999.250000 1.7300000191  -999.250000 2.2521069050 2.2933890820 2.1280999184 13.416999817 2.5093998909  -999.250000  -999.250000  -999.250000  -999.250000  -999.250000  -999.250000 0.0900000036 5.0000000000
 4894.3261719 4.1250000000 4.4844999313  -999.250000  -999.250000 136.25610352 0.2732999921  -999.250000 1.6399999857  -999.250000 2.2726130486 2.3080840111 2.2511000633 13.277099609 2.8043000698  -999.250000  -999.250000  -999.250000  -999.250000  -999.250000  -999.250000 1.0702122450 5.0000000000
 4894.4785156 4.1250000000 4.4819998741  -999.250000  -999.250000 140.50419617 0.2858999968  -999.250000 1.7000000477  -999.250000 2.3801178932 2.4179821014 2.3185000420 13.066200256 2.7908000946  -999.250000  -999.250000  -999.250000  -999.250000  -999.250000  -999.250000 0.0900000036 5.0000000000
 4894.6308594 4.1250000000 4.4717998505  -999.250000  -999.250000 140.99630737 0.2964000106  -999.250000 1.7300000191  -999.250000 2.3891220093 2.4237809181 2.3317000866 12.954000473 2.8510999680  -999.250000  -999.250000  -999.250000  -999.250000  -999.250000  -999.250000 0.0900000036 5.0000000000
 4894.7832031 4.1250000000 4.4795999527  -999.250000  -999.250000 141.70590210 0.3001999855  -999.250000 1.7699999809  -999.250000 2.3842298985 2.4045839310 2.3224999905 13.036999702 2.9988000393  -999.250000  -999.250000  -999.250000  -999.250000  -999.250000  -999.250000 0.2291425169 5.0000000000
 4894.9355469 4.1250000000 4.4787001610  -999.250000  -999.250000 141.93099976 0.3019999862  -999.250000 1.7300000191  -999.250000 2.4575970173 2.4762849808 2.3563911915 13.123800278 2.9721999168  -999.250000  -999.250000  -999.250000  -999.250000  -999.250000  -999.250000 0.2521043122 5.0000000000
 4895.0878906 4.1250000000 4.4766998291  -999.250000  -999.250000 141.91999817 0.3113699555  -999.250000 1.6799999475  -999.250000 2.4933350086 2.5354859829 2.3797254562 13.150099754 2.9507999420  -999.250000  -999.250000  -999.250000  -999.250000  -999.250000  -999.250000 1.2743029594 5.0000000000
 4895.2402344 4.1250000000 4.4699001312  -999.250000  -999.250000 143.19540405 0.2936570346  -999.250000 1.6399999857  -999.250000 2.4573760033 2.5228240490 2.4518682957 12.206399918 2.8043999672  -999.250000  -999.250000  -999.250000  -999.250000  -999.250000  -999.250000 0.0958100855 5.0000000000
 4895.3925781 4.1250000000 4.4523000717  -999.250000  -999.250000 138.79769897 0.2758570313  -999.250000 1.6100000143  -999.250000 2.5485870838 2.6152689457 2.4958593845 12.581199646 2.5576000214  -999.250000  -999.250000  -999.250000  -999.250000  -999.250000  -999.250000 1.4800000191 5.0000000000
 4895.5454102 4.1250000000 4.4479999542  -999.250000  -999.250000 126.67440033 0.2560999990  -999.250000 1.5399999619  -999.250000 2.8872029781 2.9398219585 2.5855998993 12.171199799 2.6616001129  -999.250000  -999.250000  -999.250000  -999.250000  -999.250000  -999.250000 1.2503731251 5.0000000000
 4895.6977539 4.1250000000 4.4581999779  -999.250000  -999.250000 121.80860138 0.2644999921  -999.250000 1.5000000000  -999.250000 3.0508000851 3.1245820522 2.6354000568 12.209300041 2.5934998989  -999.250000  -999.250000  -999.250000  -999.250000  -999.250000  -999.250000 1.2387828827 5.0000000000
 4895.8500977 4.1250000000 4.4516000748  -999.250000  -999.250000 130.87640381 0.2793999910  -999.250000 1.4700000286  -999.250000 2.7112081051 2.7834270000 2.6648001671 11.885399818 2.7058000565  -999.250000  -999.250000  -999.250000  -999.250000  -999.250000  -999.250000 0.0900000036 5.0000000000
 4896.0024414 4.1250000000 4.4387001991  -999.250000  -999.250000 139.19079590 0.2808000147  -999.250000 1.5099999905  -999.250000 2.4812309742 2.5220510960 2.6222999096 11.708399773 2.8501000404  -999.250000  -999.250000  -999.250000  -999.250000  -999.250000  -999.250000 0.7254810333 5.0000000000
