# LAS format log file from PETREL
# Project units are specified as depth units
#==================================================================
~Version information
VERS.   2.0:
WRAP.   NO:
#==================================================================
~Well
STRT .m      4859.1215820 :
STOP .m      5249.8750000 :
STEP .m     0.00000000 :
NULL .        -999.250000 :
COMP.           : COMPANY
WELL.  Proteus 1ST2   : WELL
FLD.            : FIELD
LOC.            : LOCATION
SRVC.           : SERVICE COMPANY
DATE.  2017-10-02 11:49:53   : Log Export Date {yyyy-MM-dd HH:mm:ss}
PROV.           : PROVINCE
UWI.   Proteus 1ST2   : UNIQUE WELL ID
API.            : API NUMBER
#==================================================================
~Curve
DEPT .m                   : DEPTH
BIT .in                   : BIT
CAL .in                   : CAL
DTC .us/ft                : DTC
DTS .us/ft                : DTS
GR .gAPI                  : GR
NPHI .m3/m3               : NPHI
PEF .b/e                  : PEF
POTA .%                   : POTA
RESD .ohm.m               : RESD
RESM .ohm.m               : RESM
RESS .ohm.m               : RESS
RHOB .g/cm3               : RHOB
THOR .ppm                 : THOR
URAN .ppm                 : URAN
FT_PRESS ._               : FT_PRESS
FT_PRESA ._               : FT_PRESA
FT_HYDB ._                : FT_HYDB
FT_TEMP ._                : FT_TEMP
FT_MOB ._                 : FT_MOB
FT_CODE ._                : FT_CODE
GS_GASA .%                : GS_GASA
Casing ._                 : Casing
~Parameter
#==================================================================
~Ascii
# ...
 5143.0429688 4.1250000000 4.5545997620 65.927696228  -999.250000 128.31770325 0.1125999987 11.897000313 1.0043900013 9.8297004700 10.158800125 10.920299530 2.7286000252 18.759279251 1.6566120386  -999.250000  -999.250000  -999.250000  -999.250000  -999.250000 3.6582162380 0.3100000024 4.1227445602
 5143.1953125 4.1250000000 4.5370998383 66.396499634  -999.250000 135.66619873 0.0820000023 8.6736001968 1.0416100025 21.809299469 23.023500443 21.788600922 2.7172999382 20.692390442 1.8592139482  -999.250000  -999.250000  -999.250000  -999.250000  -999.250000 3.6538195610 0.3000000119 4.1227464676
 5143.3476563 4.1250000000 4.5392999649 61.220699310  -999.250000 135.37049866 0.0584000014 6.8204998970 1.0065599680 27.585599899 26.305500031 30.194700241 2.6875000000 21.405069351 2.3696000576  -999.250000  -999.250000  -999.250000  -999.250000  -999.250000 3.6494228840 0.3000000119 4.1227483749
 5143.5000000 4.1250000000 4.5399999619 60.302700043  -999.250000 116.35569763 0.0483999997 6.7604999542 0.9464769959 38.243598938 34.404098511 33.707801819 2.6312003136 20.698940277 2.5696640015  -999.250000  -999.250000  -999.250000  -999.250000  -999.250000 3.6450262070 0.3000000119 4.1227502823
 5143.6523438 4.1250000000 4.5487999916 61.738300323  -999.250000 109.78459930 0.0500999987 8.2257995605 0.8740932941 47.660099030 42.908298492 34.240200043 2.5804626942 19.302619934 2.4489641190  -999.250000  -999.250000  -999.250000  -999.250000  -999.250000 3.6406295300 0.2899999917 4.1227521896
 5143.8046875 4.1250000000 4.5465998650 61.972698212  -999.250000 94.009300232 0.0527913719 10.409000397 0.6903452277 47.013599396 45.573898315 39.663898468 2.5613608360 16.388580322 2.1048851013  -999.250000  -999.250000  -999.250000  -999.250000  -999.250000 3.6362328529 0.2899999917 4.1227540970
 5143.9570313 4.1250000000 4.5458002090 62.412101746  -999.250000 83.590698242 0.0553916655 12.157199860 0.6045585871 43.814998627 37.359199524 29.013000488 2.6074514389 14.965029716 1.8964389563  -999.250000  -999.250000  -999.250000  -999.250000  -999.250000 3.6318364143 0.2899999917 4.1227560043
 5144.1093750 4.1250000000 4.5662999153 62.207000732  -999.250000 73.769699097 0.0542038456 11.177000046 0.5070561171 27.150199890 19.196399689 17.307100296 2.6576390266 14.385490417 1.9596279860  -999.250000  -999.250000  -999.250000  -999.250000  -999.250000 3.6274397373 0.2800000012 4.1227574348
 5144.2622070 4.1250000000 4.5795001984 62.925704956  -999.250000 75.161697388 0.0524000004 8.9383001328 0.3727540970 18.433900833 13.643199921 12.529500008 2.6814000607 14.080220222 2.3266050816  -999.250000  -999.250000  -999.250000  -999.250000  -999.250000 3.6230289936 0.2700000107 4.1227593422
 5144.4145508 4.1250000000 4.5721998215 61.679698944  -999.250000 81.294700623 0.0553000011 9.1218004227 0.3966856897 19.118000031 15.683099747 14.590900421 2.6851000786 14.802280426 2.6580729485  -999.250000  -999.250000  -999.250000  -999.250000  -999.250000 3.6186323166 0.2599999905 4.1227612495
 5144.5668945 4.1250000000 4.5692000389 62.509803772  -999.250000 95.439796448 0.0577000007 8.1494998932 0.4749841988 19.731399536 16.622100830 15.465000153 2.7126998901 15.593759537 2.9644699097  -999.250000  -999.250000  -999.250000  -999.250000  -999.250000 3.6142356396 0.2599999905 4.1227631569
 5144.7192383 4.1250000000 4.5282998085 63.759803772  -999.250000 114.28060150 0.0634000003 8.6976995468 0.5076100230 27.145500183 22.292200089 24.074600220 2.7565999031 16.269969940 2.9649419785  -999.250000  -999.250000  -999.250000  -999.250000  -999.250000 3.6098389626 0.2500000000 4.1227650642
 5144.8715820 4.1250000000 4.5282998085 62.285198212  -999.250000 118.34919739 0.0604000017 8.9975996017 0.4893304110 64.276199341 52.983299255 44.939601898 2.7909998894 16.174310684 2.8267600536  -999.250000  -999.250000  -999.250000  -999.250000  -999.250000 3.6054422855 0.2500000000 4.1227669716
 5145.0239258 4.1250000000 4.5392999649 62.128898621  -999.250000 114.24410248 0.0478999987 9.8835000992 0.4571636021 114.44529724 101.00540161 100.69930267 2.7094612122 15.568449974 2.5636940002  -999.250000  -999.250000  -999.250000  -999.250000  -999.250000 3.6010456085 0.2399999946 4.1227688789
 5145.1762695 4.1250000000 4.5399999619 59.453098297  -999.250000 96.780700684 0.0370348245 9.0696001053 0.4227522016 134.24119568 157.17399597 176.78230286 2.7041163445 15.317850113 2.1233348846  -999.250000  -999.250000  -999.250000  -999.250000  -999.250000 3.5966489315 0.2310428023 4.1227707863
 5145.3286133 4.1250000000 4.5517001152 56.884803772  -999.250000 89.589103699 0.0299227554 7.6047000885 0.3838745058 91.086799622 155.00660706 139.13180542 2.7497532368 15.186389923 2.1114089489  -999.250000  -999.250000  -999.250000  -999.250000  -999.250000 3.5922522545 0.2300000042 4.1227726936
 5145.4809570 4.1250000000 4.5647997856 55.175804138  -999.250000 87.201301575 0.0275076926 7.1571998596 0.3606759012 71.069000244 107.40950012 92.798202515 2.7849872112 16.406719208 2.2708439827  -999.250000  -999.250000  -999.250000  -999.250000  -999.250000 3.5878555775 0.2199999988 4.1227746010
 5145.6337891 4.1250000000 4.5574998856 54.697299957  -999.250000 86.484596252 0.0273000002 7.0942997932 0.3765782118 55.910400391 76.555099487 67.509002686 2.7572000027 18.261579514 2.4608249664  -999.250000  -999.250000  -999.250000  -999.250000  -999.250000 3.5834448338 0.2199999988 4.1227765083
 5145.7861328 4.1250000000 4.5545997620 55.136699677  -999.250000 101.77749634 0.0286999997 7.1051001549 0.4077067971 48.354801178 61.198898315 53.010898590 2.7534000874 20.587450027 2.5412940979  -999.250000  -999.250000  -999.250000  -999.250000  -999.250000 3.5790481567 0.2199999988 4.1227784157
 5145.9384766 4.1250000000 4.5209999084 55.429698944  -999.250000 121.04499817 0.0328000002 6.7132000923 0.4029690921 44.654701233 53.289798737 44.929500580 2.7328000069 21.879470825 2.5913960934  -999.250000  -999.250000  -999.250000  -999.250000  -999.250000 3.5746514797 0.2099999934 4.1227798462
 5146.0908203 4.1250000000 4.5574998856 56.250000000  -999.250000 120.60230255 0.0390000008 6.7697000504 0.4367716908 40.397899628 47.061298370 37.297901154 2.7304000854 21.506370544 2.7711579800  -999.250000  -999.250000  -999.250000  -999.250000  -999.250000 3.5702548027 0.2099999934 4.1227817535
 5146.2431641 4.1250000000 4.5538997650 57.851600647  -999.250000 121.79380035 0.0439999998 6.6862001419 0.5236762166 35.741600037 37.688499451 29.855600357 2.7183387280 21.116079330 2.6104080677  -999.250000  -999.250000  -999.250000  -999.250000  -999.250000 3.5658583641 0.2099999934 4.1227836609
 5146.3955078 4.1250000000 4.5517001152 58.691398621  -999.250000 128.52149963 0.0483859405 6.4618000984 0.6054198742 33.108798981 32.557701111 26.912000656 2.7149109840 21.249050140 2.8937220573  -999.250000  -999.250000  -999.250000  -999.250000  -999.250000 3.5614616871 0.2099999934 4.1227855682
 5146.5478516 4.1250000000 4.5399999619 59.697299957  -999.250000 141.27529907 0.0508919880 5.4189000130 0.6558725834 39.170299530 37.448101044 27.530199051 2.7024400234 19.944440842 3.0542869568  -999.250000  -999.250000  -999.250000  -999.250000  -999.250000 3.5570650101 0.2000000030 4.1227874756
 5146.7001953 4.1250000000 4.5429000854 60.214801788  -999.250000 138.20880127 0.0503019206 4.9464998245 0.6547440290 36.513599396 33.611099243 23.179300308 2.6917343140 18.624059677 3.2598888874  -999.250000  -999.250000  -999.250000  -999.250000  -999.250000 3.5526683331 0.2000000030 4.1227893829
 5146.8530273 4.1250000000 4.5517001152 60.777305603  -999.250000 122.20149994 0.0498000011 5.9917998314 0.6925835013 19.829599380 16.219200134 14.648699760 2.6689999104 17.574939728 3.2668209076  -999.250000  -999.250000  -999.250000  -999.250000  -999.250000 3.5482575893 0.2000000030 4.1227912903
 5147.0053711 4.1250000000 4.5750999451 62.587898254  -999.250000 125.91169739 0.0542999990 7.5292000771 0.7099999785 13.441200256 10.952799797 10.458999634 2.6593000889 16.750280380 3.2995939255  -999.250000  -999.250000  -999.250000  -999.250000  -999.250000 3.5438609123 0.2000000030 4.1227931976
