# LAS format log file from PETREL
# Project units are specified as depth units
#==================================================================
~Version information
VERS.   2.0:
WRAP.   NO:
#==================================================================
~Well
STRT .m      4859.1215820 :
STOP .m      5249.8750000 :
STEP .m     0.00000000 :
NULL .        -999.250000 :
COMP.           : COMPANY
WELL.  Proteus 1ST2   : WELL
FLD.            : FIELD
LOC.            : LOCATION
SRVC.           : SERVICE COMPANY
DATE.  2017-10-02 11:49:53   : Log Export Date {yyyy-MM-dd HH:mm:ss}
PROV.           : PROVINCE
UWI.   Proteus 1ST2   : UNIQUE WELL ID
API.            : API NUMBER
#==================================================================
~Curve
DEPT .m                   : DEPTH
BIT .in                   : BIT
CAL .in                   : CAL
DTC .us/ft                : DTC
DTS .us/ft                : DTS
GR .gAPI                  : GR
NPHI .m3/m3               : NPHI
PEF .b/e                  : PEF
POTA .%                   : POTA
RESD .ohm.m               : RESD
RESM .ohm.m               : RESM
RESS .ohm.m               : RESS
RHOB .g/cm3               : RHOB
THOR .ppm                 : THOR
URAN .ppm                 : URAN
FT_PRESS ._               : FT_PRESS
FT_PRESA ._               : FT_PRESA
FT_HYDB ._                : FT_HYDB
FT_TEMP ._                : FT_TEMP
FT_MOB ._                 : FT_MOB
FT_CODE ._                : FT_CODE
GS_GASA .%                : GS_GASA
Casing ._                 : Casing
~Parameter
#==================================================================
~Ascii
# ...
 4961.9916992 4.1250000000 4.3748002052 79.941398621 137.67630005 115.44719696 0.1229000017 7.8586997986 0.5218349099 3.7776999474 4.7016000748 4.6565999985 2.4690999985 5.2807149887 1.2970279455  -999.250000  -999.250000  -999.250000  -999.250000  -999.250000 3.4983880520 0.2399999946 4.1205253601
 4962.1440430 4.1250000000 4.3470001221 76.682296753 130.27090454 70.498703003 0.0899000019 7.4851999283 0.3677152097 9.7650003433 12.175100327 11.812100410 2.4156999588 4.3574237823 1.0581729412  -999.250000  -999.250000  -999.250000  -999.250000  -999.250000 3.5276846886 0.2399999946 4.1205272675
 4962.2963867 4.1250000000 4.4077000618 74.843101501 125.75659943 43.421100616 0.0802000016 6.9154000282 0.2849828005 14.600799561 17.257499695 27.692699432 2.4012999535 3.9088180065 1.0204509497  -999.250000  -999.250000  -999.250000  -999.250000  -999.250000 3.5569813251 0.2500000000 4.1205291748
 4962.4487305 4.1250000000 4.4356999397 71.658203125 116.65450287 36.000701904 0.0948000029 6.9460000992 0.2238069028 21.057399750 22.294700623 50.301101685 2.4399759769 3.7518689632 1.0634590387  -999.250000  -999.250000  -999.250000  -999.250000  -999.250000 3.5862782001 0.2700000107 4.1205310822
 4962.6010742 4.1250000000 4.4710998535 67.883796692 111.20019531 38.088600159 0.1039706096 6.1677999496 0.1346188933 27.109600067 22.337999344 32.255599976 2.5090782642 3.5638840199 1.2249530554  -999.250000  -999.250000  -999.250000  -999.250000  -999.250000 3.6155748367 0.2800000012 4.1205329895
 4962.7534180 4.1250000000 4.4084000587 65.051200867 107.97299957 33.397701263 0.0946301296 5.5156002045 0.0878679007 25.471000671 20.207399368 19.582199097 2.5569467545 3.3993079662 1.1939979792  -999.250000  -999.250000  -999.250000  -999.250000  -999.250000 3.6448714733 0.2800000012 4.1205348969
 4962.9057617 4.1250000000 4.2870998383 64.695396423 106.55439758 27.136699677 0.0824391022 4.9622998238 0.0655667633 32.824100494 23.900899887 27.047399521 2.5562028885 2.6770470142 1.0836470127  -999.250000  -999.250000  -999.250000  -999.250000  -999.250000 3.6741681099 0.2700000107 4.1205368042
 4963.0585938 4.1250000000 4.2962999344 65.774902344 106.08799744 21.336999893 0.0746000037 4.9784998894 0.0670558736 47.488399506 35.837501526 30.103200912 2.5120000839 2.4492321014 0.8891503811  -999.250000  -999.250000  -999.250000  -999.250000  -999.250000 3.7035586834 0.2700000107 4.1205387115
 4963.2109375 4.1250000000 4.3358001709 69.308998108 105.39710236 23.618499756 0.0649999976 4.8453998566 0.0700000003 49.334201813 32.077098846 31.430500031 2.4897999763 2.4965760708 0.7409406900  -999.250000  -999.250000  -999.250000  -999.250000  -999.250000 3.7328555584 0.2599999905 4.1205406189
 4963.3632813 4.1250000000 4.4084000587 70.481597900 106.79469299 23.386600494 0.0533999987 5.1050000191 0.0565312319 54.833599091 36.430000305 36.650100708 2.4660000801 2.4406909943 0.6920046806  -999.250000  -999.250000  -999.250000  -999.250000  -999.250000 3.7621521950 0.2899999917 4.1205425262
 4963.5156250 4.1250000000 4.4182000160 69.362800598 106.05220032 21.994699478 0.0445999987 5.2617998123 0.0302790795 58.075298309 42.533901215 40.362499237 2.4460999966 2.4162950516 0.6244022250  -999.250000  -999.250000  -999.250000  -999.250000  -999.250000 3.7914488316 0.2928688526 4.1205444336
 4963.6679688 4.1250000000 4.4770998955 68.317703247 105.59320068 19.017499924 0.0399000011 5.7393999100 0.0264128894 62.867900848 51.323699951 52.739898682 2.4236719608 2.3019919395 0.5462912917  -999.250000  -999.250000  -999.250000  -999.250000  -999.250000 3.8207454681 0.2994948924 4.1205463409
 4963.8203125 4.1250000000 4.5001001358 67.717903137 104.73850250 15.333600044 0.0375076681 5.6921000481 0.0237478502 74.746002197 66.631202698 74.101799011 2.4012718201 2.1449809074 0.5747060776  -999.250000  -999.250000  -999.250000  -999.250000  -999.250000 3.8500423431 0.3000000119 4.1205477715
 4963.9726563 4.1250000000 4.4734997749 67.029296875 104.50440216 12.317700386 0.0369019210 4.6585998535 0.0199999996 100.94560242 90.933502197 137.95550537 2.3525564671 2.0960779190 0.5541439056  -999.250000  -999.250000  -999.250000  -999.250000  -999.250000 3.8793389797 0.3100000024 4.1205496788
 4964.1250000 4.1250000000 4.4317998886 67.349800110 106.04579926 11.158300400 0.0360028818 3.5315999985 0.0259306598 139.60929871 122.84329987 234.71699524 2.3243901730 2.0558691025 0.4986903071  -999.250000  -999.250000  -999.250000  -999.250000  -999.250000 3.9086356163 0.3100000024 4.1205515862
 4964.2778320 4.1250000000 4.4333000183 69.635040283 108.33798981 12.523300171 0.0344999991 3.0894999504 0.0242300909 226.62950134 178.99159241 256.64941406 2.3066999912 2.0078830719 0.4505344927  -999.250000  -999.250000  -999.250000  -999.250000  -999.250000 3.9380261898 0.3199999928 4.1205534935
 4964.4301758 4.1250000000 4.4201002121 70.146896362 108.24289703 13.000699997 0.0344000012 3.5434000492 0.0256091692 389.94158936 267.03948975 318.41680908 2.2892999649 1.9379470348 0.4311043024  -999.250000  -999.250000  -999.250000  -999.250000  -999.250000 3.9673228264 0.3199999928 4.1205554008
 4964.5825195 4.1250000000 4.4004001617 70.217697144 108.32050323 12.536899567 0.0359999985 4.0592999458 0.0136547396 865.00738525 521.82739258 390.63580322 2.2964000702 1.8158509731 0.4845171869  -999.250000  -999.250000  -999.250000  -999.250000  -999.250000 3.9966197014 0.3199999928 4.1205573082
 4964.7348633 4.1250000000 4.3976998329 68.664901733 108.96189880 11.611100197 0.0355000012 4.3090000153 -0.010575350 1950.0000000 674.37622070 293.23361206 2.3138000965 1.8375120163 0.5622320771  -999.250000  -999.250000  -999.250000  -999.250000  -999.250000 3.5507326126 0.3199999928 4.1205592155
 4964.8872070 4.1250000000 4.4260001183 68.154296875 108.10780334 9.9729003906 0.0357000008 3.8531000614 -0.025126930 1950.0000000 556.26147461 348.07089233 2.3238000870 1.9012160301 0.6053128242  -999.250000  -999.250000  -999.250000  -999.250000  -999.250000 3.0428647995 0.3300000131 4.1205611229
 4965.0395508 4.1250000000 4.4084000587 68.272499084 106.79440308 8.5816001892 0.0366000012 3.5134000778 -0.025033809 1950.0000000 467.11920166 322.94198608 2.3277871609 1.7870399952 0.6264250278  -999.250000  -999.250000  -999.250000  -999.250000  -999.250000 2.5349972248 0.3400000036 4.1205630302
 4965.1918945 4.1250000000 4.4260001183 68.416297913 106.03410339 7.4851999283 0.0373974442 3.4851999283 -0.010389120 1950.0000000 378.89340210 313.40838623 2.3394625187 1.6248090267 0.6351491809  -999.250000  -999.250000  -999.250000  -999.250000  -999.250000 2.0271296501 0.3400000036 4.1205649376
 4965.3442383 4.1250000000 4.4727997780 68.082603455 106.16329956 9.8059997559 0.0368019231 4.1280999184 0.0046446952 1801.6250000 358.66030884 312.47879028 2.3216574192 1.4161429405 0.6047710776  -999.250000  -999.250000  -999.250000  -999.250000  -999.250000 1.5192620754 0.3484207094 4.1205668449
 4965.4965820 4.1250000000 4.5479001999 69.595901489 106.62699890 10.733599663 0.0388932675 4.8392000198 0.0055160499 1048.6550293 312.50918579 296.68600464 2.3394424915 1.2752139568 0.5676435232  -999.250000  -999.250000  -999.250000  -999.250000  -999.250000 1.0113945007 0.3499999940 4.1205687523
 4965.6494141 4.1250000000 4.5625000000 70.135696411 107.83300018 11.366000175 0.0445999987 4.7255001068 -0.004323204 854.51818848 321.92150879 282.56890869 2.3645999432 1.2666100264 0.5783333778 7258.6801758 7258.6801758 7986.1171875 320.06402588 15.442687035 1.0000000000 0.3600000143 4.1205701828
 4965.8017578 4.1250000000 4.4795999527 69.134902954 109.22730255 9.2770004272 0.0460000001 4.5776000023 -0.014162460 642.63018799 224.77999878 257.98791504 2.3703999519 1.1830480099 0.6111478209 7258.7211914 7258.7211914 7986.2373047 320.12930298 15.486211777 1.0000000000 0.3600000143 4.1205720901
 4965.9541016 4.1250000000 4.4064998627 70.651496887 109.41851044 10.617500305 0.0463999994 4.5743999481 -0.020000000 545.26647949 237.64030457 220.93159485 2.3636000156 1.1437820196 0.6412066221 7258.7622070 7258.7622070 7986.3569336 320.19461060 15.529736519 1.0000000000 0.3600000143 4.1205739975
