# LAS format log file from PETREL
# Project units are specified as depth units
#==================================================================
~Version information
VERS.   2.0:
WRAP.   NO:
#==================================================================
~Well
STRT .m      4859.1215820 :
STOP .m      5249.8750000 :
STEP .m     0.00000000 :
NULL .        -999.250000 :
COMP.           : COMPANY
WELL.  Proteus 1ST2   : WELL
FLD.            : FIELD
LOC.            : LOCATION
SRVC.           : SERVICE COMPANY
DATE.  2017-10-02 11:49:53   : Log Export Date {yyyy-MM-dd HH:mm:ss}
PROV.           : PROVINCE
UWI.   Proteus 1ST2   : UNIQUE WELL ID
API.            : API NUMBER
#==================================================================
~Curve
DEPT .m                   : DEPTH
BIT .in                   : BIT
CAL .in                   : CAL
DTC .us/ft                : DTC
DTS .us/ft                : DTS
GR .gAPI                  : GR
NPHI .m3/m3               : NPHI
PEF .b/e                  : PEF
POTA .%                   : POTA
RESD .ohm.m               : RESD
RESM .ohm.m               : RESM
RESS .ohm.m               : RESS
RHOB .g/cm3               : RHOB
THOR .ppm                 : THOR
URAN .ppm                 : URAN
FT_PRESS ._               : FT_PRESS
FT_PRESA ._               : FT_PRESA
FT_HYDB ._                : FT_HYDB
FT_TEMP ._                : FT_TEMP
FT_MOB ._                 : FT_MOB
FT_CODE ._                : FT_CODE
GS_GASA .%                : GS_GASA
Casing ._                 : Casing
~Parameter
#==================================================================
~Ascii
# ...
 5188.3056641 4.1250000000 4.6072001457 55.703098297  -999.250000 30.369899750 0.0795999989 7.6048998833 0.0257225093 80.466796875 119.38130188 54.465198517 2.7485001087 5.0596370697 0.6905667782  -999.250000  -999.250000  -999.250000  -999.250000  -999.250000 2.3519299030 0.1700000018 4.1232991219
 5188.4580078 4.1250000000 4.6013998985 57.207000732  -999.250000 26.427799225 0.0886000022 7.3692002296 0.0399999991 78.832603455 90.019897461 64.311096191 2.7241001129 5.5901899338 0.8348520994  -999.250000  -999.250000  -999.250000  -999.250000  -999.250000 2.3475332260 0.1700000018 4.1233010292
 5188.6103516 4.1250000000 4.6072001457 60.419895172  -999.250000 26.887800217 0.1040000021 7.1097998619 0.0514497496 64.845596313 66.488502502 61.539199829 2.6826326847 6.1336407661 1.0423309803  -999.250000  -999.250000  -999.250000  -999.250000  -999.250000 2.3431365490 0.1700000018 4.1233029366
 5188.7626953 4.1250000000 4.6050000191 62.216800690  -999.250000 26.892900467 0.1148651764 7.2839999199 0.0779006779 57.794101715 60.456901550 54.760898590 2.6619660854 6.7840790749 1.0746730566  -999.250000  -999.250000  -999.250000  -999.250000  -999.250000 2.3387398720 0.1700000018 4.1233048439
 5188.9150391 4.1250000000 4.6013998985 63.359401703  -999.250000 37.095901489 0.1110125035 7.8351001740 0.0962089077 52.920101166 54.948101044 50.907299042 2.6721670628 7.4534630775 1.2408920527  -999.250000  -999.250000  -999.250000  -999.250000  -999.250000 2.3343431950 0.1700000018 4.1233067513
 5189.0673828 4.1250000000 4.6043000221 62.167999268  -999.250000 44.052501678 0.0886717960 8.9829998016 0.1000000015 45.728900909 47.313400269 49.390800476 2.6758880615 8.5127573013 1.5915139914  -999.250000  -999.250000  -999.250000  -999.250000  -999.250000 2.3299465179 0.1700000018 4.1233086586
 5189.2202148 4.1250000000 4.6124000549 60.910224915  -999.250000 48.239700317 0.0720999986 9.2413997650 0.0933070481 43.890201569 44.848201752 47.333999634 2.7197000980 9.2362880707 1.7932310104  -999.250000  -999.250000  -999.250000  -999.250000  -999.250000 2.3255357742 0.1700000018 4.1233105659
 5189.3725586 4.1250000000 4.6101999283 61.542999268  -999.250000 45.225200653 0.0649999976 10.692899704 0.1038699001 41.207199097 41.352100372 41.488098145 2.7765998840 8.9023675919 1.8597580194  -999.250000  -999.250000  -999.250000  -999.250000  -999.250000 2.3211390972 0.1700000018 4.1233124733
 5189.5249023 4.1250000000 4.6451997757 61.318401337  -999.250000 48.938301086 0.0671000034 11.017000198 0.0884690508 34.234500885 32.142101288 32.457298279 2.7592999935 8.7342491150 2.0095369816  -999.250000  -999.250000  -999.250000  -999.250000  -999.250000 2.3167424202 0.1700000018 4.1233143806
 5189.6772461 4.1250000000 4.6124000549 61.992195129  -999.250000 65.177597046 0.0737000033 12.776000023 0.1170950010 32.846599579 31.870199203 34.278800964 2.7562999725 8.4412469864 1.9689559937  -999.250000  -999.250000  -999.250000  -999.250000  -999.250000 2.3123459816 0.1800000072 4.1233162880
 5189.8295898 4.1250000000 4.5984997749 61.181594849  -999.250000 76.540000916 0.0711999983 11.942799568 0.1453219950 48.554798126 48.551601410 44.259998322 2.7578001022 7.9103331566 1.6819070578  -999.250000  -999.250000  -999.250000  -999.250000  -999.250000 2.3079493046 0.1776897460 4.1233181953
 5189.9819336 4.1250000000 4.6013998985 60.341800690  -999.250000 71.064102173 0.0640999973 11.260399818 0.1341938972 82.218399048 80.828598022 67.245498657 2.7620861530 6.7028260231 1.4089369774  -999.250000  -999.250000  -999.250000  -999.250000  -999.250000 2.3035526276 0.1800000072 4.1233201027
 5190.1342773 4.1250000000 4.6131000519 59.521503448  -999.250000 55.520801544 0.0612092651 8.2826995850 0.1299999952 81.586196899 76.011100769 55.792900085 2.7742609978 6.0750331879 1.2323180437  -999.250000  -999.250000  -999.250000  -999.250000  -999.250000 2.2991559505 0.1768008173 4.1233215332
 5190.2866211 4.1250000000 4.6101999283 59.218795776  -999.250000 44.390201569 0.0636919886 7.4914999008 0.1048388034 52.770198822 50.110801697 39.789798737 2.7856636047 5.9481358528 1.2269639969  -999.250000  -999.250000  -999.250000  -999.250000  -999.250000 2.2947592735 0.1700000018 4.1233234406
 5190.4389648 4.1250000000 4.6343002319 59.804698944  -999.250000 48.240001678 0.0681855753 8.2615995407 0.0741127208 46.062000275 42.720199585 33.015399933 2.7265899181 5.6017341614 1.4401379824  -999.250000  -999.250000  -999.250000  -999.250000  -999.250000 2.2903625965 0.1700000018 4.1233253479
 5190.5917969 4.1250000000 4.6423001289 60.716171265  -999.250000 42.913700104 0.0698999986 9.3632001877 0.0522577800 47.206600189 43.197799683 33.004299164 2.6789000034 5.3515272141 1.4355980158  -999.250000  -999.250000  -999.250000  -999.250000  -999.250000 2.2859518528 0.1700000018 4.1233272552
 5190.7441406 4.1250000000 4.6378998756 64.794898987  -999.250000 41.063701630 0.0689999983 14.029000282 0.0226606093 63.070201874 57.264099121 42.199501038 2.5650999546 4.4845380783 1.6521580219  -999.250000  -999.250000  -999.250000  -999.250000  -999.250000 2.2815551758 0.1700000018 4.1233291626
 5190.8964844 4.1250000000 4.6423001289 62.773399353  -999.250000 38.744800568 0.0806000009 16.614599228 0.0293551497 69.200996399 63.112998962 46.751201630 2.4693999290 4.0576748848 1.6702380180  -999.250000  -999.250000  -999.250000  -999.250000  -999.250000 2.2771584988 0.1599999964 4.1233310699
 5191.0488281 4.1250000000 4.6336002350 60.546901703  -999.250000 39.199298859 0.0866999999 10.443799973 0.0299999993 87.133598328 77.860298157 63.404201508 2.4228000641 4.9287400246 2.2019710541  -999.250000  -999.250000  -999.250000  -999.250000  -999.250000 2.2727618217 0.1500000060 4.1233329773
 5191.2011719 4.1250000000 4.6124000549 58.105495453  -999.250000 37.339199066 0.0803999975 5.9625000954 0.0595175587 148.86279297 100.55770111 63.287601471 2.5060331821 6.8529639244 3.1461329460  -999.250000  -999.250000  -999.250000  -999.250000  -999.250000 2.2683651447 0.1400000006 4.1233348846
 5191.3535156 4.1250000000 4.6013998985 53.906299591  -999.250000 50.921798706 0.0759143829 5.1015000343 0.0299187992 95.723899841 78.630401611 71.653999329 2.6271116734 10.233340263 4.2924451828  -999.250000  -999.250000  -999.250000  -999.250000  -999.250000 2.2639684677 0.1400000006 4.1233367920
 5191.5058594 4.1250000000 4.5977001190 54.648399353  -999.250000 86.916999817 0.0799868554 5.9650998116 0.0203232206 53.300899506 47.593700409 45.482700348 2.7030570507 12.137680054 5.3564848900  -999.250000  -999.250000  -999.250000  -999.250000  -999.250000 2.2595717907 0.1400000006 4.1233386993
 5191.6582031 4.1250000000 4.5897002220 55.097698212  -999.250000 89.456703186 0.0939551219 6.5159001350 0.0295305792 42.996299744 39.865299225 34.934200287 2.7177534103 13.433389664 5.2410411835  -999.250000  -999.250000  -999.250000  -999.250000  -999.250000 2.2551751137 0.1400000006 4.1233406067
 5191.8110352 4.1250000000 4.5954999924 56.124156952  -999.250000 74.018997192 0.0961000025 5.8028001785 0.0210247897 51.535701752 47.788200378 48.698200226 2.7346999645 13.435009956 5.3813009262  -999.250000  -999.250000  -999.250000  -999.250000  -999.250000 2.2507643700 0.1400000006 4.1233425140
 5191.9633789 4.1250000000 4.6013998985 56.484401703  -999.250000 35.703800201 0.0803000033 6.4225001335 0.0570289716 76.459098816 68.634101868 59.282001495 2.7102999687 11.649290085 4.7169408798  -999.250000  -999.250000  -999.250000  -999.250000  -999.250000 2.2463679314 0.1400000006 4.1233439445
 5192.1157227 4.1250000000 4.6248002052 57.509803772  -999.250000 33.294399261 0.0678000003 7.2729001045 0.0641739294 88.399002075 77.879203796 67.756103516 2.7165999413 9.4680233002 3.7795789242  -999.250000  -999.250000  -999.250000  -999.250000  -999.250000 2.2419712543 0.1400000006 4.1233458519
 5192.2680664 4.1250000000 4.6276998520 58.876998901  -999.250000 26.801599503 0.0612000003 9.2983999252 0.0557536595 114.12270355 95.921798706 74.643600464 2.7439000607 6.9312720299 2.7056159973  -999.250000  -999.250000  -999.250000  -999.250000  -999.250000 2.2375745773 0.1400000006 4.1233477592
