# LAS format log file from PETREL
# Project units are specified as depth units
#==================================================================
~Version information
VERS.   2.0:
WRAP.   NO:
#==================================================================
~Well
STRT .m      4859.1215820 :
STOP .m      5249.8750000 :
STEP .m     0.00000000 :
NULL .        -999.250000 :
COMP.           : COMPANY
WELL.  Proteus 1ST2   : WELL
FLD.            : FIELD
LOC.            : LOCATION
SRVC.           : SERVICE COMPANY
DATE.  2017-10-02 11:49:53   : Log Export Date {yyyy-MM-dd HH:mm:ss}
PROV.           : PROVINCE
UWI.   Proteus 1ST2   : UNIQUE WELL ID
API.            : API NUMBER
#==================================================================
~Curve
DEPT .m                   : DEPTH
BIT .in                   : BIT
CAL .in                   : CAL
DTC .us/ft                : DTC
DTS .us/ft                : DTS
GR .gAPI                  : GR
NPHI .m3/m3               : NPHI
PEF .b/e                  : PEF
POTA .%                   : POTA
RESD .ohm.m               : RESD
RESM .ohm.m               : RESM
RESS .ohm.m               : RESS
RHOB .g/cm3               : RHOB
THOR .ppm                 : THOR
URAN .ppm                 : URAN
FT_PRESS ._               : FT_PRESS
FT_PRESA ._               : FT_PRESA
FT_HYDB ._                : FT_HYDB
FT_TEMP ._                : FT_TEMP
FT_MOB ._                 : FT_MOB
FT_CODE ._                : FT_CODE
GS_GASA .%                : GS_GASA
Casing ._                 : Casing
~Parameter
#==================================================================
~Ascii
# ...
 5052.5170898 4.1250000000 4.5399999619  -999.250000  -999.250000 136.49859619 0.1905047894 29.273199081 1.0626109838 9.5279998779 12.156399727 9.9610996246 3.0035328865 26.822029114 1.0065799952  -999.250000  -999.250000 8128.1455078  -999.250000  -999.250000 3.5144855976 0.3899999857 4.1216349602
 5052.6694336 4.1250000000 4.5750999451  -999.250000  -999.250000 147.88850403 0.2074458301 24.229400635 1.0402189493 8.8027000427 12.676799774 7.6326999664 3.0482568741 26.676780701 0.8406410217  -999.250000  -999.250000 8128.3642578  -999.250000  -999.250000 3.5246419907 0.4099999964 4.1216368675
 5052.8217773 4.1250000000 4.5282998085  -999.250000  -999.250000 153.12600708 0.2097926289 19.960800171 0.8987866044 7.8600997925 12.898699760 5.9432997704 3.0461072922 25.702869415 1.1496510506  -999.250000  -999.250000 8128.5825195  -999.250000  -999.250000 3.5347981453 0.4207130373 4.1216387749
 5052.9746094 4.1250000000 4.4054999352  -999.250000  -999.250000 150.57530212 0.1932999939 35.885700226 0.8585677147 7.9563999176 13.894000053 6.3172998428 3.0571999550 24.674530029 1.4243880510  -999.250000  -999.250000 8128.8022461  -999.250000  -999.250000 3.5449869633 0.4435622990 4.1216406822
 5053.1269531 4.1250000000 4.3791999817  -999.250000  -999.250000 132.61419678 0.1834000051 30.968599319 0.8377419710 7.1993999481 13.506600380 5.0026998520 3.0501000881 23.519609451 1.6816259623  -999.250000  -999.250000 8129.0209961  -999.250000  -999.250000 3.5551431179 0.4699999988 4.1216425896
 5053.2792969 4.1250000000 4.4187002182  -999.250000  -999.250000 125.18540192 0.1909999996 15.850899696 0.8261672258 6.8347001076 10.778900146 4.2171001434 3.0202999115 23.765050888 1.9447749853  -999.250000  -999.250000 8129.2397461  -999.250000  -999.250000 3.5652995110 0.4669682086 4.1216444969
 5053.4316406 4.1250000000 4.4142999649  -999.250000  -999.250000 139.33059692 0.1935999990 9.4927997589 0.8717278242 5.8931999207 8.1132001877 3.2980999947 2.9663000107 24.049329758 2.0698220730  -999.250000  -999.250000 8129.4580078  -999.250000  -999.250000 3.5754556656 0.4699999988 4.1216464043
 5053.5839844 4.1250000000 4.3499999046  -999.250000  -999.250000 151.37759399 0.1774999946 9.8136997223 0.9436743855 4.7374000549 5.5556998253 2.6194999218 2.9300999641 24.081659317 2.3403890133  -999.250000  -999.250000 8129.6767578  -999.250000  -999.250000 3.5856120586 0.4799999893 4.1216483116
 5053.7363281 4.1250000000 4.3295001984  -999.250000  -999.250000 158.80639648 0.1686999947 9.1590995789 1.0589239597 4.8197999001 5.3324999809 2.0130999088 2.8986008167 25.100059509 2.5947630405  -999.250000  -999.250000 8129.8955078  -999.250000  -999.250000 3.5957682133 0.5000000000 4.1216502190
 5053.8886719 4.1250000000 4.2980999947  -999.250000  -999.250000 160.55400085 0.1761760414 7.8340997696 1.1695790291 5.0500998497 3.7042999268 2.0713000298 2.8261327744 25.429420471 2.9755349159  -999.250000  -999.250000 8130.1142578  -999.250000  -999.250000 3.6059243679 0.4900000095 4.1216516495
 5054.0410156 4.1250000000 4.3266000748  -999.250000  -999.250000 165.00270081 0.1778945476 6.2286000252 1.2332710028 4.4244999886 4.0223999023 2.1122000217 2.7148571014 25.179700851 3.3478369713  -999.250000  -999.250000 8130.3330078  -999.250000  -999.250000 3.6160807610 0.4939395189 4.1216535568
 5054.1933594 4.1250000000 4.3529000282  -999.250000  -999.250000 163.16580200 0.1828839779 5.7171001434 1.3461689949 3.6494998932 4.4057002068 1.1378999949 2.6508047581 23.745710373 3.4436159134  -999.250000  -999.250000 8130.5517578  -999.250000  -999.250000 3.6262369156 0.5099999905 4.1216554642
 5054.3461914 4.1250000000 4.3235998154  -999.250000  -999.250000 154.62339783 0.1923000067 7.1659998894 1.4354519844 4.1887998581 1.4131000042 1.1299999952 2.6796998978 23.412479401 3.3599879742  -999.250000  -999.250000 8130.7709961  -999.250000  -999.250000 3.6364257336 0.5099999905 4.1216573715
 5054.4985352 4.1250000000 4.3207001686 65.622497559  -999.250000 159.59320068 0.2100999951 7.2764000893 1.4654669762 1.0548000336 0.9851999879 1.1224000454 2.7302999496 23.047960281 3.1977479458  -999.250000  -999.250000 8130.9897461  -999.250000  -999.250000 3.6465821266 0.5099999905 4.1216592789
 5054.6508789 4.1250000000 4.3762998581 69.624099731 115.54769135 169.75349426 0.2239000052 7.2948999405 1.4237140417 2.1180999279 2.0388000011 1.6579999924 2.7205998898 21.986110687 3.1983599663  -999.250000  -999.250000 8131.2084961  -999.250000  -999.250000 3.6567382813 0.5099999905 4.1216611862
 5054.8032227 4.1250000000 4.4201002121 74.175598145 123.80380249 176.56669617 0.2211000025 6.1210999489 1.4056700468 4.1718001366 3.9212000370 3.2219998837 2.6798999310 20.720090866 3.2180240154  -999.250000  -999.250000 8131.4272461  -999.250000  -999.250000 3.6668944359 0.5099999905 4.1216630936
 5054.9555664 4.1250000000 4.3966999054 75.427299500 133.22650146 181.31140137 0.2178000063 5.9327001572 1.4586629868 14.852100372 9.9970998764 4.3120999336 2.6479024887 20.187919617 3.3119471073  -999.250000  -999.250000 8131.6459961  -999.250000  -999.250000 3.6770508289 0.5099999905 4.1216650009
 5055.1079102 4.1250000000 4.4201002121 75.558197021 134.70820618 171.67379761 0.1927801967 5.9986000061 1.5354690552 59.860401154 23.380500793 4.5611000061 2.6861765385 20.874589920 3.5721910000  -999.250000  -999.250000 8131.8647461  -999.250000  -999.250000 3.6872069836 0.5035120845 4.1216669083
 5055.2602539 4.1250000000 4.4435000420 75.561096191 132.70520020 147.33760071 0.1679794788 8.1148004532 1.5807249546 29.265399933 29.124000549 6.2871999741 2.7714262009 21.714889526 3.7115230560  -999.250000  -999.250000 8132.0834961  -999.250000  -999.250000 3.6973633766 0.5099999905 4.1216688156
 5055.4125977 4.1250000000 4.4149999619 74.210700989 129.61920166 112.09079742 0.1365009546 10.193799973 1.5680359602 12.749500275 15.803700447 7.5332999229 2.8500480652 22.645620346 3.8923609257  -999.250000  -999.250000 8132.3022461  -999.250000  -999.250000 3.7075195313 0.5000000000 4.1216707230
 5055.5654297 4.1250000000 4.3703999519 72.347419739 123.26429749 90.187103271 0.1124999970 9.1281995773 1.5599999428 9.5777997971 11.105799675 8.6094999313 2.8489000797 23.175739288 3.6937780380  -999.250000  -999.250000 8132.5214844  -999.250000  -999.250000 3.7177083492 0.5000000000 4.1216726303
 5055.7177734 4.1250000000 4.3529000282 68.268096924 115.07299805 94.346298218 0.0965000018 10.079799652 1.3726210594 7.7462000847 9.4920997620 9.0635004044 2.7953999043 22.872589111 3.6092569828  -999.250000  -999.250000 8132.7402344  -999.250000  -999.250000 3.7278645039 0.4900000095 4.1216745377
 5055.8701172 4.1250000000 4.3601999283 65.485900879 109.98439789 94.621398926 0.0821999982 8.1153001785 1.1588050127 7.8821997643 11.496100426 11.307900429 2.7265000343 21.934209824 3.3439888954  -999.250000  -999.250000 8132.9589844  -999.250000  -999.250000 3.7380208969 0.4900000095 4.1216759682
 5056.0224609 4.1250000000 4.3470001221 64.856399536 106.78040314 98.783096313 0.0740000010 6.4984002113 0.9954118729 11.788000107 15.718999863 14.800999641 2.6684000492 20.256669998 2.8367168903  -999.250000  -999.250000 8133.1777344  -999.250000  -999.250000 3.7481770515 0.4799999893 4.1216778755
 5056.1748047 4.1250000000 4.3674998283 64.857002258 105.05529785 86.951599121 0.0644000024 5.9513001442 0.9612293243 14.902500153 19.071300507 18.304000854 2.5913999081 18.711580276 2.7034549713  -999.250000  -999.250000 8133.3959961  -999.250000  -999.250000 3.7583334446 0.4799999893 4.1216797829
 5056.3271484 4.1250000000 4.4201002121 65.343399048 105.06150055 72.057098389 0.0555999987 6.7653999329 0.8130273223 22.788299561 24.147899628 25.810300827 2.5254113674 17.265340805 1.9744089842  -999.250000  -999.250000 8133.6147461  -999.250000  -999.250000 3.7684895992 0.4699999988 4.1216816902
 5056.4794922 4.1250000000 4.4004001617 65.157897949 105.17600250 58.038799286 0.0482236408 7.4432001114 0.6878899932 38.966201782 42.908199310 42.604900360 2.4982864857 16.429889679 1.6203229427  -999.250000  -999.250000 8133.8334961  -999.250000  -999.250000 3.7786457539 0.4600000083 4.1216835976
