# LAS format log file from PETREL
# Project units are specified as depth units
#==================================================================
~Version information
VERS.   2.0:
WRAP.   NO:
#==================================================================
~Well
STRT .m      4859.1215820 :
STOP .m      5249.8750000 :
STEP .m     0.00000000 :
NULL .        -999.250000 :
COMP.           : COMPANY
WELL.  Proteus 1ST2   : WELL
FLD.            : FIELD
LOC.            : LOCATION
SRVC.           : SERVICE COMPANY
DATE.  2017-10-02 11:49:53   : Log Export Date {yyyy-MM-dd HH:mm:ss}
PROV.           : PROVINCE
UWI.   Proteus 1ST2   : UNIQUE WELL ID
API.            : API NUMBER
#==================================================================
~Curve
DEPT .m                   : DEPTH
BIT .in                   : BIT
CAL .in                   : CAL
DTC .us/ft                : DTC
DTS .us/ft                : DTS
GR .gAPI                  : GR
NPHI .m3/m3               : NPHI
PEF .b/e                  : PEF
POTA .%                   : POTA
RESD .ohm.m               : RESD
RESM .ohm.m               : RESM
RESS .ohm.m               : RESS
RHOB .g/cm3               : RHOB
THOR .ppm                 : THOR
URAN .ppm                 : URAN
FT_PRESS ._               : FT_PRESS
FT_PRESA ._               : FT_PRESA
FT_HYDB ._                : FT_HYDB
FT_TEMP ._                : FT_TEMP
FT_MOB ._                 : FT_MOB
FT_CODE ._                : FT_CODE
GS_GASA .%                : GS_GASA
Casing ._                 : Casing
~Parameter
#==================================================================
~Ascii
# ...
 5073.0913086 4.1250000000 4.2534999847 61.337898254  -999.250000 133.15980530 0.0817999989 8.4559001923 0.7152081728 17.363500595 17.373699188 17.596200943 2.6445000172 12.771510124 3.1684200764  -999.250000  -999.250000  -999.250000  -999.250000  -999.250000 3.8751735687 0.3000000119 4.1218872070
 5073.2436523 4.1250000000 4.2621998787 59.335903168  -999.250000 131.65780640 0.0820999965 9.2904996872 0.7593474984 20.215999603 19.929000854 20.154399872 2.6786999702 12.442839622 3.4254879951  -999.250000  -999.250000  -999.250000  -999.250000  -999.250000 3.8721020222 0.2966094315 4.1218891144
 5073.3959961 4.1250000000 4.2687997818 58.994098663  -999.250000 129.21710205 0.0856999978 8.3056001663 0.8141356111 18.908599854 18.230600357 18.669200897 2.6967000961 13.214340210 3.5522999763  -999.250000  -999.250000  -999.250000  -999.250000  -999.250000 3.8690307140 0.3000000119 4.1218910217
 5073.5483398 4.1250000000 4.2768998146 59.189498901  -999.250000 126.72850037 0.0868000016 7.3695001602 0.8944671154 18.243900299 17.769800186 17.927400589 2.6989924908 14.168270111 3.7791569233  -999.250000  -999.250000  -999.250000  -999.250000  -999.250000 3.8659591675 0.3000000119 4.1218929291
 5073.7006836 4.1250000000 4.2856001854 59.902301788  -999.250000 125.13739777 0.0864012837 6.6027998924 0.9025619030 22.321800232 21.694499969 21.480899811 2.6741797924 14.058719635 3.9200379848  -999.250000  -999.250000  -999.250000  -999.250000  -999.250000 3.8628878593 0.3000000119 4.1218948364
 5073.8530273 4.1250000000 4.2972998619 61.074203491  -999.250000 127.76580048 0.0809176266 7.1434998512 0.8609105945 30.082099915 28.834699631 27.429100037 2.6555595398 13.389089584 3.7039120197  -999.250000  -999.250000  -999.250000  -999.250000  -999.250000 3.8598163128 0.3000000119 4.1218967438
 5074.0053711 4.1250000000 4.3090000153 61.171901703  -999.250000 130.20649719 0.0688387826 6.3677000999 0.8346297145 34.236301422 32.694900513 31.061100006 2.6515128613 12.870479584 3.1239259243  -999.250000  -999.250000  -999.250000  -999.250000  -999.250000 3.8567447662 0.2800000012 4.1218986511
 5074.1582031 4.1250000000 4.3266000748 61.504085541  -999.250000 132.73640442 0.0636999980 5.2936000824 0.8785879016 25.157199860 24.236299515 22.595500946 2.6584000587 12.881320000 2.4102370739  -999.250000  -999.250000  -999.250000  -999.250000  -999.250000 3.8536636829 0.2700000107 4.1219000816
 5074.3105469 4.1250000000 4.3352999687 61.562503815  -999.250000 131.24899292 0.0692000017 4.3534002304 0.8134027719 18.822500229 17.965900421 17.944499969 2.6702001095 11.902739525 2.2036960125  -999.250000  -999.250000  -999.250000  -999.250000  -999.250000 3.8505921364 0.2599999905 4.1219019890
 5074.4628906 4.1250000000 4.3352999687 62.265598297  -999.250000 126.44349670 0.0864000022 5.0359001160 0.7464582920 18.376800537 17.400400162 17.467899323 2.6833999157 10.664629936 2.4860830307  -999.250000  -999.250000  -999.250000  -999.250000  -999.250000 3.8475205898 0.2599999905 4.1219038963
 5074.6152344 4.1250000000 4.3162999153 62.587898254  -999.250000 128.50869751 0.0952000022 6.2747998238 0.7026543021 19.481000900 18.598800659 17.994400024 2.6940999031 10.517270088 2.5253410339  -999.250000  -999.250000  -999.250000  -999.250000  -999.250000 3.8444492817 0.2599999905 4.1219058037
 5074.7675781 4.1250000000 4.2797999382 60.703098297  -999.250000 129.82339478 0.0894000009 6.4377999306 0.7097492218 17.499099731 16.867200851 16.515399933 2.7017755508 11.747909546 2.5664489269  -999.250000  -999.250000  -999.250000  -999.250000  -999.250000 3.8413777351 0.2599999905 4.1219077110
 5074.9199219 4.1250000000 4.2739000320 61.289100647  -999.250000 132.06300354 0.0899980888 5.7553000450 0.6700000167 15.998999596 15.499300003 15.197500229 2.6659154892 13.113510132 2.6110498905  -999.250000  -999.250000  -999.250000  -999.250000  -999.250000 3.8383064270 0.2599999905 4.1219096184
 5075.0722656 4.1250000000 4.2709999084 61.171901703  -999.250000 129.43460083 0.0912958384 5.0885000229 0.6688501835 16.648300171 16.093999863 16.248500824 2.6265263557 14.402939796 2.6380040646  -999.250000  -999.250000  -999.250000  -999.250000  -999.250000 3.8352348804 0.2599999905 4.1219115257
 5075.2246094 4.1250000000 4.3017001152 61.718795776  -999.250000 130.45669556 0.0938916728 5.0827999115 0.6579018235 18.831399918 18.181200027 18.205400467 2.6131427288 16.992860794 3.0517981052  -999.250000  -999.250000  -999.250000  -999.250000  -999.250000 3.8321635723 0.2599999905 4.1219134331
 5075.3774414 4.1250000000 4.3031997681 63.465553284  -999.250000 132.64700317 0.0957000032 5.4484000206 0.7356020808 22.163099289 21.684000015 21.489700317 2.6268000603 17.661659241 3.2668099403  -999.250000  -999.250000  -999.250000  -999.250000  -999.250000 3.8290822506 0.2599999905 4.1219153404
 5075.5297852 4.1250000000 4.3235998154 63.076198578  -999.250000 136.40199280 0.0962999985 6.1593999863 0.7609332204 24.290000916 23.650899887 23.929399490 2.6577000618 17.746149063 3.4179739952  -999.250000  -999.250000  -999.250000  -999.250000  -999.250000 3.8260107040 0.2599999905 4.1219172478
 5075.6821289 4.1250000000 4.3565001488 62.187503815  -999.250000 132.55310059 0.0954999998 7.5409002304 0.7133213878 19.774099350 19.547800064 19.100400925 2.6997001171 16.695289612 3.7072279453  -999.250000  -999.250000  -999.250000  -999.250000  -999.250000 3.8229393959 0.2599999905 4.1219191551
 5075.8344727 4.1250000000 4.4113998413 61.064498901  -999.250000 127.48400116 0.0944999978 7.5286002159 0.6873610020 17.090900421 16.781999588 16.412399292 2.7202999592 16.489229202 3.7246649265  -999.250000  -999.250000  -999.250000  -999.250000  -999.250000 3.8198678493 0.2599999905 4.1219210625
 5075.9868164 4.1250000000 4.4260001183 61.259803772  -999.250000 126.54519653 0.0931999981 6.9788999557 0.6616891026 16.896299362 16.557800293 16.732299805 2.7070999146 16.162549973 3.3690168858  -999.250000  -999.250000  -999.250000  -999.250000  -999.250000 3.8167965412 0.2533153892 4.1219224930
 5076.1391602 4.1250000000 4.3273000717 61.152301788  -999.250000 129.05450439 0.0908000022 6.3941998482 0.6303939223 17.323999405 16.899200439 16.848899841 2.6918489933 15.371970177 3.0650720596  -999.250000  -999.250000  -999.250000  -999.250000  -999.250000 3.8137249947 0.2500000000 4.1219244003
 5076.2915039 4.1250000000 4.3558001518 61.582000732  -999.250000 130.93190002 0.0912984088 6.6978998184 0.6616324186 17.709199905 17.180700302 17.316699982 2.6709671021 15.444620132 3.0562870502  -999.250000  -999.250000  -999.250000  -999.250000  -999.250000 3.8106534481 0.2500000000 4.1219263077
 5076.4438477 4.1250000000 4.4640002251 61.845699310  -999.250000 128.30740356 0.0947887823 6.8199000359 0.7014514208 19.305799484 18.657499313 18.338899612 2.6600351334 16.488729477 3.1437489986  -999.250000  -999.250000  -999.250000  -999.250000  -999.250000 3.8075821400 0.2568332553 4.1219282150
 5076.5961914 4.1250000000 4.5137000084 60.126998901  -999.250000 131.40240479 0.0936038420 5.8845000267 0.7394062281 20.125200272 19.749500275 19.348199844 2.6612958908 17.021089554 3.3857979774  -999.250000  -999.250000  -999.250000  -999.250000  -999.250000 3.8045105934 0.2500000000 4.1219301224
 5076.7490234 4.1250000000 4.3235998154 60.848915100  -999.250000 134.73699951 0.0892999992 4.9372000694 0.7653477192 17.353799820 16.677499771 17.035200119 2.6572000980 16.761629105 3.6673860550  -999.250000  -999.250000  -999.250000  -999.250000  -999.250000 3.8014295101 0.2500000000 4.1219320297
 5076.9013672 4.1250000000 4.3266000748 60.634803772  -999.250000 131.11259460 0.0821999982 4.7832999229 0.7910575271 16.092100143 15.406100273 15.729399681 2.6552999020 16.590059280 3.8435359001  -999.250000  -999.250000  -999.250000  -999.250000  -999.250000 3.7983579636 0.2500000000 4.1219339371
 5077.0537109 4.1250000000 4.3235998154 60.751998901  -999.250000 128.88710022 0.0838999972 4.6273999214 0.7762337923 19.297800064 18.126699448 18.873600006 2.6860001087 16.896940231 4.0528721809  -999.250000  -999.250000  -999.250000  -999.250000  -999.250000 3.7952864170 0.2399999946 4.1219358444
