# LAS format log file from PETREL
# Project units are specified as depth units
#==================================================================
~Version information
VERS.   2.0:
WRAP.   NO:
#==================================================================
~Well
STRT .m      4859.1215820 :
STOP .m      5249.8750000 :
STEP .m     0.00000000 :
NULL .        -999.250000 :
COMP.           : COMPANY
WELL.  Proteus 1ST2   : WELL
FLD.            : FIELD
LOC.            : LOCATION
SRVC.           : SERVICE COMPANY
DATE.  2017-10-02 11:49:53   : Log Export Date {yyyy-MM-dd HH:mm:ss}
PROV.           : PROVINCE
UWI.   Proteus 1ST2   : UNIQUE WELL ID
API.            : API NUMBER
#==================================================================
~Curve
DEPT .m                   : DEPTH
BIT .in                   : BIT
CAL .in                   : CAL
DTC .us/ft                : DTC
DTS .us/ft                : DTS
GR .gAPI                  : GR
NPHI .m3/m3               : NPHI
PEF .b/e                  : PEF
POTA .%                   : POTA
RESD .ohm.m               : RESD
RESM .ohm.m               : RESM
RESS .ohm.m               : RESS
RHOB .g/cm3               : RHOB
THOR .ppm                 : THOR
URAN .ppm                 : URAN
FT_PRESS ._               : FT_PRESS
FT_PRESA ._               : FT_PRESA
FT_HYDB ._                : FT_HYDB
FT_TEMP ._                : FT_TEMP
FT_MOB ._                 : FT_MOB
FT_CODE ._                : FT_CODE
GS_GASA .%                : GS_GASA
Casing ._                 : Casing
~Parameter
#==================================================================
~Ascii
# ...
 5118.3540039 4.1250000000 4.5026998520 61.250000000  -999.250000 25.950500488 0.0821999982 5.2484002113 0.1770025939 24.252399445 28.442899704 51.318099976 2.5676999092 7.4859828949 0.3143635988  -999.250000  -999.250000  -999.250000  -999.250000  -999.250000 2.2074089050 0.3000000119 4.1224417686
 5118.5063477 4.1250000000 4.5370998383 61.435501099  -999.250000 26.410699844 0.0798999965 5.1715002060 0.1639645994 25.496099472 29.194599152 52.533000946 2.5635132790 6.6054310799 0.3109942973  -999.250000  -999.250000  -999.250000  -999.250000  -999.250000 2.2405264378 0.3000000119 4.1224436760
 5118.6586914 4.1250000000 4.5868000984 61.513698578  -999.250000 25.047000885 0.0747166127 5.1338000298 0.1634604037 25.891199112 29.479099274 53.065700531 2.5733683109 6.3385682106 0.3085683882  -999.250000  -999.250000  -999.250000  -999.250000  -999.250000 2.2736439705 0.3000000119 4.1224455833
 5118.8110352 4.1250000000 4.5830998421 61.162101746  -999.250000 27.148500443 0.0739025623 5.6229000092 0.1423708051 26.541000366 28.852600098 52.337100983 2.5862586498 6.0289850235 0.3742254972  -999.250000  -999.250000  -999.250000  -999.250000  -999.250000 2.3067615032 0.3000000119 4.1224474907
 5118.9633789 4.1250000000 4.5370998383 59.687503815  -999.250000 33.177600861 0.0809772462 5.2809000015 0.1916624010 25.732700348 28.070600510 50.334899902 2.5747373104 6.6357641220 0.4662364125  -999.250000  -999.250000  -999.250000  -999.250000  -999.250000 2.3398790359 0.3000000119 4.1224493980
 5119.1162109 4.1250000000 4.5392999649 60.116569519  -999.250000 38.745300293 0.0891000032 5.3050999641 0.1522203982 24.372499466 26.874900818 48.409099579 2.5724999905 5.8556380272 0.4651454091  -999.250000  -999.250000  -999.250000  -999.250000  -999.250000 2.3731026649 0.3000000119 4.1224513054
 5119.2685547 4.1250000000 4.5254001617 59.921901703  -999.250000 36.555000305 0.0932999998 5.2165999413 0.1451227963 22.414699554 26.404100418 40.919498444 2.5941998959 6.7771620750 0.5901777148  -999.250000  -999.250000  -999.250000  -999.250000  -999.250000 2.4062201977 0.3000000119 4.1224532127
 5119.4208984 4.1250000000 4.5282998085 60.039100647  -999.250000 36.323101044 0.0947000012 5.9394001961 0.1502314955 20.984600067 24.628400803 37.450401306 2.5933001041 7.6626038551 0.6919177175  -999.250000  -999.250000  -999.250000  -999.250000  -999.250000 2.4393377304 0.3000000119 4.1224551201
 5119.5732422 4.1250000000 4.5282998085 61.093795776  -999.250000 39.106998444 0.0997999981 6.1616001129 0.1373572052 19.157300949 23.666900635 30.534599304 2.5861999989 7.1419901848 0.6718581915  -999.250000  -999.250000  -999.250000  -999.250000  -999.250000 2.4724552631 0.3000000119 4.1224570274
 5119.7255859 4.1250000000 4.5282998085 61.513698578  -999.250000 44.992900848 0.1028999984 6.1656999588 0.1784334928 18.464099884 21.100400925 28.279199600 2.5660998821 9.1496353149 0.8938344717  -999.250000  -999.250000  -999.250000  -999.250000  -999.250000 2.5055725574 0.3000000119 4.1224589348
 5119.8779297 4.1250000000 4.5320000648 62.802700043  -999.250000 42.005798340 0.0983000025 6.5418000221 0.1483922005 24.493700027 37.041599274 58.294300079 2.5695888996 7.4909310341 0.7860621810  -999.250000  -999.250000  -999.250000  -999.250000  -999.250000 2.5386900902 0.3000000119 4.1224608421
 5120.0302734 4.1250000000 4.5282998085 62.470699310  -999.250000 40.613899231 0.0882322714 6.9380002022 0.1522344053 33.168899536 59.951400757 39.270999908 2.5723910332 7.2937908173 0.8465300798  -999.250000  -999.250000  -999.250000  -999.250000  -999.250000 2.5718076229 0.3000000119 4.1224627495
 5120.1826172 4.1250000000 4.5399999619 61.230495453  -999.250000 37.599399567 0.0784314126 7.2990999222 0.1340050995 30.496700287 52.531799316 47.709499359 2.5934321880 6.7434248924 0.8314977884  -999.250000  -999.250000  -999.250000  -999.250000  -999.250000 2.6049251556 0.3000000119 4.1224641800
 5120.3349609 4.1250000000 4.5341000557 60.400398254  -999.250000 38.499500275 0.0758083314 6.4432001114 0.1076432019 23.158500671 24.143600464 52.919498444 2.6000788212 6.0431442261 0.7523310184  -999.250000  -999.250000  -999.250000  -999.250000  -999.250000 2.6380426884 0.3000000119 4.1224660873
 5120.4877930 4.1250000000 4.5465998650 59.726600647  -999.250000 37.941398621 0.0732000023 5.5469999313 0.1307629943 21.930599213 31.851600647 53.412899017 2.5971999168 6.7908229828 0.8006417751  -999.250000  -999.250000  -999.250000  -999.250000  -999.250000 2.6712663174 0.2899999917 4.1224679947
 5120.6401367 4.1250000000 4.5429000854 60.703098297  -999.250000 33.770999908 0.0710000023 4.3654999733 0.1389783025 25.000099182 34.289798737 62.614398956 2.5699999332 7.3283472061 0.8064746261  -999.250000  -999.250000  -999.250000  -999.250000  -999.250000 2.7043838501 0.2899999917 4.1224699020
 5120.7924805 4.1250000000 4.5356001854 62.128898621  -999.250000 27.278099060 0.0718000010 4.1807999611 0.1400000006 22.967399597 28.805599213 51.304901123 2.5539000034 7.4737529755 0.8225222230  -999.250000  -999.250000  -999.250000  -999.250000  -999.250000 2.7375013828 0.3000000119 4.1224718094
 5120.9448242 4.1250000000 4.5370998383 63.388698578  -999.250000 23.773500443 0.0763999969 3.8475000858 0.1183649004 21.893400192 26.874500275 43.547500610 2.5327000618 7.6650938988 0.8037819266  -999.250000  -999.250000  -999.250000  -999.250000  -999.250000 2.7706189156 0.2940039635 4.1224737167
 5121.0971680 4.1250000000 4.5392999649 64.755897522  -999.250000 24.005500793 0.0878000036 4.2168002129 0.1000000015 20.912700653 24.105699539 40.735801697 2.5242271423 7.8619132042 0.7964987755  -999.250000  -999.250000  -999.250000  -999.250000  -999.250000 2.8037364483 0.2996113598 4.1224756241
 5121.2495117 4.1250000000 4.5370998383 65.283203125  -999.250000 31.889699936 0.0974690095 3.9444000721 0.0981607065 19.661899567 24.597000122 37.750499725 2.5142319202 7.9767899513 0.8320772052  -999.250000  -999.250000  -999.250000  -999.250000  -999.250000 2.8368537426 0.3000000119 4.1224775314
 5121.4018555 4.1250000000 4.5320000648 65.917999268  -999.250000 36.927501678 0.1055740416 4.1303000450 0.0898908824 18.633899689 23.663400650 36.127799988 2.4981515408 8.0121068954 0.8830912113  -999.250000  -999.250000  -999.250000  -999.250000  -999.250000 2.8699712753 0.2899999917 4.1224794388
 5121.5541992 4.1250000000 4.5311999321 66.601600647  -999.250000 42.031299591 0.1082913429 4.0999999046 0.0734603703 18.092899323 22.672800064 34.520999908 2.4787621498 7.5914859772 0.8968105912  -999.250000  -999.250000  -999.250000  -999.250000  -999.250000 2.9030888081 0.2899999917 4.1224813461
 5121.7070313 4.1250000000 4.5320000648 66.286819458  -999.250000 44.813999176 0.1102999970 3.9639000893 0.0700000003 18.896799088 23.936599731 36.405799866 2.4797000885 7.2947940826 0.9211655855  -999.250000  -999.250000  -999.250000  -999.250000  -999.250000 2.9363124371 0.2899999917 4.1224832535
 5121.8593750 4.1250000000 4.5341000557 65.576202393  -999.250000 45.909099579 0.1027999967 3.6108000278 0.0700000003 19.016899109 25.346900940 36.112899780 2.4797999859 7.2301778793 0.9146566987  -999.250000  -999.250000  -999.250000  -999.250000  -999.250000 2.9694299698 0.2899999917 4.1224851608
 5122.0117188 4.1250000000 4.5311999321 64.628898621  -999.250000 42.893299103 0.0943000019 3.5822999477 0.0729155913 20.389400482 26.354200363 37.093799591 2.4841001034 7.4955019951 0.9141427279  -999.250000  -999.250000  -999.250000 329.00241089  -999.250000 3.0013470650 0.2885157764 4.1224865913
 5122.1640625 4.1250000000 4.5356001854 64.316398621  -999.250000 41.323799133 0.0935000032 4.0247998238 0.0811308473 21.022300720 27.422100067 33.382400513 2.4832003117 8.0120105743 0.9609264135  -999.250000  -999.250000  -999.250000 329.03393555  -999.250000 3.0188572407 0.2980848253 4.1224884987
 5122.3164063 4.1250000000 4.5341000557 63.837898254  -999.250000 35.537101746 0.0935000032 4.1849999428 0.0893461108 22.218599319 29.851200104 33.248798370 2.4711999893 8.0396957397 0.9487677217  -999.250000  -999.250000  -999.250000 329.06546021  -999.250000 3.0363676548 0.3000000119 4.1224904060
