# LAS format log file from PETREL
# Project units are specified as depth units
#==================================================================
~Version information
VERS.   2.0:
WRAP.   NO:
#==================================================================
~Well
STRT .m      4859.1215820 :
STOP .m      5249.8750000 :
STEP .m     0.00000000 :
NULL .        -999.250000 :
COMP.           : COMPANY
WELL.  Proteus 1ST2   : WELL
FLD.            : FIELD
LOC.            : LOCATION
SRVC.           : SERVICE COMPANY
DATE.  2017-10-02 11:49:53   : Log Export Date {yyyy-MM-dd HH:mm:ss}
PROV.           : PROVINCE
UWI.   Proteus 1ST2   : UNIQUE WELL ID
API.            : API NUMBER
#==================================================================
~Curve
DEPT .m                   : DEPTH
BIT .in                   : BIT
CAL .in                   : CAL
DTC .us/ft                : DTC
DTS .us/ft                : DTS
GR .gAPI                  : GR
NPHI .m3/m3               : NPHI
PEF .b/e                  : PEF
POTA .%                   : POTA
RESD .ohm.m               : RESD
RESM .ohm.m               : RESM
RESS .ohm.m               : RESS
RHOB .g/cm3               : RHOB
THOR .ppm                 : THOR
URAN .ppm                 : URAN
FT_PRESS ._               : FT_PRESS
FT_PRESA ._               : FT_PRESA
FT_HYDB ._                : FT_HYDB
FT_TEMP ._                : FT_TEMP
FT_MOB ._                 : FT_MOB
FT_CODE ._                : FT_CODE
GS_GASA .%                : GS_GASA
Casing ._                 : Casing
~Parameter
#==================================================================
~Ascii
# ...
 4982.5654297 4.1250000000 4.8323998451 73.777000427 128.07569885 155.18499756 0.1693310887 6.1845998764 1.8500000238 9.4104003906 9.4514999390 9.9825000763 2.6664273739 17.963899612 2.5915300846 7265.0834961 7265.0834961 8012.7788086  -999.250000 2.7823531628 1.0000000000 0.4099999964 4.1207776070
 4982.7177734 4.1250000000 4.8280000687 73.107299805 129.27409363 139.52639771 0.1417881399 6.0710000992 1.8304400444 9.8508996964 9.7207002640 9.9378995895 2.6594226360 17.745229721 2.4872770309 7265.1469727 7265.1469727 8012.9907227  -999.250000 2.8308775425 1.0000000000 0.4099999964 4.1207795143
 4982.8706055 4.1250000000 4.7213001251 70.050765991 118.30299377 128.53550720 0.1362999976 5.5788998604 1.7706979513 10.736100197 10.648500443 10.737700462 2.6586999893 17.375490189 2.2547600269 7265.2109375 7265.2109375 8013.2036133  -999.250000 2.8795573711 1.0000000000 0.3976404667 4.1207814217
 4983.0229492 4.1250000000 4.7877998352 68.074401855 112.08100128 135.10659790 0.1451999992 4.9040999413 1.8105299473 11.599100113 11.353099823 11.379099846 2.6795001030 16.911649704 2.4932610989 7265.2749023 7265.2749023 8013.4155273  -999.250000 2.9280817509 1.0000000000 0.3899999857 4.1207833290
 4983.1752930 4.1250000000 4.7982997894 67.169296265 110.89189911 136.85200500 0.1606000066 5.1950998306 1.9189820290 10.667099953 10.446700096 10.967200279 2.6589999199 16.625410080 2.5520489216 7265.3383789 7265.3383789 8013.6279297  -999.250000 2.9766061306 1.0000000000 0.3899999857 4.1207852364
 4983.3276367 4.1250000000 4.7358999252 68.168800354 113.60710144 150.90939331 0.1766999960 5.1939997673 2.0175108910 9.7083997726 9.5927000046 9.7975997925 2.6426999569 16.558660507 2.7388460636 7265.4018555 7265.4018555 8013.8398438  -999.250000 3.0251302719 1.0000000000 0.3700000048 4.1207871437
 4983.4799805 4.1250000000 4.4295997620 69.599197388 120.15709686 157.48049927 0.1831000000 4.8315000534 2.0025939941 8.8680000305 8.7117996216 8.6681003571 2.6473848820 16.337259293 2.8921830654 7265.4658203 7265.4658203 8014.0522461  -999.250000 3.0736546516 1.0000000000 0.3600000143 4.1207890511
 4983.6323242 4.1250000000 4.4084000587 69.096199036 123.46660614 160.51719666 0.1736303568 4.2339000702 2.0676090717 7.5636000633 7.7006998062 7.5929999352 2.6440110207 16.551589966 3.0099420547 7265.5292969 7265.5292969 8014.2641602  -999.250000 3.1221790314 1.0000000000 0.3499999940 4.1207909584
 4983.7846680 4.1250000000 4.4552001953 69.846199036 119.71130371 153.28900146 0.1681176275 4.4368000031 2.1396369934 7.8003997803 7.9679999352 7.9015002251 2.6459934711 17.188989639 3.0343470573 7265.5927734 7265.5927734 8014.4765625  -999.250000 3.1707031727 1.0000000000 0.3499999940 4.1207928658
 4983.9370117 4.1250000000 4.4405999184 70.862701416 119.74710083 154.60330200 0.1682993621 4.4453001022 2.1016840935 8.2597999573 8.8500995636 8.7557001114 2.6548714638 17.004020691 2.9376239777 7265.6567383 7265.6567383 8014.6884766  -999.250000 3.2192275524 1.0000000000 0.3564607799 4.1207947731
 4984.0898438 4.1250000000 4.4230999947 71.249099731 120.17050934 158.80169678 0.1695999950 5.3152999878 1.8207199574 8.8907003403 9.3222999573 9.7311000824 2.7044999599 16.155519485 2.6318209171 7265.7202148 7265.7202148 8014.9013672  -999.250000 3.2679073811 1.0000000000 0.3600000143 4.1207962036
 4984.2421875 4.1250000000 4.4369001389 71.811096191 120.94419861 156.12770081 0.1534000039 5.8761000633 1.4857330322 8.8484001160 9.2307996750 9.0641002655 2.7200999260 13.729430199 2.1028430462 7265.7841797 7265.7841797 8015.1137695  -999.250000 3.3164317608 1.0000000000 0.3600000143 4.1207981110
 4984.3945313 4.1250000000 4.4562001228 71.782501221 119.38439941 140.35569763 0.1030000001 5.0664000511 1.1572459936 7.9883999825 8.2483997345 8.5052995682 2.6837999821 10.765879631 1.7769989967 7265.8476563 7265.8476563 8015.3256836  -999.250000 3.3649559021 1.0000000000 0.3638351262 4.1208000183
 4984.5468750 4.1250000000 4.4025998116 70.229103088 113.39869690 102.46240234 0.0542999990 3.6586000919 0.8205081820 8.9897003174 9.0349998474 10.364500046 2.6019001007 7.6105089188 1.3169260025 7265.9111328 7265.9111328 8015.5380859  -999.250000 3.4134802818 1.0000000000 0.3558535874 4.1208019257
 4984.6992188 4.1250000000 4.3748002052 66.688201904 103.90589905 62.113998413 0.0333999991 2.8722000122 0.4870904982 14.548999786 15.038499832 16.458299637 2.5162999630 4.7880268097 0.8558505177 7265.9750977 7265.9750977 8015.7500000  -999.250000 3.4620046616 1.0000000000 0.3499846160 4.1208038330
 4984.8515625 4.1250000000 4.3646001816 64.653099060 98.596359253 29.481599808 0.0292000007 2.8922998905 0.2300449014 36.268901825 40.350700378 38.766101837 2.4653632641 2.6795480251 0.4821409881 7266.0385742 7266.0385742 8015.9624023  -999.250000 3.5105290413 1.0000000000 0.3400000036 4.1208057404
 4985.0039063 4.1250000000 4.3748002052 66.549598694 97.386917114 17.240699768 0.0302964859 2.8510000706 0.1412685066 47.129001617 92.103698730 106.12349701 2.4218394756 1.8107899427 0.3236354887 7266.1020508 7266.1020508 8016.1743164  -999.250000 3.5590531826 1.0000000000 0.3300000131 4.1208076477
 4985.1562500 4.1250000000 4.3411998749 64.218200684 96.640586853 14.921799660 0.0318948701 2.9867000580 0.1251112074 83.045600891 191.63810730 218.34010315 2.4418351650 1.7213560343 0.3504967093 7266.1660156 7266.1660156 8016.3867188  -999.250000 3.6075775623 1.0000000000 0.3094696701 4.1208095551
 4985.3085938 4.1250000000 4.3383002281 64.027099609 96.078506470 12.728699684 0.0327971168 2.9691998959 0.1362355053 155.44529724 275.97409058 208.05369568 2.4250540733 1.9579759836 0.4795632064 7266.2294922 7266.2294922 8016.5986328  -999.250000 3.6561019421 1.0000000000 0.3000000119 4.1208114624
 4985.4614258 4.1250000000 4.3235998154 64.896850586 98.078956604 12.730600357 0.0348000005 3.0085000992 0.2271533012 411.90310669 335.24230957 192.00399780 2.4275999069 3.4114720821 0.8851181865 7266.2934570 7266.2934570 8016.8115234  -999.250000 3.7047817707 1.0000000000 0.3000000119 4.1208133698
 4985.6137695 4.1250000000 4.3031997681 65.286796570 99.282630920 12.293100357 0.0412000008 3.1440999508 0.4801951051 479.83300781 345.18341064 154.28550720 2.4242999554 6.2992200851 1.6331280470 7266.3569336 7266.3569336 8017.0239258  -999.250000 3.7533059120 1.0000000000 0.2899999917 4.1208152771
 4985.7661133 4.1250000000 4.3801999092 65.768699646 100.97239685 20.898099899 0.0544999987 3.7553999424 0.7645236850 202.89010620 270.18170166 139.16470337 2.4502999783 8.8211851120 2.6133270264 7266.4208984 7266.4208984 8017.2358398  -999.250000 3.8018302917 1.0000000000 0.2899999917 4.1208171844
 4985.9184570 4.1250000000 4.4516000748 68.991401672 104.90750122 41.032600403 0.0881000012 4.7118000984 1.0050879717 103.01899719 140.46459961 82.686698914 2.4934999943 10.556220055 3.3937289715 7266.4843750 7266.4843750 8017.4482422  -999.250000 3.8503546715 1.0000000000 0.2899999917 4.1208186150
 4986.0708008 4.1250000000 4.4960999489 71.776100159 111.59380341 93.180999756 0.1333000064 5.7129001617 1.1242159605 80.548698425 69.727798462 49.105701447 2.5538001060 11.360309601 3.8377189636 7266.5478516 7266.5478516 8017.6601563  -999.250000 3.8988788128 1.0000000000 0.2800000012 4.1208205223
 4986.2231445 4.1250000000 4.3894000053 72.180801392 115.07920074 133.20219421 0.1459999979 5.9359998703 1.0715990067 31.001199722 27.110900879 24.222099304 2.5814116001 11.754119873 3.4709620476 7266.6118164 7266.6118164 8017.8725586  -999.250000 3.9474031925 1.0000000000 0.2800000012 4.1208224297
 4986.3754883 4.1250000000 4.3850002289 69.491096497 113.87180328 153.41409302 0.1093175709 5.9345002174 0.8885933757 18.242099762 16.643699646 16.026100159 2.5936608315 9.7897844315 2.6529951096 7266.6752930 7266.6752930 8018.0844727  -999.250000 3.9959275723 1.0000000000 0.2800000012 4.1208243370
 4986.5278320 4.1250000000 4.3909001350 66.882301331 107.60030365 122.07420349 0.0742124990 4.8730001450 0.6005017161 23.108699799 20.616100311 29.463399887 2.5615034103 6.5263390541 1.7797050476 7266.7387695 7266.7387695 8018.2968750  -999.250000 4.0444517136 1.0000000000 0.2700000107 4.1208262444
