# LAS format log file from PETREL
# Project units are specified as depth units
#==================================================================
~Version information
VERS.   2.0:
WRAP.   NO:
#==================================================================
~Well
STRT .m      4859.1215820 :
STOP .m      5249.8750000 :
STEP .m     0.00000000 :
NULL .        -999.250000 :
COMP.           : COMPANY
WELL.  Proteus 1ST2   : WELL
FLD.            : FIELD
LOC.            : LOCATION
SRVC.           : SERVICE COMPANY
DATE.  2017-10-02 11:49:53   : Log Export Date {yyyy-MM-dd HH:mm:ss}
PROV.           : PROVINCE
UWI.   Proteus 1ST2   : UNIQUE WELL ID
API.            : API NUMBER
#==================================================================
~Curve
DEPT .m                   : DEPTH
BIT .in                   : BIT
CAL .in                   : CAL
DTC .us/ft                : DTC
DTS .us/ft                : DTS
GR .gAPI                  : GR
NPHI .m3/m3               : NPHI
PEF .b/e                  : PEF
POTA .%                   : POTA
RESD .ohm.m               : RESD
RESM .ohm.m               : RESM
RESS .ohm.m               : RESS
RHOB .g/cm3               : RHOB
THOR .ppm                 : THOR
URAN .ppm                 : URAN
FT_PRESS ._               : FT_PRESS
FT_PRESA ._               : FT_PRESA
FT_HYDB ._                : FT_HYDB
FT_TEMP ._                : FT_TEMP
FT_MOB ._                 : FT_MOB
FT_CODE ._                : FT_CODE
GS_GASA .%                : GS_GASA
Casing ._                 : Casing
~Parameter
#==================================================================
~Ascii
# ...
 5097.7797852 4.1250000000 4.5838999748 77.568397522  -999.250000 167.91819763 0.2908746600 6.2964000702 0.7761949897 6.2960000038 6.4208002090 6.3689999580 2.7579610348 14.248419762 1.5113660097  -999.250000  -999.250000  -999.250000  -999.250000  -999.250000 3.3774230480 0.2399999946 4.1221899986
 5097.9326172 4.1250000000 4.5795001984 77.548736572  -999.250000 158.87460327 0.2885000110 6.6215000153 0.9148383737 5.9692001343 6.1283998489 6.0679001808 2.7588999271 14.266300201 1.1302249432  -999.250000  -999.250000  -999.250000  -999.250000  -999.250000 3.3743417263 0.2399999946 4.1221919060
 5098.0849609 4.1250000000 4.5984997749 77.529296875  -999.250000 159.15510559 0.2874999940 7.1746997833 1.1814500093 5.7086000443 5.8885998726 5.9095001221 2.7644999027 16.341569901 1.0876280069  -999.250000  -999.250000  -999.250000  -999.250000  -999.250000 3.3712701797 0.2399999946 4.1221933365
 5098.2373047 4.1250000000 4.6072001457 77.548797607  -999.250000 161.25929260 0.2894000113 7.2084999084 1.5508749485 5.5528001785 5.7339000702 5.8182997704 2.7600998878 20.387439728 1.0713629723  -999.250000  -999.250000  -999.250000  -999.250000  -999.250000 3.3681988716 0.2399999946 4.1221952438
 5098.3896484 4.1250000000 4.5868000984 77.539100647  -999.250000 163.09620667 0.2958999872 6.9661002159 2.1400001049 5.4826002121 5.6621999741 5.7546000481 2.7585000992 26.186700821 0.8216000199  -999.250000  -999.250000  -999.250000  -999.250000  -999.250000 3.3651273251 0.2500000000 4.1221971512
 5098.5419922 4.1250000000 4.5897002220 77.500000000  -999.250000 167.66160583 0.3012000024 6.5254001617 2.2608520985 5.4001998901 5.5774998665 5.6852002144 2.7516999245 27.307029724 0.5239915252  -999.250000  -999.250000  -999.250000  -999.250000  -999.250000 3.3620557785 0.2500000000 4.1221990585
 5098.6943359 4.1250000000 4.5838999748 77.363296509  -999.250000 162.49090576 0.3012999892 6.3745999336 2.2496740818 5.4159998894 5.5529999733 5.6579999924 2.7549896240 26.031999588 0.3855619133  -999.250000  -999.250000  -999.250000  -999.250000  -999.250000 3.3589844704 0.2549789846 4.1222009659
 5098.8466797 4.1250000000 4.5904002190 77.304702759  -999.250000 165.08380127 0.2951198220 6.3864998817 2.1398570538 5.4930000305 5.5942997932 5.7203998566 2.7600834370 24.039180756 0.2612713873  -999.250000  -999.250000  -999.250000  -999.250000  -999.250000 3.3559129238 0.2689605355 4.1222028732
 5098.9990234 4.1250000000 4.5838999748 77.285202026  -999.250000 160.67790222 0.2933057845 6.6153001785 2.1336450577 5.5613999367 5.6217999458 5.7536997795 2.7580065727 23.790010452 0.0680861473  -999.250000  -999.250000  -999.250000  -999.250000  -999.250000 3.3528416157 0.2758482695 4.1222047806
 5099.1513672 4.1250000000 4.5795001984 77.285202026  -999.250000 161.11599731 0.2984833419 6.8350000381 2.2601768970 5.5906000137 5.6665000916 5.8027000427 2.7542121410 25.263120651 0.0061535449  -999.250000  -999.250000  -999.250000  -999.250000  -999.250000 3.3497700691 0.2800000012 4.1222066879
 5099.3041992 4.1250000000 4.5780000687 77.412223816  -999.250000 161.80870056 0.3140000105 6.7252998352 2.4358038902 5.6711001396 5.7462000847 5.8649001122 2.7572000027 27.047569275 0.1373274028  -999.250000  -999.250000  -999.250000  -999.250000  -999.250000 3.3466887474 0.2899999917 4.1222085953
 5099.4565430 4.1250000000 4.6013998985 77.451202393  -999.250000 163.22459412 0.3122999966 6.4755001068 2.4586730003 5.7382998466 5.8077001572 5.9105000496 2.7630999088 27.455589294 0.4898597896  -999.250000  -999.250000  -999.250000  -999.250000  -999.250000 3.3436174393 0.2800000012 4.1222105026
 5099.6088867 4.1250000000 4.5795001984 77.490196228  -999.250000 176.27980042 0.3125000000 6.5873999596 2.3490500450 5.7425999641 5.8182001114 5.9278998375 2.7616000175 26.478639603 0.9298242927  -999.250000  -999.250000  -999.250000  -999.250000  -999.250000 3.3405458927 0.2899999917 4.1222124100
 5099.7612305 4.1250000000 4.5780000687 77.500000000  -999.250000 178.47019958 0.2994000018 6.9390997887 2.2948238850 5.7564001083 5.8257999420 5.9356999397 2.7592999935 25.213640213 1.2928169966  -999.250000  -999.250000  -999.250000  -999.250000  -999.250000 3.3374745846 0.2700000107 4.1222143173
 5099.9135742 4.1250000000 4.5868000984 77.558601379  -999.250000 177.28619385 0.3054000139 7.4412999153 2.2899999619 5.8154997826 5.8954000473 6.0030999184 2.7577049732 24.517299652 1.3614989519  -999.250000  -999.250000  -999.250000  -999.250000  -999.250000 3.3344030380 0.2599999905 4.1222157478
 5100.0659180 4.1250000000 4.5795001984 77.607398987  -999.250000 161.84249878 0.3032070398 7.2859997749 2.3456308842 5.9373998642 6.0296998024 6.1191000938 2.7407546043 24.113840103 1.1955460310  -999.250000  -999.250000  -999.250000  -999.250000  -999.250000 3.3313317299 0.3300000131 4.1222176552
 5100.2182617 4.1250000000 4.5780000687 77.597702026  -999.250000 161.08560181 0.3037980497 7.0454001427 2.3497719765 5.9000000954 5.9721999168 6.0858998299 2.7361147404 22.746200562 1.3251769543  -999.250000  -999.250000  -999.250000  -999.250000  -999.250000 3.3282601833 0.3400000036 4.1222195625
 5100.3706055 4.1250000000 4.5838999748 77.597702026  -999.250000 164.19869995 0.2933336496 7.1507000923 2.3299999237 5.8227000237 5.8860998154 5.9984002113 2.7185564041 21.393520355 1.4975550175  -999.250000  -999.250000  -999.250000  -999.250000  -999.250000 3.3251888752 0.3499999940 4.1222214699
 5100.5234375 4.1250000000 4.5868000984 77.538879395  -999.250000 162.04020691 0.2991000116 7.3889999390 2.3443830013 5.8590002060 5.9176998138 6.0268998146 2.7176001072 21.684440613 1.7654249668  -999.250000  -999.250000  -999.250000  -999.250000  -999.250000 3.3221075535 0.4290068746 4.1222233772
 5100.6757813 4.1250000000 4.5750999451 77.470695496  -999.250000 160.35389709 0.3009999990 7.8282999992 2.4126400948 5.9182000160 5.9773998260 6.0925002098 2.7323999405 22.354110718 1.8396480083  -999.250000  -999.250000  -999.250000  -999.250000  -999.250000 3.3190360069 0.4820594490 4.1222252846
 5100.8281250 4.1250000000 4.5795001984 77.470695496  -999.250000 157.72869873 0.3080999851 7.9088001251 2.4060730934 5.9502000809 6.0055999756 6.1100997925 2.7367999554 22.810319901 1.8550870419  -999.250000  -999.250000  -999.250000  -999.250000  -999.250000 3.3159646988 0.5372600555 4.1222271919
 5100.9804688 4.1250000000 4.5780000687 77.490196228  -999.250000 165.59170532 0.3028999865 7.9430999756 2.3497331142 6.0808000565 6.1384000778 6.1669998169 2.7337000370 22.893980026 1.7322280407  -999.250000  -999.250000  -999.250000  -999.250000  -999.250000 3.3128931522 0.5650376081 4.1222290993
 5101.1328125 4.1250000000 4.5750999451 77.500000000  -999.250000 168.25399780 0.2804999948 7.6364998817 2.3048338890 6.2899999619 6.3741002083 6.3942999840 2.7479000092 22.526090622 1.5179150105  -999.250000  -999.250000  -999.250000  -999.250000  -999.250000 3.3098216057 0.5799999833 4.1222310066
 5101.2851563 4.1250000000 4.5685000420 77.539100647  -999.250000 166.86199951 0.2696000040 6.8450999260 2.2699611187 6.7635998726 6.8538999557 6.8270998001 2.7599613667 21.747510910 1.4236940145  -999.250000  -999.250000  -999.250000  -999.250000  -999.250000 3.3067502975 0.5520143509 4.1222329140
 5101.4375000 4.1250000000 4.5868000984 77.529296875  -999.250000 162.68809509 0.2608281076 7.1700000763 2.2157509327 6.7273998260 6.7905001640 6.8959999084 2.7640869617 20.979429245 1.5649659634  -999.250000  -999.250000  -999.250000  -999.250000  -999.250000 3.3036787510 0.4731021523 4.1222348213
 5101.5898438 4.1250000000 4.5940999985 77.363296509  -999.250000 159.09829712 0.2568128109 7.1838002205 2.2461509705 5.8811998367 5.8882999420 5.9731001854 2.7461576462 21.460020065 1.8523579836  -999.250000  -999.250000  -999.250000  -999.250000  -999.250000 3.3006074429 0.4000732303 4.1222367287
 5101.7421875 4.1250000000 4.5984997749 77.490196228  -999.250000 166.28990173 0.2628804445 7.5777997971 2.2770678997 5.4970998764 5.5058999062 5.5636000633 2.7282574177 23.569770813 1.9267380238  -999.250000  -999.250000  -999.250000  -999.250000  -999.250000 3.2975358963 0.3700000048 4.1222381592
