# LAS format log file from PETREL
# Project units are specified as depth units
#==================================================================
~Version information
VERS.   2.0:
WRAP.   NO:
#==================================================================
~Well
STRT .m      3460.8515625 :
STOP .m      4681.4233398 :
STEP .m     0.00000000 :
NULL .        -999.250000 :
COMP.           : COMPANY
WELL.  Torosa 1   : WELL
FLD.            : FIELD
LOC.            : LOCATION
SRVC.           : SERVICE COMPANY
DATE.  2017-10-02 11:49:47   : Log Export Date {yyyy-MM-dd HH:mm:ss}
PROV.           : PROVINCE
UWI.   Torosa 1   : UNIQUE WELL ID
API.            : API NUMBER
#==================================================================
~Curve
DEPT .m                   : DEPTH
BIT .in                   : BIT
CAL .in                   : CAL
DRHO .g/cm3               : DRHO
DTC .us/ft                : DTC
GR .gAPI                  : GR
NET .m                    : NET
NPHI .m3/m3               : NPHI
PEF .b/e                  : PEF
POTA .%                   : POTA
RESD .ohm.m               : RESD
RESM .ohm.m               : RESM
RESS .ohm.m               : RESS
RHOB .g/cm3               : RHOB
ROP .m/h                  : ROP
SP .mV                    : SP
THOR .ppm                 : THOR
URAN .ppm                 : URAN
WOB .kN                   : WOB
RFT .bar                  : RFT
Mobility .mD/cP           : Mobility
IC4 .%                    : IC4
NC5 .%                    : NC5
TGAS .%                   : TGAS
NC4 .%                    : NC4
C1 .%                     : C1
C3 .%                     : C3
IC5 .%                    : IC5
RCA ._                    : RCA
~Parameter
#==================================================================
~Ascii
# ...
 4527.0419922 8.5000000000 8.6814422607 0.0478079915 51.559700012 50.242168427 0.0000000000 0.0366370901 5.4987201691  -999.250000 329.22799683 214.78320313 8.9717502594 2.7448890209 38.109836578 -343.9342041  -999.250000  -999.250000 25.775587082  -999.250000  -999.250000 0.0000000000 0.0000000000 34.874023438 0.0000000000 0.0419921875 0.0000000000 0.0000000000  -999.250000
 4527.1943359 8.5000000000 8.5715990067 0.0272893906 52.166500092 51.439910889 0.0000000000 0.0333188586 5.2961959839  -999.250000 462.13610840 274.75009155 8.6465444565 2.7170219421 38.179813385 -343.1264954  -999.250000  -999.250000 26.049804688  -999.250000  -999.250000 0.0000000000 0.0000000000 34.416992188 0.0000000000 0.1943359375 0.0000000000 0.0000000000  -999.250000
 4527.3466797 8.5000000000 8.5600852966 0.0224478301 52.190196991 53.790111542 0.0000000000 0.0311718602 5.1808848381  -999.250000 424.64968872 235.72970581 8.4769029617 2.7248458862 38.249786377 -342.5628967  -999.250000  -999.250000 26.324024200  -999.250000  -999.250000 0.0000000000 0.0000000000 33.959960938 0.0000000000 0.3466796875 0.0000000000 0.0000000000  -999.250000
 4527.4990234 8.5000000000 8.5859355927 0.0302111506 52.620998383 56.002368927 0.0000000000 0.0297130402 5.1167998314  -999.250000 358.63589478 199.53709412 8.6926546097 2.7146110535 38.319759369 -342.0504150  -999.250000  -999.250000 26.598241806  -999.250000  -999.250000 0.0000000000 0.0000000000 33.502929688 0.0000000000 0.4990234375 0.0000000000 0.0000000000  -999.250000
 4527.6513672 8.5000000000 8.6861991882 0.0429288894 52.882999420 59.042980194 0.0000000000 0.0305185392 5.3345050812  -999.250000 343.32638550 218.48699951 9.5041494370 2.7232739925 38.389736176 -339.5351868  -999.250000  -999.250000 26.872461319  -999.250000  -999.250000 0.0000000000 0.0000000000 33.045898438 0.0000000000 0.6513671875 0.0000000000 0.0000000000  -999.250000
 4527.8041992 8.5000000000 8.6476459503 0.0537712798 53.650699615 64.710250854 0.0000000000 0.0311561693 5.4063959122  -999.250000 244.03089905 168.08450317 9.0450601578 2.7297759056 38.459934235 -342.9194946  -999.250000  -999.250000 27.147558212  -999.250000  -999.250000 0.0000000000 0.0000000000 32.587402344 0.0000000000 0.8041992188 0.0000000000 0.0000000000  -999.250000
 4527.9565430 8.5000000000 8.5868606567 0.0689250305 53.722000122 67.281692505 0.0000000000 0.0318779089 5.5630779266  -999.250000 102.60199738 83.432113647 9.1275148392 2.6656088829 38.529907227 -343.3106995  -999.250000  -999.250000 27.421777725  -999.250000  -999.250000 0.0000000000 0.0000000000 32.130371094 0.0000000000 0.9565429688 0.0000000000 0.0000000000  -999.250000
 4528.1088867 8.5000000000 8.6535596848 0.0784123912 54.360500336 68.642356873 0.0000000000 0.0345322490 6.0057210922  -999.250000 166.91079712 141.43159485 9.6858396530 2.6181390285 38.967842102 -343.3676147  -999.250000  -999.250000 27.064453125  -999.250000  -999.250000 0.0000000000 0.0000000000 31.673339844 0.0000000000 1.0000000000 0.0000000000 0.0000000000  -999.250000
 4528.2612305 8.5000000000 8.5833768845 0.0713960230 54.195499420 67.181396484 0.0000000000 0.0394946709 5.7910919189  -999.250000 134.82789612 117.47989655 8.7902002335 2.7022209167 39.552623749 -342.1812134  -999.250000  -999.250000 26.455078125  -999.250000  -999.250000 0.0000000000 0.0000000000 31.216308594 0.0000000000 1.0000000000 0.0000000000 0.0000000000  -999.250000
 4528.4135742 8.5000000000 8.6704578400 0.0501186512 55.021598816 66.657173157 0.0000000000 0.0437440909 5.6260452271  -999.250000 98.086212158 91.385093689 8.8607034683 2.7310609818 40.137409210 -339.9455872  -999.250000  -999.250000 25.845703125  -999.250000  -999.250000 0.0000000000 0.0000000000 30.759277344 0.0000000000 1.0000000000 0.0000000000 0.0000000000  -999.250000
 4528.5659180 8.5000000000 8.5820541382 0.0345566012 55.678001404 68.280113220 0.0000000000 0.0469520614 5.4245738983  -999.250000 73.122802734 72.724876404 8.2276878357 2.7430679798 40.722194672 -339.0694885  -999.250000  -999.250000 25.236328125  -999.250000  -999.250000 0.0000000000 0.0000000000 30.302244186 0.0000000000 1.0000000000 0.0000000000 0.0000000000  -999.250000
 4528.7182617 8.5000000000 8.5801544189 0.0244189203 56.822101593 68.114852905 0.0000000000 0.0525286384 5.2718992233  -999.250000 67.104766846 68.751762390 8.2247200012 2.7129518986 41.306976318 -339.3731995  -999.250000  -999.250000 24.626953125  -999.250000  -999.250000 0.0000000000 0.0000000000 29.845212936 0.0000000000 1.0000000000 0.0000000000 0.0000000000  -999.250000
 4528.8706055 8.5000000000 8.6305341721 0.0233825799 57.443801880 67.811996460 0.0000000000 0.0619061403 5.1904749870  -999.250000 65.863037109 66.872673035 7.1898498535 2.7097229958 41.891761780 -339.3808899  -999.250000  -999.250000 24.017578125  -999.250000  -999.250000 0.0000000000 0.0000000000 29.388181686 0.0000000000 1.0000000000 0.0000000000 0.0000000000  -999.250000
 4529.0234375 8.5000000000 8.6026525497 0.0191124193 58.506801605 66.529739380 0.0000000000 0.0704271272 5.2017970085  -999.250000 58.613250732 60.214321136 6.6703500748 2.6902170181 42.409214020 -340.3735046  -999.250000  -999.250000 23.598438263  -999.250000  -999.250000 0.0234375000 0.0000000000 29.304685593 0.0000000000 1.0234375000 0.0234375000 0.0000000000  -999.250000
 4529.1757813 8.5000000000 8.6079044342 0.0225630403 57.815196991 66.485946655 0.0000000000 0.0751459226 4.9573712349  -999.250000 52.549579620 54.436519623 6.8952260017 2.6889820099 42.544166565 -341.1239014  -999.250000  -999.250000 24.238281250  -999.250000  -999.250000 0.1757812500 0.0000000000 31.285154343 0.0000000000 1.1757812500 0.1757812500 0.0000000000  -999.250000
 4529.3281250 8.5000000000 8.6602659225 0.0190552305 58.061100006 66.592910767 0.0000000000 0.0819900706 5.1890530586  -999.250000 43.357078552 45.458721161 6.9294180870 2.6760649681 42.679115295 -341.6813049  -999.250000  -999.250000 24.878126144  -999.250000  -999.250000 0.3281250000 0.0000000000 33.265625000 0.0000000000 1.3281250000 0.3281250000 0.0000000000  -999.250000
 4529.4804688 8.5000000000 8.5568647385 0.0319940597 57.849601746 67.357009888 0.0000000000 0.0865078419 4.7640972137  -999.250000 27.621250153 30.617109299 6.7458882332 2.7130908966 42.814064026 -341.1878967  -999.250000  -999.250000 25.517969131  -999.250000  -999.250000 0.4804687500 0.0000000000 35.246093750 0.0000000000 1.4804687500 0.4804687500 0.0000000000  -999.250000
 4529.6328125 8.5000000000 8.5568647385 0.0573554412 56.628200531 65.990142822 0.0000000000 0.0914422721 5.0808181763  -999.250000 35.105499268 37.958679199 7.6702470779 2.7319009304 42.949012756 -340.7503967  -999.250000  -999.250000 26.157812119  -999.250000  -999.250000 0.6328125000 0.0000000000 37.226562500 0.0000000000 1.6328125000 0.6328125000 0.0000000000  -999.250000
 4529.7851563 8.5000000000 8.5864639282 0.1042111963 55.511600494 63.118560791 0.0000000000 0.0912000090 5.7382931709  -999.250000 42.056049347 45.024761200 8.0483255386 2.6209230423 43.083961487 -340.3760986  -999.250000  -999.250000 26.797657013  -999.250000  -999.250000 0.7851562500 0.0000000000 39.207031250 0.0000000000 1.7851562500 0.7851562500 0.0000000000  -999.250000
 4529.9375000 8.5000000000 8.8261709213 0.1495968997 53.607997894 58.642078400 0.0000000000 0.0785492882 6.6710982323  -999.250000 46.986900330 47.294528961 8.1052341461 2.6310119629 43.218914032 -340.1849060  -999.250000  -999.250000 27.437500000  -999.250000  -999.250000 0.9375000000 0.0000000000 41.187500000 0.0000000000 1.9375000000 0.9375000000 0.0000000000  -999.250000
 4530.0898438 8.5000000000 8.9548444748 0.1745858938 52.714298248 54.493919373 0.0000000000 0.0603457391 6.8673157692  -999.250000 108.19960022 99.393753052 9.7877254486 2.6705091000 42.752548218 -339.5657959  -999.250000  -999.250000 27.529296875  -999.250000  -999.250000 0.9101562500 0.0000000000 41.640625000 0.0000000000 2.0898437500 1.0898437500 0.0000000000  -999.250000
 4530.2421875 8.5000000000 9.0458898544 0.1741341949 51.861499786 48.750209808 0.0000000000 0.0489183292 6.8535947800  -999.250000 216.23089600 170.81059265 10.384719849 2.6981110573 41.867874146 -339.4971008  -999.250000  -999.250000 27.239843369  -999.250000  -999.250000 0.7578125000 0.0000000000 41.031250000 0.0000000000 2.2421875000 1.2421875000 0.0000000000  -999.250000
