# LAS format log file from PETREL
# Project units are specified as depth units
#==================================================================
~Version information
VERS.   2.0:
WRAP.   NO:
#==================================================================
~Well
STRT .m      3460.8515625 :
STOP .m      4681.4233398 :
STEP .m     0.00000000 :
NULL .        -999.250000 :
COMP.           : COMPANY
WELL.  Torosa 1   : WELL
FLD.            : FIELD
LOC.            : LOCATION
SRVC.           : SERVICE COMPANY
DATE.  2017-10-02 11:49:47   : Log Export Date {yyyy-MM-dd HH:mm:ss}
PROV.           : PROVINCE
UWI.   Torosa 1   : UNIQUE WELL ID
API.            : API NUMBER
#==================================================================
~Curve
DEPT .m                   : DEPTH
BIT .in                   : BIT
CAL .in                   : CAL
DRHO .g/cm3               : DRHO
DTC .us/ft                : DTC
GR .gAPI                  : GR
NET .m                    : NET
NPHI .m3/m3               : NPHI
PEF .b/e                  : PEF
POTA .%                   : POTA
RESD .ohm.m               : RESD
RESM .ohm.m               : RESM
RESS .ohm.m               : RESS
RHOB .g/cm3               : RHOB
ROP .m/h                  : ROP
SP .mV                    : SP
THOR .ppm                 : THOR
URAN .ppm                 : URAN
WOB .kN                   : WOB
RFT .bar                  : RFT
Mobility .mD/cP           : Mobility
IC4 .%                    : IC4
NC5 .%                    : NC5
TGAS .%                   : TGAS
NC4 .%                    : NC4
C1 .%                     : C1
C3 .%                     : C3
IC5 .%                    : IC5
RCA ._                    : RCA
~Parameter
#==================================================================
~Ascii
# ...
 4299.0517578 8.5000000000 8.3311004639 -0.030370560 77.669403076 43.650489807 1.0000000000 0.0930790082 3.1270329952  -999.250000 52.665779114 21.128189087 3.1085939407 2.3214409351 140.82630920 -311.5047913  -999.250000  -999.250000 22.958593369 6569.5727539 311.45550537 137.60253906 0.0000000000 25126.980469 109.91308594 2663.4465332 678.21972656 0.0000000000  -999.250000
 4299.2041016 8.5000000000 8.3134098053 -0.026151150 78.150001526 43.231781006 1.0000000000 0.1004860029 3.1771419048  -999.250000 39.495620728 17.472719193 2.8951148987 2.2813830376 134.10379028 -311.8702087  -999.250000  -999.250000 22.836719513 6569.6279297 327.69564819 133.48925781 0.0000000000 24488.203125 106.71386719 2576.4582520 658.26269531 0.0000000000  -999.250000
 4299.3564453 8.5000000000 8.3167619705 -0.020860000 79.026092529 45.525569916 1.0000000000 0.1134475991 3.1994390488  -999.250000 42.339881897 17.048940659 3.3040280342 2.3026769161 127.38127136 -311.4346008  -999.250000  -999.250000 22.714843750 6569.6831055 343.93579102 129.37597656 0.0000000000 23849.425781 103.51464844 2489.4699707 638.30566406 0.0000000000  -999.250000
 4299.5087891 8.5000000000 8.3168945313 -0.018252950 79.026901245 48.353698730 1.0000000000 0.1225391999 3.1966080666  -999.250000 43.207660675 16.762960434 3.7369220257 2.2953319550 120.65875244 -310.5039978  -999.250000  -999.250000 22.592969894 6569.7377930 360.17593384 125.26268768 0.0000000000 23210.648438 100.31542206 2402.4814453 618.34857178 0.0000000000  -999.250000
 4299.6611328 8.5000000000 8.3036146164 -0.014756220 78.972900391 53.262119293 1.0000000000 0.1260643005 3.3000619411  -999.250000 32.503028870 13.260849953 3.4017720222 2.2955939770 113.93623352 -310.2536926  -999.250000  -999.250000 22.471094131 6569.7929688 376.41607666 121.14940643 0.0000000000 22571.871094 97.116203308 2315.4931641 598.39154053 0.0000000000  -999.250000
 4299.8134766 8.5000000000 8.3164978027 -0.013866920 79.033409119 59.540409088 1.0000000000 0.1306159049 3.4252700806  -999.250000 32.262908936 14.384449959 3.6719961166 2.3334410191 107.21371460 -310.6217041  -999.250000  -999.250000 22.349220276 6569.8476563 392.65621948 117.03612518 0.0000000000 21933.093750 93.916984558 2228.5048828 578.43450928 0.0000000000  -999.250000
 4299.9658203 8.5000000000 8.3308362961 -0.016497189 79.056701660 67.400299072 1.0000000000 0.1374571025 3.4901180267  -999.250000 27.011999130 13.324290276 3.4748671055 2.2703309059 100.49119568 -310.4258118  -999.250000  -999.250000 22.227344513 6569.9028320 408.89639282 112.92284393 0.0000000000 21294.316406 90.717765808 2141.5166016 558.47747803 0.0000000000  -999.250000
 4300.1181641 8.5000000000 8.3032178879 -0.015914610 79.107803345 73.490638733 0.0000000000 0.1514008045 3.3398311138  -999.250000 22.003490448 11.137129784 3.0127050877 2.2591979504 104.20495605 -308.2658081  -999.250000  -999.250000 21.585548401 6569.9575195 425.13653564 107.50975800 0.0000000000 20162.794922 86.573234558 2025.9326172 531.90325928 0.0000000000  -999.250000
 4300.2709961 8.5000000000 8.3332633972 -0.013885780 79.134498596 78.690711975 0.0000000000 0.1543446034 3.4060690403  -999.250000 33.874858856 15.964039803 3.8441340923 2.4549379349 110.95904541 -308.7459106  -999.250000  -999.250000 20.790821075 6570.0126953 441.42871094 101.70214081 0.0000000000 18884.660156 82.141105652 1901.6801758 503.32369995 0.0000000000  -999.250000
 4300.4233398 8.5000000000 8.3249216080 -0.007085580 79.389495850 77.296791077 0.0000000000 0.1489782035 3.2996449471  -999.250000 76.643463135 29.545289993 5.7970561981 2.4871149063 117.69156647 -308.5690918  -999.250000  -999.250000 19.998632431 6570.0678711 457.66888428 95.913078308 0.0000000000 17610.609375 77.723136902 1777.8247070 474.83541870 0.0000000000  -999.250000
 4300.5756836 8.5000000000 8.3091316223 -0.012483300 79.440795898 69.742126465 1.0000000000 0.1441462934 3.3002429008  -999.250000 99.100852966 29.273460388 6.2547011375 2.3496029377 124.42407990 -309.5050964  -999.250000  -999.250000 19.206445694 6570.1225586 473.90902710 90.124023438 0.0000000000 16336.558594 73.305175781 1653.9692383 446.34713745 0.0000000000  -999.250000
 4300.7280273 8.5000000000 8.3337917328 -0.018578840 80.192596436 58.532051086 1.0000000000 0.1309029013 3.2147469521  -999.250000 87.353683472 23.774049759 5.8965301514 2.2503550053 131.15658569 -311.3028870  -999.250000  -999.250000 18.414258957 6570.1777344 490.14916992 84.334960938 0.0000000000 15062.507813 68.887207031 1530.1137695 417.85885620 0.0000000000  -999.250000
 4300.8803711 8.5000000000 8.3026895523 -0.020852000 79.720191956 53.013420105 1.0000000000 0.1253194958 3.0885200500  -999.250000 61.217720032 17.559190750 4.8247838020 2.2373189926 137.88911438 -311.4974060  -999.250000  -999.250000 17.622070313 6570.2324219 506.38931274 78.545898438 0.0000000000 13788.457031 64.469238281 1406.2583008 389.37060547 0.0000000000  -999.250000
 4301.0327148 8.5000000000 8.3304395676 -0.015947880 79.329093933 53.495399475 1.0000000000 0.1255263984 3.1594510078  -999.250000 62.601280212 19.255300522 4.7533659935 2.2541170120 140.91329956 -311.2536926  -999.250000  -999.250000 16.846240997 6570.2875977 522.62945557 72.266113281 0.0000000000 12525.529297 59.625976563 1276.8740234 358.49414063 0.0000000000  -999.250000
 4301.1850586 8.5000000000 8.3225440979 -0.012227590 79.207099915 54.741649628 1.0000000000 0.1276870966 3.1913590431  -999.250000 144.87680054 39.691970825 6.9480237961 2.3217298985 130.37718201 -311.6304932  -999.250000  -999.250000 16.130224228 6570.3427734 538.86962891 64.191894531 0.0000000000 11303.275391 53.227539063 1127.2724609 318.88476563 0.0000000000  -999.250000
 4301.3374023 8.5000000000 8.3172912598 -0.015288030 78.658599854 52.823921204 1.0000000000 0.1154381037 3.0791668892  -999.250000 188.74830627 43.489269257 6.7888331413 2.2079060078 119.84107208 -312.9346008  -999.250000  -999.250000 15.414209366 6570.3974609 555.10974121 56.117675781 0.0000000000 10081.021484 46.829101563 977.67089844 279.27539063 0.0000000000  -999.250000
 4301.4902344 8.5000000000 8.3136749268 -0.017600831 78.391197205 49.187301636 1.0000000000 0.0999970064 2.9901480675  -999.250000 203.58450317 39.961818695 6.0659899712 2.1984660625 109.27119446 -313.7456055  -999.250000  -999.250000 14.695898056 6570.4526367 571.40197754 48.017578125 0.0000000000 8854.8505859 40.410156250 827.58984375 239.53906250 0.0000000000  -999.250000
 4301.6425781 8.5000000000 8.3233366013 -0.019452140 78.357299805 45.305118561 1.0000000000 0.0947652310 3.0169889927  -999.250000 209.32589722 36.515911102 5.7175450325 2.1887469292 98.735084534 -313.8161926  -999.250000  -999.250000 13.979883194 6570.5078125 587.64208984 39.943359375 0.0000000000 7632.5961914 34.011718750 677.98828125 199.92968750 0.0000000000  -999.250000
 4301.7949219 8.5000000000 8.3126173019 -0.018603530 78.324897766 44.003860474 1.0000000000 0.0988922715 3.0608420372  -999.250000 177.54479980 28.691940308 5.1284952164 2.2121009827 88.198974609 -314.4971008  -999.250000  -999.250000 13.263867378 6570.5625000 603.88226318 31.869140625 0.0000000000 6410.3417969 27.613283157 528.38671875 160.32031250 0.0000000000  -999.250000
 4301.9472656 8.5000000000 8.3233366013 -0.018122930 78.124603271 43.136451721 1.0000000000 0.1048472971 3.0718660355  -999.250000 132.69599915 22.134000778 4.5063939095 2.2157280445 77.662864685 -314.6882019  -999.250000  -999.250000 12.547851563 6570.6176758 620.12237549 23.794921875 0.0000000000 5188.0878906 21.214845657 378.78512573 120.71094513 0.0000000000  -999.250000
 4302.0996094 8.5000000000 8.3092641830 -0.016738420 78.162406921 44.781478882 1.0000000000 0.1101099998 3.1190199852  -999.250000 124.97810364 22.235769272 4.7434802055 2.2219500542 67.071197510 -314.9974060  -999.250000  -999.250000 11.393554688 6570.6752930 617.33618164 17.812500000 0.0000000000 4216.7500000 19.796876907 294.32809448 99.429695129 0.0000000000  -999.250000
 4302.2519531 8.5000000000 8.3029537201 -0.014298750 77.911598206 46.716430664 1.0000000000 0.1066906005 3.0846381187  -999.250000 162.95080566 27.441289902 5.5350332260 2.2073071003 56.450115204 -314.8768005  -999.250000  -999.250000 10.007226944 6570.7348633 601.22985840 13.000000000 0.0000000000 3387.1093750 20.992187500 244.90625000 87.976562500 0.0000000000 1.0000000000
