# LAS format log file from PETREL
# Project units are specified as depth units
#==================================================================
~Version information
VERS.   2.0:
WRAP.   NO:
#==================================================================
~Well
STRT .m      3460.8515625 :
STOP .m      4681.4233398 :
STEP .m     0.00000000 :
NULL .        -999.250000 :
COMP.           : COMPANY
WELL.  Torosa 1   : WELL
FLD.            : FIELD
LOC.            : LOCATION
SRVC.           : SERVICE COMPANY
DATE.  2017-10-02 11:49:47   : Log Export Date {yyyy-MM-dd HH:mm:ss}
PROV.           : PROVINCE
UWI.   Torosa 1   : UNIQUE WELL ID
API.            : API NUMBER
#==================================================================
~Curve
DEPT .m                   : DEPTH
BIT .in                   : BIT
CAL .in                   : CAL
DRHO .g/cm3               : DRHO
DTC .us/ft                : DTC
GR .gAPI                  : GR
NET .m                    : NET
NPHI .m3/m3               : NPHI
PEF .b/e                  : PEF
POTA .%                   : POTA
RESD .ohm.m               : RESD
RESM .ohm.m               : RESM
RESS .ohm.m               : RESS
RHOB .g/cm3               : RHOB
ROP .m/h                  : ROP
SP .mV                    : SP
THOR .ppm                 : THOR
URAN .ppm                 : URAN
WOB .kN                   : WOB
RFT .bar                  : RFT
Mobility .mD/cP           : Mobility
IC4 .%                    : IC4
NC5 .%                    : NC5
TGAS .%                   : TGAS
NC4 .%                    : NC4
C1 .%                     : C1
C3 .%                     : C3
IC5 .%                    : IC5
RCA ._                    : RCA
~Parameter
#==================================================================
~Ascii
# ...
 3615.0803223 8.5000000000 8.6160650253 -0.006031956 88.276100159 64.164726257 0.0000000000 0.2222373933 4.0055050850  -999.250000 1.4588390589 1.5953040123 1.4790029526 2.5146319866 59.490180969 -337.3721008  -999.250000  -999.250000 17.244581223  -999.250000  -999.250000 0.0000000000 0.0000000000 0.0000000000 0.0000000000 0.0000000000 0.0000000000 0.0000000000  -999.250000
 3615.2329102 8.5000000000 8.6286354065 -0.005384054 89.272697449 64.293922424 0.0000000000 0.2237834036 3.8909940720  -999.250000 1.3530390263 1.4810880423 1.3890860081 2.5137488842 57.948280334 -336.8808899  -999.250000  -999.250000 17.519239426  -999.250000  -999.250000 0.0000000000 0.0000000000 0.0000000000 0.0000000000 0.0000000000 0.0000000000 0.0000000000  -999.250000
 3615.3852539 8.5000000000 8.6457967758 -0.002320983 89.810997009 59.623168945 0.0000000000 0.2291923016 3.9641919136  -999.250000 1.4759800434 1.6176329851 1.5045000315 2.5560588837 56.408851624 -337.3721008  -999.250000  -999.250000 17.793457031  -999.250000  -999.250000 0.0000000000 0.0000000000 0.0000000000 0.0000000000 0.0000000000 0.0000000000 0.0000000000  -999.250000
 3615.5375977 8.5000000000 8.6690864563 0.0014359282 90.721702576 58.486370087 0.0000000000 0.2338050008 3.8842821121  -999.250000 1.5330469608 1.6852699518 1.5495419502 2.5435810089 54.869419098 -337.3789978  -999.250000  -999.250000 18.067676544  -999.250000  -999.250000 0.0000000000 0.0000000000 0.0000000000 0.0000000000 0.0000000000 0.0000000000 0.0000000000  -999.250000
 3615.6899414 8.5000000000 8.6733655930 0.0023248200 90.561004639 60.252239227 0.0000000000 0.2345726043 3.8820159435  -999.250000 1.2439609766 1.3631550074 1.2840889692 2.5279879570 53.329990387 -338.0585022  -999.250000  -999.250000 18.341894150  -999.250000  -999.250000 0.0000000000 0.0000000000 0.0000000000 0.0000000000 0.0000000000 0.0000000000 0.0000000000  -999.250000
 3615.8422852 8.5000000000 8.6622486115 0.0005020779 89.465301514 63.317668915 0.0000000000 0.2396111041 3.7685840130  -999.250000 1.2596429586 1.3823399544 1.3142379522 2.5085759163 51.790557861 -338.0599060  -999.250000  -999.250000 18.616113663  -999.250000  -999.250000 0.0000000000 0.0000000000 0.0000000000 0.0000000000 0.0000000000 0.0000000000 0.0000000000  -999.250000
 3615.9948730 8.5000000000 8.6613235474 -0.001150128 86.890098572 63.732410431 0.0000000000 0.2590523064 3.7788119316  -999.250000 1.4454489946 1.5992109776 1.4977060556 2.5443971157 50.248661041 -337.6271973  -999.250000  -999.250000 18.890771866  -999.250000  -999.250000 0.0000000000 0.0000000000 0.0000000000 0.0000000000 0.0000000000 0.0000000000 0.0000000000  -999.250000
 3616.1472168 8.5000000000 8.6615877151 -0.002123509 86.537399292 62.957191467 0.0000000000 0.2483604997 3.7508039474  -999.250000 1.2876709700 1.4212499857 1.3550529480 2.5285620689 49.448211670 -337.5635986  -999.250000  -999.250000 19.076660156  -999.250000  -999.250000 0.0000000000 0.0000000000 0.0000000000 0.0000000000 0.0000000000 0.0000000000 0.0000000000  -999.250000
 3616.2995605 8.5000000000 8.6751317978 -0.002939376 86.914794922 62.879558563 0.0000000000 0.2541230023 3.6776480675  -999.250000 1.1121829748 1.2259390354 1.1743719578 2.5112719536 48.673496246 -337.6885986  -999.250000  -999.250000 19.259471893  -999.250000  -999.250000 0.0000000000 0.0000000000 0.0000000000 0.0000000000 0.0000000000 0.0000000000 0.0000000000  -999.250000
 3616.4519043 8.5000000000 8.6513967514 -0.003110445 86.886299133 58.799980164 0.0000000000 0.2565397024 3.6718080044  -999.250000 1.1609950066 1.2793450356 1.2078260183 2.5332510471 47.898784637 -337.9974060  -999.250000  -999.250000 19.442285538  -999.250000  -999.250000 0.0000000000 0.0000000000 0.0000000000 0.0000000000 0.0000000000 0.0000000000 0.0000000000  -999.250000
 3616.6044922 8.5000000000 8.6251487732 -0.001757115 87.316497803 52.671878815 0.0000000000 0.2386562973 3.8151381016  -999.250000 1.3578619957 1.4976769686 1.3858599663 2.5694379807 47.122825623 -337.8757019  -999.250000  -999.250000 19.625391006  -999.250000  -999.250000 0.0000000000 0.0000000000 0.0000000000 0.0000000000 0.0000000000 0.0000000000 0.0000000000  -999.250000
 3616.7568359 8.5000000000 8.5946254730 0.0003693821 88.339401245 53.768428802 0.0000000000 0.2079724073 4.0207037926  -999.250000 1.8902649879 2.1011910439 1.8543150425 2.5945930481 46.348114014 -337.8717041  -999.250000  -999.250000 19.808202744  -999.250000  -999.250000 0.0000000000 0.0000000000 0.0000000000 0.0000000000 0.0000000000 0.0000000000 0.0000000000  -999.250000
 3616.9091797 8.5000000000 8.5948886871 0.0008008228 87.830299377 58.309020996 0.0000000000 0.1986998022 4.0269861221  -999.250000 1.8858610392 2.0744729042 1.8352440596 2.5694022179 45.573398590 -337.3179932  -999.250000  -999.250000 19.991016388  -999.250000  -999.250000 0.0000000000 0.0000000000 0.0000000000 0.0000000000 0.0000000000 0.0000000000 0.0000000000  -999.250000
 3617.0615234 8.5000000000 8.6235637665 0.0009897479 86.674499512 60.422359467 0.0000000000 0.2109227926 3.8865180016  -999.250000 1.3307080269 1.4639350176 1.3662070036 2.5419170856 47.041221619 -337.6845093  -999.250000  -999.250000 20.241504669  -999.250000  -999.250000 0.0000000000 0.0000000000 0.0000000000 0.0000000000 0.0000000000 0.0000000000 0.0000000000  -999.250000
 3617.2141113 8.5000000000 8.6309299469 0.0012671410 84.422599792 60.127708435 0.0000000000 0.2313846052 3.7709660530  -999.250000 1.1295759678 1.2481240034 1.1933909655 2.5257718563 51.827114105 -337.5675964  -999.250000  -999.250000 20.592456818  -999.250000  -999.250000 0.0000000000 0.0000000000 0.0000000000 0.0000000000 0.0000000000 0.0000000000 0.0000000000  -999.250000
 3617.3664551 8.5000000000 8.6092252731 0.0013148020 84.288589478 60.336639404 0.0000000000 0.2447649986 3.7856719494  -999.250000 1.2682820559 1.4015040398 1.3272739649 2.5125610828 56.605346680 -338.3103027  -999.250000  -999.250000 20.942846298  -999.250000  -999.250000 0.0000000000 0.0000000000 0.0000000000 0.0000000000 0.0000000000 0.0000000000 0.0000000000  -999.250000
 3617.5187988 8.5000000000 8.5935678482 0.0013738320 85.795097351 62.476299286 0.0000000000 0.2514084876 3.8391489983  -999.250000 1.3758330345 1.5191249847 1.4179780483 2.5174920559 61.383583069 -338.6871033  -999.250000  -999.250000 21.293237686  -999.250000  -999.250000 0.0000000000 0.0000000000 0.0000000000 0.0000000000 0.0000000000 0.0000000000 0.0000000000  -999.250000
 3617.6711426 8.5000000000 8.5721273422 0.0018003930 88.363502502 60.626148224 0.0000000000 0.2499109954 3.9083750248  -999.250000 1.2863899469 1.4157669544 1.3194600344 2.5285680294 66.161819458 -338.9985046  -999.250000  -999.250000 21.643627167  -999.250000  -999.250000 0.0000000000 0.0000000000 0.0000000000 0.0000000000 0.0000000000 0.0000000000 0.0000000000  -999.250000
 3617.8234863 8.5000000000 8.5705423355 0.0058788131 89.217300415 57.558189392 0.0000000000 0.2272748947 4.1133689880  -999.250000 1.5754250288 1.7401280403 1.5597330332 2.5851049423 70.940048218 -339.0628967  -999.250000  -999.250000 21.994018555  -999.250000  -999.250000 0.0000000000 0.0000000000 0.0000000000 0.0000000000 0.0000000000 0.0000000000 0.0000000000  -999.250000
 3617.9760742 8.5000000000 8.5485725403 0.0116828000 90.079803467 55.664840698 0.0000000000 0.2076825052 4.1903238297  -999.250000 2.3992469311 2.6636250019 2.2191209793 2.6029460430 75.725944519 -339.1842041  -999.250000  -999.250000 22.344970703  -999.250000  -999.250000 0.0000000000 0.0000000000 0.0000000000 0.0000000000 0.0000000000 0.0000000000 0.0000000000  -999.250000
 3618.1284180 8.5000000000 8.5648918152 0.0116131399 89.840499878 58.928089142 0.0000000000 0.1966959983 4.1054801941  -999.250000 2.0205650330 2.2520730495 1.9286760092 2.5603549480 76.628044128 -338.7525940  -999.250000  -999.250000 22.104639053  -999.250000  -999.250000 0.0000000000 0.0000000000 0.0000000000 0.0000000000 0.0000000000 0.0000000000 0.0000000000  -999.250000
 3618.2807617 8.5000000000 8.6315908432 0.0087177260 89.765800476 60.848209381 0.0000000000 0.2117155939 3.8699018955  -999.250000 1.1878739595 1.3167920113 1.2319829464 2.5255029202 76.807983398 -338.7492981  -999.250000  -999.250000 21.754247665  -999.250000  -999.250000 0.0000000000 0.0000000000 0.0000000000 0.0000000000 0.0000000000 0.0000000000 0.0000000000  -999.250000
