# LAS format log file from PETREL
# Project units are specified as depth units
#==================================================================
~Version information
VERS.   2.0:
WRAP.   NO:
#==================================================================
~Well
STRT .m      3460.8515625 :
STOP .m      4681.4233398 :
STEP .m     0.00000000 :
NULL .        -999.250000 :
COMP.           : COMPANY
WELL.  Torosa 1   : WELL
FLD.            : FIELD
LOC.            : LOCATION
SRVC.           : SERVICE COMPANY
DATE.  2017-10-02 11:49:47   : Log Export Date {yyyy-MM-dd HH:mm:ss}
PROV.           : PROVINCE
UWI.   Torosa 1   : UNIQUE WELL ID
API.            : API NUMBER
#==================================================================
~Curve
DEPT .m                   : DEPTH
BIT .in                   : BIT
CAL .in                   : CAL
DRHO .g/cm3               : DRHO
DTC .us/ft                : DTC
GR .gAPI                  : GR
NET .m                    : NET
NPHI .m3/m3               : NPHI
PEF .b/e                  : PEF
POTA .%                   : POTA
RESD .ohm.m               : RESD
RESM .ohm.m               : RESM
RESS .ohm.m               : RESS
RHOB .g/cm3               : RHOB
ROP .m/h                  : ROP
SP .mV                    : SP
THOR .ppm                 : THOR
URAN .ppm                 : URAN
WOB .kN                   : WOB
RFT .bar                  : RFT
Mobility .mD/cP           : Mobility
IC4 .%                    : IC4
NC5 .%                    : NC5
TGAS .%                   : TGAS
NC4 .%                    : NC4
C1 .%                     : C1
C3 .%                     : C3
IC5 .%                    : IC5
RCA ._                    : RCA
~Parameter
#==================================================================
~Ascii
# ...
 3916.8325195 8.5000000000 8.6398830414 -0.008581532 79.780006409 60.213691711 0.0000000000 0.2306361943 4.7181630135  -999.250000 2.3648140430 2.5942790508 2.3789699078 2.5627300739 62.555152893 -337.3205872  -999.250000  -999.250000 24.745849609  -999.250000  -999.250000 0.0000000000 0.0000000000 182.83255005 0.0000000000 8.9999990463 0.0000000000 0.0000000000  -999.250000
 3916.9848633 8.5000000000 8.6285028458 -0.004955560 80.142898560 60.118968964 0.0000000000 0.2248695940 4.6769938469  -999.250000 2.4467799664 2.6787919998 2.4266359806 2.5802600384 63.489810944 -337.9360046  -999.250000  -999.250000 25.522802353  -999.250000  -999.250000 0.0000000000 0.0000000000 182.98489380 0.0000000000 8.9999990463 0.0000000000 0.0000000000  -999.250000
 3917.1372070 8.5000000000 8.6274452209 -0.000834937 80.217597961 60.599571228 0.0000000000 0.2192247063 4.6652441025  -999.250000 2.4370419979 2.6625509262 2.3974790573 2.5884571075 61.408432007 -338.3051147  -999.250000  -999.250000 25.380468369  -999.250000  -999.250000 0.0000000000 0.0000000000 182.72561646 0.0000000000 8.9999990463 0.0000000000 0.0000000000  -999.250000
 3917.2895508 8.5000000000 8.6390905380 0.0015545940 80.134696960 64.840141296 0.0000000000 0.2125360072 4.6458148956  -999.250000 2.6207358837 2.8633289337 2.5312609673 2.5929200649 58.994323730 -337.4393005  -999.250000  -999.250000 25.136718750  -999.250000  -999.250000 0.0000000000 0.0000000000 182.42092896 0.0000000000 8.9999990463 0.0000000000 0.0000000000  -999.250000
 3917.4418945 8.5000000000 8.6177825928 0.0009962211 79.703292847 67.508331299 0.0000000000 0.2130354047 4.6877551079  -999.250000 2.4647970200 2.6952641010 2.4426660538 2.5999579430 56.580215454 -336.8826904  -999.250000  -999.250000 24.892969131  -999.250000  -999.250000 0.0000000000 0.0000000000 182.11624146 0.0000000000 8.9999990463 0.0000000000 0.0000000000  -999.250000
 3917.5944824 8.5000000000 8.6393547058 -0.001726853 79.367210388 70.041770935 0.0000000000 0.2236016989 4.6495790482  -999.250000 2.1830430031 2.3886399269 2.2100050449 2.5933890343 54.162239075 -337.6257019  -999.250000  -999.250000 24.648828506  -999.250000  -999.250000 0.0000000000 0.0000000000 181.81105042 0.0000000000 8.9999990463 0.0000000000 0.0000000000  -999.250000
 3917.7468262 8.5000000000 8.6603975296 -0.003916600 78.883110046 68.907669067 0.0000000000 0.2338669002 4.5508980751  -999.250000 2.2211430073 2.4267959595 2.2270860672 2.5849421024 51.748130798 -338.4952087  -999.250000  -999.250000 24.405078888  -999.250000  -999.250000 0.0000000000 0.0000000000 181.50636292 0.0000000000 8.9999990463 0.0000000000 0.0000000000  -999.250000
 3917.8991699 8.5000000000 8.6618518829 -0.003460648 77.926002502 67.600357056 0.0000000000 0.2327897996 4.5406951904  -999.250000 2.3723330498 2.5876700878 2.3571000099 2.5905709267 49.334018707 -338.5577087  -999.250000  -999.250000 24.161327362  -999.250000  -999.250000 0.0000000000 0.0000000000 181.20167542 0.0000000000 8.9999990463 0.0000000000 0.0000000000  -999.250000
 3918.0515137 8.5000000000 8.6623802185 -0.003994669 77.887702942 68.348541260 0.0000000000 0.2276885062 4.6389250755  -999.250000 2.3251900673 2.5401070118 2.3250811100 2.5949630737 47.766643524 -337.8150940  -999.250000  -999.250000 23.701221466  -999.250000  -999.250000 0.0000000000 0.0000000000 180.79396057 0.0000000000 8.9999990463 0.0000000000 0.0000000000  -999.250000
 3918.2041016 8.5000000000 8.6503391266 -0.002670696 77.670196533 66.743927002 0.0000000000 0.2385710031 4.6322379112  -999.250000 2.4118471146 2.6296958923 2.4051470757 2.5985479355 47.856754303 -337.5003967  -999.250000  -999.250000 22.816211700  -999.250000  -999.250000 0.0000000000 0.0000000000 180.18360901 0.0000000000 8.9999990463 0.0000000000 0.0000000000  -999.250000
 3918.3564453 8.5000000000 8.6406755447 -0.001205311 78.251091003 61.827480316 0.0000000000 0.2308284044 4.6750159264  -999.250000 2.5279560089 2.7611000538 2.4904530048 2.6094110012 47.946720123 -337.2500000  -999.250000  -999.250000 21.932617188  -999.250000  -999.250000 0.0000000000 0.0000000000 179.57423401 0.0000000000 8.9999990463 0.0000000000 0.0000000000  -999.250000
 3918.5087891 8.5000000000 8.6546163559 0.0010056990 78.683097839 59.075889587 0.0000000000 0.2163552046 4.5290122032  -999.250000 2.6672821045 2.9029779434 2.5683889389 2.6038250923 48.036685944 -337.0050964  -999.250000  -999.250000 21.049024582  -999.250000  -999.250000 0.0000000000 0.0000000000 178.96484375 0.0000000000 8.9999990463 0.0000000000 0.0000000000  -999.250000
 3918.6611328 8.5000000000 8.6500749588 0.0010042820 79.979690552 58.479179382 0.0000000000 0.2076155990 4.5136928558  -999.250000 2.5891740322 2.8205280304 2.5181739330 2.5978069305 48.126651764 -337.6228027  -999.250000  -999.250000 20.165430069  -999.250000  -999.250000 0.0000000000 0.0000000000 178.35546875 0.0000000000 8.9999990463 0.0000000000 0.0000000000  -999.250000
 3918.8137207 8.5000000000 8.6393547058 0.0000023899 80.589889526 58.292621613 0.0000000000 0.1940016001 4.4807548523  -999.250000 2.4568119049 2.6709420681 2.4296159744 2.6039149761 48.216762543 -337.8717041  -999.250000  -999.250000 19.280420303  -999.250000  -999.250000 0.0000000000 0.0000000000 177.74511719 0.0000000000 8.9999990463 0.0000000000 0.0000000000  -999.250000
 3918.9660645 8.5000000000 8.6607942581 -0.002008278 81.230003357 58.463321686 0.0000000000 0.1971354932 4.5322279930  -999.250000 2.6898360252 2.9078350067 2.6043930054 2.6149430275 48.306728363 -337.5610046  -999.250000  -999.250000 18.396827698  -999.250000  -999.250000 0.0000000000 0.0000000000 177.13574219 0.0000000000 8.9999990463 0.0000000000 0.0000000000  -999.250000
 3919.1184082 8.5000000000 8.6717786789 -0.002033732 81.031997681 60.088401794 0.0000000000 0.2044723928 4.4657368660  -999.250000 2.8005340099 3.0237860680 2.6944739819 2.6132040024 48.105339050 -337.0069885  -999.250000  -999.250000 18.460498810  -999.250000  -999.250000 0.0000000000 0.0000000000 177.35522461 0.0000000000 8.9999990463 0.0000000000 0.0000000000  -999.250000
 3919.2707520 8.5000000000 8.6836881638 -0.002815248 81.063697815 65.035751343 0.0000000000 0.2283969969 4.4285259247  -999.250000 2.3941140175 2.5914919376 2.3723919392 2.6090750694 47.820442200 -337.6210022  -999.250000  -999.250000 18.795654297  -999.250000  -999.250000 0.0000000000 0.0000000000 177.81225586 0.0000000000 8.9999990463 0.0000000000 0.0000000000  -999.250000
 3919.4230957 8.5000000000 8.6950693130 -0.001521287 80.981002808 68.898406982 0.0000000000 0.2488175035 4.3246822357  -999.250000 2.1277599335 2.3081290722 2.1558508873 2.5898311138 47.535549164 -337.5643921  -999.250000  -999.250000 19.130811691  -999.250000  -999.250000 0.0000000000 0.0000000000 178.26928711 0.0000000000 8.9999990463 0.0000000000 0.0000000000  -999.250000
 3919.5756836 8.5000000000 8.6984205246 -0.001360782 80.864097595 71.835807800 0.0000000000 0.2499777973 4.4379191399  -999.250000 2.1540060043 2.3454949856 2.1879770756 2.5861508846 47.250198364 -337.8139954  -999.250000  -999.250000 19.466503143  -999.250000  -999.250000 0.0000000000 0.0000000000 178.72703552 0.0000000000 8.9999990463 0.0000000000 0.0000000000  -999.250000
 3919.7280273 8.5000000000 8.6767168045 -0.000897267 80.883598328 70.703033447 0.0000000000 0.2486667037 4.4704580307  -999.250000 2.1541879177 2.3404200077 2.1646730900 2.5924789906 46.965301514 -338.3055115  -999.250000  -999.250000 19.801660538  -999.250000  -999.250000 0.0000000000 0.0000000000 179.18406677 0.0000000000 8.9999990463 0.0000000000 0.0000000000  -999.250000
 3919.8803711 8.5000000000 8.6827640533 -0.000941043 80.722999573 67.076843262 0.0000000000 0.2376627028 4.5418391228  -999.250000 2.1681981087 2.3520081043 2.1549329758 2.5758810043 46.680408478 -337.6271973  -999.250000  -999.250000 20.136816025  -999.250000  -999.250000 0.0000000000 0.0000000000 179.64109802 0.0000000000 8.9999990463 0.0000000000 0.0000000000  -999.250000
 3920.0327148 8.5000000000 8.6614551544 -0.000771736 79.774803162 65.010147095 0.0000000000 0.2213622034 4.6031808853  -999.250000 2.4125809669 2.6202220917 2.3435618877 2.5814011097 46.473865509 -337.3146973  -999.250000  -999.250000 20.514501572  -999.250000  -999.250000 0.0000000000 0.0000000000 180.03269958 0.0000000000 8.9999990463 0.0000000000 0.0000000000  -999.250000
