# LAS format log file from PETREL
# Project units are specified as depth units
#==================================================================
~Version information
VERS.   2.0:
WRAP.   NO:
#==================================================================
~Well
STRT .m      3460.8515625 :
STOP .m      4681.4233398 :
STEP .m     0.00000000 :
NULL .        -999.250000 :
COMP.           : COMPANY
WELL.  Torosa 1   : WELL
FLD.            : FIELD
LOC.            : LOCATION
SRVC.           : SERVICE COMPANY
DATE.  2017-10-02 11:49:47   : Log Export Date {yyyy-MM-dd HH:mm:ss}
PROV.           : PROVINCE
UWI.   Torosa 1   : UNIQUE WELL ID
API.            : API NUMBER
#==================================================================
~Curve
DEPT .m                   : DEPTH
BIT .in                   : BIT
CAL .in                   : CAL
DRHO .g/cm3               : DRHO
DTC .us/ft                : DTC
GR .gAPI                  : GR
NET .m                    : NET
NPHI .m3/m3               : NPHI
PEF .b/e                  : PEF
POTA .%                   : POTA
RESD .ohm.m               : RESD
RESM .ohm.m               : RESM
RESS .ohm.m               : RESS
RHOB .g/cm3               : RHOB
ROP .m/h                  : ROP
SP .mV                    : SP
THOR .ppm                 : THOR
URAN .ppm                 : URAN
WOB .kN                   : WOB
RFT .bar                  : RFT
Mobility .mD/cP           : Mobility
IC4 .%                    : IC4
NC5 .%                    : NC5
TGAS .%                   : TGAS
NC4 .%                    : NC4
C1 .%                     : C1
C3 .%                     : C3
IC5 .%                    : IC5
RCA ._                    : RCA
~Parameter
#==================================================================
~Ascii
# ...
 4071.0612793 8.5000000000 8.6835565567 -0.003647025 98.716300964 111.94229889 0.0000000000 0.3849557042 3.2926959991  -999.250000 1.2391710281 1.3736129999 1.2663090229 2.5387310982 102.36588287 -338.8172913  -999.250000  -999.250000 15.771312714  -999.250000  -999.250000 0.0000000000 0.0000000000 59.206054688 0.0000000000 8.4484853745 0.9387207031 0.0000000000  -999.250000
 4071.2136230 8.5000000000 8.6693506241 -0.002708586 98.661399841 111.02719879 0.0000000000 0.3788189888 3.3260819912  -999.250000 1.2422349453 1.3680750132 1.2631700039 2.5337870121 107.02416229 -339.7456055  -999.250000  -999.250000 15.451391220  -999.250000  -999.250000 0.0000000000 0.0000000000 64.690429688 0.0000000000 7.0773916245 0.7863769531 0.0000000000  -999.250000
 4071.3659668 8.5000000000 8.6623802185 -0.002708120 98.253196716 110.40499878 0.0000000000 0.3652733862 3.3924720287  -999.250000 1.2333539724 1.3677370548 1.2653640509 2.5371139050 111.68244934 -339.9371033  -999.250000  -999.250000 15.131469727  -999.250000  -999.250000 0.0000000000 0.0000000000 70.174804688 0.0000000000 5.7062983513 0.6340332031 0.0000000000  -999.250000
 4071.5183105 8.5000000000 8.6723079681 -0.003109925 97.056297302 108.72149658 0.0000000000 0.3728725016 3.4009149075  -999.250000 1.2193690538 1.3553949594 1.2629359961 2.5380210876 116.34072876 -340.0606995  -999.250000  -999.250000 14.811548233  -999.250000  -999.250000 0.0000000000 0.0000000000 75.659179688 0.0000000000 4.3352046013 0.4816894531 0.0000000000  -999.250000
 4071.6708984 8.5000000000 8.6767168045 -0.002969697 97.636108398 112.37439728 0.0000000000 0.3597748876 3.3534588814  -999.250000 1.2036060095 1.3420519829 1.2532360554 2.5276100636 121.00647736 -339.8706055  -999.250000  -999.250000 14.491113663  -999.250000  -999.250000 0.0000000000 0.0000000000 81.152343750 0.0000000000 2.9619138241 0.3291015625 0.0000000000  -999.250000
 4071.8232422 8.5000000000 8.6736297607 -0.002877760 98.118202209 113.81790161 0.0000000000 0.3734515011 3.2731399536  -999.250000 1.2231570482 1.3481839895 1.2617950439 2.5269110203 125.66476440 -338.9429932  -999.250000  -999.250000 14.171191216  -999.250000  -999.250000 0.0000000000 0.0000000000 86.636718750 0.0000000000 1.5908201933 0.1767578125 0.0000000000  -999.250000
 4071.9755859 8.5000000000 8.6736297607 -0.001673579 99.028999329 117.54090118 0.0000000000 0.3676451147 3.2105340958  -999.250000 1.2210329771 1.3465900421 1.2613099813 2.5407409668 130.32304382 -338.9389954  -999.250000  -999.250000 13.851269722  -999.250000  -999.250000 0.0000000000 0.0000000000 92.121093750 0.0000000000 0.2197265327 0.0244140625 0.0000000000  -999.250000
 4072.1279297 8.5000000000 8.6984205246 -0.002368946 99.528701782 118.53060150 0.0000000000 0.3891895115 3.1948709488  -999.250000 1.2293080091 1.3546659946 1.2523649931 2.5389358997 126.84721375 -339.1849060  -999.250000  -999.250000 13.979102135  -999.250000  -999.250000 0.0000000000 0.0000000000 136.11230469 0.0000000000 2.5585937500 0.5117187500 0.0000000000  -999.250000
 4072.2805176 8.5000000000 8.7288150787 -0.000798259 99.805999756 121.44180298 0.0000000000 0.3688792884 3.2611470222  -999.250000 1.2354899645 1.3660949469 1.2691899538 2.5372159481 121.81101227 -339.0003967  -999.250000  -999.250000 14.192724228  -999.250000  -999.250000 0.0000000000 0.0000000000 187.53442383 0.0000000000 5.6103515625 1.1220703125 0.0000000000  -999.250000
 4072.4328613 8.5000000000 8.7296075821 0.0049322289 99.869201660 121.79319763 0.0000000000 0.3771589100 3.2827138901  -999.250000 1.2441339493 1.3851170540 1.2974770069 2.5424799919 116.78286743 -338.8771973  -999.250000  -999.250000 14.406005859  -999.250000  -999.250000 0.0000000000 0.0000000000 238.87426758 0.0000000000 8.6572265625 1.7314453125 0.0000000000  -999.250000
 4072.5852051 8.5000000000 8.7397985458 0.0279676002 99.653099060 117.14289856 0.0000000000 0.3700560927 3.6573679447  -999.250000 1.0844119787 1.2022459507 1.1393580437 2.4205238819 111.75472260 -339.1210022  -999.250000  -999.250000 14.619287491  -999.250000  -999.250000 0.0000000000 0.0000000000 290.21411133 0.0000000000 11.704101563 2.3408203125 0.0000000000  -999.250000
 4072.7375488 8.5000000000 8.7067136765 0.0443238690 99.263702393 114.49140167 0.0000000000 0.4140245020 5.0722489357  -999.250000 1.1936949492 1.3257509470 1.2443699837 2.3559949398 106.72657776 -338.6933899  -999.250000  -999.250000 14.832568169  -999.250000  -999.250000 0.0000000000 0.0000000000 341.55395508 0.0000000000 14.750976563 2.9501953125 0.0000000000  -999.250000
 4072.8898926 8.5000000000 8.6644954681 0.0364923105 99.067703247 112.52940369 0.0000000000 0.4066064954 3.7930541039  -999.250000 1.2713409662 1.4099060297 1.2929949760 2.5765008926 101.69843292 -339.2485046  -999.250000  -999.250000 15.045849800  -999.250000  -999.250000 0.0000000000 0.0000000000 392.89379883 0.0000000000 17.797851563 3.5595703125 0.0000000000  -999.250000
 4073.0424805 8.5000000000 8.6764526367 0.0146205695 98.756401062 116.50140381 0.0000000000 0.3883118033 3.3451728821  -999.250000 1.3273160458 1.4462029934 1.2952719927 2.5745689869 98.804374695 -339.5592041  -999.250000  -999.250000 15.272216797  -999.250000  -999.250000 0.0000000000 0.0000000000 438.70849609 0.0000000000 20.934570313 4.2124023438 0.0000000000  -999.250000
 4073.1948242 8.5000000000 8.6832923889 -0.003370147 98.768394470 116.12819672 0.0000000000 0.3612087071 3.1696860790  -999.250000 1.3324879408 1.4529800415 1.2977080345 2.5465788841 101.45838928 -339.3128967  -999.250000  -999.250000 15.531201363  -999.250000  -999.250000 0.0000000000 0.0000000000 469.93896484 0.0000000000 24.286132813 4.9741210938 0.0000000000  -999.250000
 4073.3471680 8.5000000000 8.6689548492 -0.001525496 98.995292664 119.10430145 0.0000000000 0.3587076962 3.1636779308  -999.250000 1.3268179893 1.4490519762 1.2975059748 2.5257420540 104.11241150 -339.1260986  -999.250000  -999.250000 15.790184975  -999.250000  -999.250000 0.0000000000 0.0000000000 501.16943359 0.0000000000 27.637695313 5.7358393669 0.0000000000  -999.250000
 4073.4995117 8.5000000000 8.6397514343 -0.002994963 99.099296570 118.17549896 0.0000000000 0.3877474070 3.2380540371  -999.250000 1.2780530453 1.4209840298 1.2957229614 2.5320570469 106.76643372 -339.1250000  -999.250000  -999.250000 16.049169540  -999.250000  -999.250000 0.0000000000 0.0000000000 532.39990234 0.0000000000 30.989257813 6.4975581169 0.0000000000  -999.250000
 4073.6520996 8.5000000000 8.6476459503 -0.004607481 99.226097107 118.84729767 0.0000000000 0.4057568014 3.2991271019  -999.250000 1.2880619764 1.4243799448 1.3013989925 2.5266540051 109.42470551 -339.1235046  -999.250000  -999.250000 16.308568954  -999.250000  -999.250000 0.0000000000 0.0000000000 563.68041992 0.0000000000 34.346191406 7.2604975700 0.0000000000  -999.250000
 4073.8044434 8.5000000000 8.6613235474 -0.005260117 99.332000732 115.74050140 0.0000000000 0.4200654924 3.2657060623  -999.250000 1.2597229481 1.3923629522 1.2725110054 2.5226559639 112.07872009 -338.8775940  -999.250000  -999.250000 16.567552567  -999.250000  -999.250000 0.0000000000 0.0000000000 594.91088867 0.0000000000 37.697753906 8.0222158432 0.0000000000  -999.250000
 4073.9567871 8.5000000000 8.6398830414 -0.004825374 99.356895447 113.06130219 0.0000000000 0.3889600933 3.3255579472  -999.250000 1.2432470322 1.3808629513 1.2724790573 2.5204989910 114.73274231 -339.0635986  -999.250000  -999.250000 16.826538086  -999.250000  -999.250000 0.0000000000 0.0000000000 626.14135742 0.0000000000 41.049316406 8.7839345932 0.0000000000  -999.250000
 4074.1091309 8.5000000000 8.6681613922 -0.004347394 99.363601685 114.68460083 0.0000000000 0.3846623898 3.3228969574  -999.250000 1.2232470512 1.3575470448 1.2600469589 2.5307168961 108.96922302 -339.4367981  -999.250000  -999.250000 16.823608398  -999.250000  -999.250000 0.0000000000 0.0000000000 641.00219727 0.0000000000 43.309570313 9.2182607651 0.0000000000  -999.250000
 4074.2617188 8.5000000000 8.6619844437 -0.003839256 99.362197876 118.95639801 0.0000000000 0.3760715127 3.3372819424  -999.250000 1.2317190170 1.3604849577 1.2557090521 2.5205290318 99.858001709 -339.6849060  -999.250000  -999.250000 16.716796875  -999.250000  -999.250000 0.0000000000 0.0000000000 649.39447021 0.0000000000 45.140625000 9.5234365463 0.0000000000  -999.250000
