# LAS format log file from PETREL
# Project units are specified as depth units
#==================================================================
~Version information
VERS.   2.0:
WRAP.   NO:
#==================================================================
~Well
STRT .m      3460.8515625 :
STOP .m      4681.4233398 :
STEP .m     0.00000000 :
NULL .        -999.250000 :
COMP.           : COMPANY
WELL.  Torosa 1   : WELL
FLD.            : FIELD
LOC.            : LOCATION
SRVC.           : SERVICE COMPANY
DATE.  2017-10-02 11:49:47   : Log Export Date {yyyy-MM-dd HH:mm:ss}
PROV.           : PROVINCE
UWI.   Torosa 1   : UNIQUE WELL ID
API.            : API NUMBER
#==================================================================
~Curve
DEPT .m                   : DEPTH
BIT .in                   : BIT
CAL .in                   : CAL
DRHO .g/cm3               : DRHO
DTC .us/ft                : DTC
GR .gAPI                  : GR
NET .m                    : NET
NPHI .m3/m3               : NPHI
PEF .b/e                  : PEF
POTA .%                   : POTA
RESD .ohm.m               : RESD
RESM .ohm.m               : RESM
RESS .ohm.m               : RESS
RHOB .g/cm3               : RHOB
ROP .m/h                  : ROP
SP .mV                    : SP
THOR .ppm                 : THOR
URAN .ppm                 : URAN
WOB .kN                   : WOB
RFT .bar                  : RFT
Mobility .mD/cP           : Mobility
IC4 .%                    : IC4
NC5 .%                    : NC5
TGAS .%                   : TGAS
NC4 .%                    : NC4
C1 .%                     : C1
C3 .%                     : C3
IC5 .%                    : IC5
RCA ._                    : RCA
~Parameter
#==================================================================
~Ascii
# ...
 3765.9562988 8.5000000000 8.5375881195 -0.003622871 95.721000671 65.174201965 0.0000000000 0.2379940003 3.5968821049  -999.250000 1.5344539881 1.6679339409 1.5408430099 2.5585639477 68.582344055 -336.3099060  -999.250000  -999.250000 12.501538277  -999.250000  -999.250000 0.0000000000 0.0000000000 5.0000000000 0.0000000000 0.0000000000 0.0000000000 0.0000000000  -999.250000
 3766.1088867 8.5000000000 8.5270004272 -0.002280353 95.859596252 63.555229187 0.0000000000 0.2375960052 3.6851320267  -999.250000 1.2468739748 1.3640489578 1.2878930569 2.5266809464 68.352180481 -336.3125000  -999.250000  -999.250000 12.646435738  -999.250000  -999.250000 0.0000000000 0.0000000000 4.8911132813 0.0000000000 0.0000000000 0.0000000000 0.0000000000  -999.250000
 3766.2612305 8.5000000000 8.5572614670 -0.000620424 97.374496460 64.694160461 0.0000000000 0.2593210936 3.4746770859  -999.250000 1.1004780531 1.1999210119 1.1446130276 2.4972479343 70.756294250 -336.3125000  -999.250000  -999.250000 13.271044731  -999.250000  -999.250000 0.0000000000 0.0000000000 4.7387695313 0.0000000000 0.0000000000 0.0000000000 0.0000000000  -999.250000
 3766.4135742 8.5000000000 8.5502901077 0.0004588591 97.666496277 69.342147827 0.0000000000 0.2785896063 3.4065310955  -999.250000 1.1126320362 1.2131450176 1.1588120461 2.4972589016 73.160408020 -336.3135986  -999.250000  -999.250000 13.895653725  -999.250000  -999.250000 0.0000000000 0.0000000000 4.5864257813 0.0000000000 0.0000000000 0.0000000000 0.0000000000  -999.250000
 3766.5659180 8.5000000000 8.5606155396 0.0012150570 97.503700256 72.673927307 0.0000000000 0.2907375097 3.4104890823  -999.250000 1.0984369516 1.2029980421 1.1594799757 2.5076808929 75.564521790 -336.5018005  -999.250000  -999.250000 14.520262718  -999.250000  -999.250000 0.0000000000 0.0000000000 4.4340820313 0.0000000000 0.0000000000 0.0000000000 0.0000000000  -999.250000
 3766.7185059 8.5000000000 8.5608797073 0.0000864071 96.620307922 70.313201904 0.0000000000 0.2855697870 3.3517529964  -999.250000 1.0771729946 1.1840850115 1.1503460407 2.5126409531 77.972488403 -336.9963074  -999.250000  -999.250000 15.145873070  -999.250000  -999.250000 0.0000000000 0.0000000000 4.2814941406 0.0000000000 0.0000000000 0.0000000000 0.0000000000  -999.250000
 3766.8708496 8.5000000000 8.5700139999 -0.001166319 95.980201721 66.850906372 0.0000000000 0.2800036967 3.4454960823  -999.250000 1.0897309780 1.1931790113 1.1578299999 2.5056180954 80.376602173 -336.8746033  -999.250000  -999.250000 15.770483017  -999.250000  -999.250000 0.0000000000 0.0000000000 4.1291503906 0.0000000000 0.0000000000 0.0000000000 0.0000000000  -999.250000
 3767.0231934 8.5000000000 8.5708055496 -0.002670623 94.770698547 67.018753052 0.0000000000 0.2777302861 3.4698200226  -999.250000 1.0753669739 1.1800810099 1.1472189426 2.5005559921 82.433723450 -336.6882019  -999.250000  -999.250000 16.272167206  -999.250000  -999.250000 0.0000000000 0.0000000000 4.0000000000 0.0000000000 0.0000000000 0.0000000000 0.0000000000  -999.250000
 3767.1755371 8.5000000000 8.5704097748 -0.000698523 93.545097351 67.440322876 0.0000000000 0.2834056020 3.4503679276  -999.250000 1.0556679964 1.1626060009 1.1282739639 2.4956469536 82.558677673 -336.6235046  -999.250000  -999.250000 16.089355469  -999.250000  -999.250000 0.0000000000 0.0000000000 4.0000000000 0.0000000000 0.0000000000 0.0000000000 0.0000000000  -999.250000
 3767.3278809 8.5000000000 8.5491008759 -0.000865338 92.983001709 68.819358826 0.0000000000 0.2775762975 3.4079101086  -999.250000 1.1237750053 1.2315950394 1.1799670458 2.4955489635 82.683631897 -336.3132019  -999.250000  -999.250000 15.906542778  -999.250000  -999.250000 0.0000000000 0.0000000000 4.0000000000 0.0000000000 0.0000000000 0.0000000000 0.0000000000  -999.250000
 3767.4804688 8.5000000000 8.5487041473 -0.002416750 92.258399963 68.917800903 0.0000000000 0.2515060008 3.4053769112  -999.250000 1.2059530020 1.3223049641 1.2441790104 2.5010490417 82.808784485 -336.1257019  -999.250000  -999.250000 15.723437309  -999.250000  -999.250000 0.0000000000 0.0000000000 4.0000000000 0.0000000000 0.0000000000 0.0000000000 0.0000000000  -999.250000
 3767.6328125 8.5000000000 8.5266036987 -0.005683710 92.517097473 69.921356201 0.0000000000 0.2273235023 3.3846149445  -999.250000 1.2917790413 1.4194359779 1.3206110001 2.5001890659 82.933738708 -336.0610046  -999.250000  -999.250000 15.540624619  -999.250000  -999.250000 0.0000000000 0.0000000000 4.0000000000 0.0000000000 0.0000000000 0.0000000000 0.0000000000  -999.250000
 3767.7851563 8.5000000000 8.5158834457 -0.005911427 92.792404175 68.464111328 0.0000000000 0.2128462046 3.3565769196  -999.250000 1.3676749468 1.5080859661 1.3900279999 2.5102961063 83.058692932 -335.7514954  -999.250000  -999.250000 15.357812881  -999.250000  -999.250000 0.0000000000 0.0000000000 4.0000000000 0.0000000000 0.0000000000 0.0000000000 0.0000000000  -999.250000
 3767.9375000 8.5000000000 8.5270004272 -0.003059816 93.452201843 65.577926636 0.0000000000 0.2188079059 3.2881131172  -999.250000 1.3780319691 1.5087490082 1.3876270056 2.5155329704 83.183647156 -335.6889954  -999.250000  -999.250000 15.175000191  -999.250000  -999.250000 0.0000000000 0.0000000000 4.0000000000 0.0000000000 0.0000000000 0.0000000000 0.0000000000  -999.250000
 3768.0900879 8.5000000000 8.5271320343 0.0000928554 93.929489136 66.318916321 0.0000000000 0.2289938927 3.3301839828  -999.250000 1.3554209471 1.4841029644 1.3682149649 2.5223441124 81.798469543 -335.8742981  -999.250000  -999.250000 14.946850777  -999.250000  -999.250000 0.0000000000 0.0000000000 4.0000000000 0.0000000000 0.0000000000 0.0000000000 0.0000000000  -999.250000
 3768.2424316 8.5000000000 8.5196332932 0.0008932747 94.187599182 67.647216797 0.0000000000 0.2321716994 3.3750379086  -999.250000 1.2885040045 1.4153699875 1.3205699921 2.5106499195 79.369369507 -335.9382019  -999.250000  -999.250000 14.687866211  -999.250000  -999.250000 0.0000000000 0.0000000000 4.0000000000 0.0000000000 0.0000000000 0.0000000000 0.0000000000  -999.250000
 3768.3947754 8.5000000000 8.5192365646 0.0005767496 94.461097717 68.151626587 0.0000000000 0.2372504026 3.4724359512  -999.250000 1.2495679855 1.3839900494 1.3058270216 2.4977359772 76.940261841 -336.1253967  -999.250000  -999.250000 14.428881645  -999.250000  -999.250000 0.0000000000 0.0000000000 4.0000000000 0.0000000000 0.0000000000 0.0000000000 0.0000000000  -999.250000
 3768.5471191 8.5000000000 8.5374555588 -0.001035227 94.525596619 66.235572815 0.0000000000 0.2478874028 3.4905829430  -999.250000 1.2175680399 1.3449790478 1.2774009705 2.5051019192 74.511161804 -336.3699036  -999.250000  -999.250000 14.169897079  -999.250000  -999.250000 0.0000000000 0.0000000000 4.0000000000 0.0000000000 0.0000000000 0.0000000000 0.0000000000  -999.250000
 3768.6997070 8.5000000000 8.5273962021 -0.001869443 94.257698059 65.579421997 0.0000000000 0.2579013109 3.4946029186  -999.250000 1.1483299732 1.2763309479 1.2207180262 2.4978721142 72.078163147 -335.7547913  -999.250000  -999.250000 13.910497665  -999.250000  -999.250000 0.0000000000 0.0000000000 4.0000000000 0.0000000000 0.0000000000 0.0000000000 0.0000000000  -999.250000
 3768.8520508 8.5000000000 8.5161485672 -0.001272029 93.827491760 67.051536560 0.0000000000 0.2664299905 3.4798009396  -999.250000 1.1972290277 1.3174790144 1.2510600090 2.4976360798 69.649063110 -335.9320068  -999.250000  -999.250000 13.651513100  -999.250000  -999.250000 0.0000000000 0.0000000000 4.0000000000 0.0000000000 0.0000000000 0.0000000000 0.0000000000  -999.250000
 3769.0043945 8.5000000000 8.5262069702 -0.000652960 93.636497498 66.483009338 0.0000000000 0.2642909884 3.4341189861  -999.250000 1.2096970081 1.3280899525 1.2647839785 2.5056700706 67.198623657 -335.1944885  -999.250000  -999.250000 13.387255669  -999.250000  -999.250000 0.0000000000 0.0000000000 3.9956054688 0.0000000000 0.0000000000 0.0000000000 0.0000000000  -999.250000
 3769.1567383 8.5000000000 8.5192365646 -0.000790730 92.832908630 65.918937683 0.0000000000 0.2605102956 3.4312379360  -999.250000 1.2216559649 1.3464239836 1.2798629999 2.5076858997 64.029792786 -335.6242981  -999.250000  -999.250000 12.945458412  -999.250000  -999.250000 0.0000000000 0.0000000000 3.8432617188 0.0000000000 0.0000000000 0.0000000000 0.0000000000  -999.250000
