# LAS format log file from PETREL
# Project units are specified as depth units
#==================================================================
~Version information
VERS.   2.0:
WRAP.   NO:
#==================================================================
~Well
STRT .m      3460.8515625 :
STOP .m      4681.4233398 :
STEP .m     0.00000000 :
NULL .        -999.250000 :
COMP.           : COMPANY
WELL.  Torosa 1   : WELL
FLD.            : FIELD
LOC.            : LOCATION
SRVC.           : SERVICE COMPANY
DATE.  2017-10-02 11:49:47   : Log Export Date {yyyy-MM-dd HH:mm:ss}
PROV.           : PROVINCE
UWI.   Torosa 1   : UNIQUE WELL ID
API.            : API NUMBER
#==================================================================
~Curve
DEPT .m                   : DEPTH
BIT .in                   : BIT
CAL .in                   : CAL
DRHO .g/cm3               : DRHO
DTC .us/ft                : DTC
GR .gAPI                  : GR
NET .m                    : NET
NPHI .m3/m3               : NPHI
PEF .b/e                  : PEF
POTA .%                   : POTA
RESD .ohm.m               : RESD
RESM .ohm.m               : RESM
RESS .ohm.m               : RESS
RHOB .g/cm3               : RHOB
ROP .m/h                  : ROP
SP .mV                    : SP
THOR .ppm                 : THOR
URAN .ppm                 : URAN
WOB .kN                   : WOB
RFT .bar                  : RFT
Mobility .mD/cP           : Mobility
IC4 .%                    : IC4
NC5 .%                    : NC5
TGAS .%                   : TGAS
NC4 .%                    : NC4
C1 .%                     : C1
C3 .%                     : C3
IC5 .%                    : IC5
RCA ._                    : RCA
~Parameter
#==================================================================
~Ascii
# ...
 3993.9467773 8.5000000000 8.7298717499 0.0057683229 71.767097473 30.040300369 0.0000000000 0.2035977989 5.6515631676  -999.250000 2.6727840900 2.7686800957 2.1163189411 2.4952540398 64.536712646 -300.1239014  -999.250000  -999.250000 13.769188881  -999.250000  -999.250000 0.0000000000 0.0000000000 605.10644531 0.0000000000 23.000001907 0.0000000000 0.0000000000  -999.250000
 3994.0991211 8.5000000000 8.7442092896 0.0054218099 71.708602905 33.980960846 0.0000000000 0.2109483927 5.6052880287  -999.250000 2.6195349693 2.7155849934 2.0837109089 2.5056159496 64.481094360 -300.6896973  -999.250000  -999.250000 13.699999809  -999.250000  -999.250000 0.0000000000 0.0000000000 604.50439453 0.0000000000 23.000001907 0.0000000000 0.0000000000  -999.250000
 3994.2517090 8.5000000000 8.7294759750 0.0020908641 71.954696655 36.879001617 0.0000000000 0.2095209956 5.5856180191  -999.250000 2.6326129436 2.7395811081 2.0955770016 2.5081799030 65.712615967 -301.6146851  -999.250000  -999.250000 13.699999809  -999.250000  -999.250000 0.0000000000 0.0000000000 603.74145508 0.0000000000 23.000001907 0.0000000000 0.0000000000  -999.250000
 3994.4040527 8.5000000000 8.6844816208 -0.000575346 71.561798096 35.145160675 0.0000000000 0.2026173025 5.5535788536  -999.250000 2.6368660927 2.7560250759 2.1075239182 2.4698989391 66.942161560 -300.8146973  -999.250000  -999.250000 13.699999809  -999.250000  -999.250000 0.0000000000 0.0000000000 602.97973633 0.0000000000 23.000001907 0.0000000000 0.0000000000  -999.250000
 3994.5563965 8.5000000000 8.6848773956 -0.000528493 69.924598694 32.712959290 0.0000000000 0.1936289072 5.6260318756  -999.250000 2.6098330021 2.7241160870 2.0951850414 2.4910509586 68.171707153 -300.3786926  -999.250000  -999.250000 13.699999809  -999.250000  -999.250000 0.0000000000 0.0000000000 602.21801758 0.0000000000 23.000001907 0.0000000000 0.0000000000  -999.250000
 3994.7087402 8.5000000000 8.7282867432 0.0020096321 69.853698730 30.798240662 0.0000000000 0.2060125023 5.6509318352  -999.250000 2.5266680717 2.6405730247 2.0359311104 2.4916870594 69.401252747 -300.5661926  -999.250000  -999.250000 13.699999809  -999.250000  -999.250000 0.0000000000 0.0000000000 601.45629883 0.0000000000 23.000001907 0.0000000000 0.0000000000  -999.250000
 3994.8610840 8.5000000000 8.7296075821 0.0056593381 69.850898743 32.214630127 0.0000000000 0.2127896994 5.7657938004  -999.250000 2.4128620625 2.5155229568 1.9743599892 2.4651210308 70.630805969 -301.3673096  -999.250000  -999.250000 13.699999809  -999.250000  -999.250000 0.0000000000 0.0000000000 600.69458008 0.0000000000 23.000001907 0.0000000000 0.0000000000  -999.250000
 3995.0136719 8.5000000000 8.7173023224 0.0065188329 69.850997925 31.615219116 0.0000000000 0.2120957971 5.6354351044  -999.250000 2.3836760521 2.4929149151 1.9626259804 2.4484479427 72.304145813 -300.8775940  -999.250000  -999.250000 13.668554306  -999.250000  -999.250000 0.0000000000 0.0000000000 599.79492188 0.0000000000 22.986330032 0.0000000000 0.0000000000  -999.250000
 3995.1660156 8.5000000000 8.7151365280 0.0074106101 69.846496582 31.013069153 0.0000000000 0.2049506009 5.5875039101  -999.250000 2.5006721020 2.6194090843 2.0189909935 2.4768826962 78.456871033 -300.8187866  -999.250000  -999.250000 13.318163872  -999.250000  -999.250000 0.0000000000 0.0000000000 597.50976563 0.0000000000 22.833986282 0.0000000000 0.0000000000  -999.250000
 3995.3183594 8.5000000000 8.6965227127 0.0056739701 69.812400818 31.236499786 0.0000000000 0.2042655051 5.5649628639  -999.250000 2.6674211025 2.7823419571 2.0993421078 2.5122931004 84.609596252 -301.8030090  -999.250000  -999.250000 12.967773438  -999.250000  -999.250000 0.0000000000 0.0000000000 595.22460938 0.0000000000 22.681642532 0.0000000000 0.0000000000  -999.250000
 3995.4707031 8.5000000000 8.6918487549 0.0047434340 69.555801392 33.016990662 0.0000000000 0.1994550973 5.3772239685  -999.250000 2.6848409176 2.8009920120 2.0828840733 2.5100059509 90.762321472 -301.1893005  -999.250000  -999.250000 12.617383003  -999.250000  -999.250000 0.0000000000 0.0000000000 592.93945313 0.0000000000 22.529298782 0.0000000000 0.0000000000  -999.250000
 3995.6232910 8.5000000000 8.6948051453 0.0049128989 69.733398438 33.573421478 0.0000000000 0.2005372941 5.4916019440  -999.250000 2.6230161190 2.7472920418 2.0707690716 2.4779429436 96.924911499 -300.8804932  -999.250000  -999.250000 12.266429901  -999.250000  -999.250000 0.0000000000 0.0000000000 590.65063477 0.0000000000 22.376708984 0.0000000000 0.0000000000  -999.250000
 3995.7756348 8.5000000000 8.6852741241 0.0058450061 69.764801025 31.809780121 0.0000000000 0.1938925982 5.6343398094  -999.250000 2.6612920761 2.7859690189 2.0916709900 2.4537420273 103.07763672 -301.4926147  -999.250000  -999.250000 11.916039467  -999.250000  -999.250000 0.0000000000 0.0000000000 588.36547852 0.0000000000 22.224365234 0.0000000000 0.0000000000  -999.250000
 3995.9279785 8.5000000000 8.6848783493 0.0064879269 69.729797363 30.577280045 0.0000000000 0.1949587017 5.7848000526  -999.250000 2.6529200077 2.7717609406 2.0791869164 2.4788279533 109.23036194 -300.8815918  -999.250000  -999.250000 11.565649033  -999.250000  -999.250000 0.0000000000 0.0000000000 586.08032227 0.0000000000 22.072021484 0.0000000000 0.0000000000  -999.250000
 3996.0803223 8.5000000000 8.7438125610 0.0067162341 69.751197815 31.141189575 0.0000000000 0.2032593042 5.7261428833  -999.250000 2.5981619358 2.7081990242 2.0505659580 2.4840528965 108.27320099 -301.3771973  -999.250000  -999.250000 11.713256836  -999.250000  -999.250000 0.0000000000 0.0000000000 573.67456055 0.0000000000 21.678710938 0.0000000000 0.0000000000  -999.250000
 3996.2329102 8.5000000000 8.7845287323 0.0059047402 70.135597229 30.968450546 0.0000000000 0.2117650062 5.5857357979  -999.250000 2.7098190784 2.8290960789 2.0701758862 2.4822380543 100.92916107 -302.2441101  -999.250000  -999.250000 12.308349609  -999.250000  -999.250000 0.0000000000 0.0000000000 552.15966797 0.0000000000 21.068359375 0.0000000000 0.0000000000  -999.250000
 3996.3852539 8.5000000000 8.7630901337 0.0028669049 70.146896362 31.570930481 0.0000000000 0.2170760930 5.5126490593  -999.250000 2.5466399193 2.6671090126 1.9749950171 2.4724380970 93.596870422 -302.1210022  -999.250000  -999.250000 12.902489662  -999.250000  -999.250000 0.0000000000 0.0000000000 530.67919922 0.0000000000 20.458984375 0.0000000000 0.0000000000  -999.250000
 3996.5375977 8.5000000000 8.7630891800 0.0014502490 70.425300598 30.806200027 0.0000000000 0.2153631002 5.4354319572  -999.250000 2.4937579632 2.6173400879 1.9526220560 2.4753959179 86.264579773 -301.3154907  -999.250000  -999.250000 13.496630669  -999.250000  -999.250000 0.0000000000 0.0000000000 509.19873047 0.0000000000 19.849607468 0.0000000000 0.0000000000  -999.250000
 3996.6899414 8.5000000000 8.7517080307 0.0012306890 70.561798096 31.379650116 0.0000000000 0.2093984038 5.4665131569  -999.250000 2.6662878990 2.8046290874 2.0381760597 2.4912950993 78.932289124 -301.0080872  -999.250000  -999.250000 14.090771675  -999.250000  -999.250000 0.0000000000 0.0000000000 487.71826172 0.0000000000 19.240232468 0.0000000000 0.0000000000  -999.250000
 3996.8422852 8.5000000000 8.7730169296 0.0045106998 70.624900818 32.018081665 0.0000000000 0.1997960061 5.7132802010  -999.250000 2.8302099705 2.9880959988 2.1356511116 2.5151150227 71.599998474 -302.0559082  -999.250000  -999.250000 14.684912682  -999.250000  -999.250000 0.0000000000 0.0000000000 466.23779297 0.0000000000 18.630857468 0.0000000000 0.0000000000  -999.250000
 3996.9948730 8.5000000000 8.7298717499 0.0074200509 70.592399597 32.790019989 0.0000000000 0.1968145967 5.7848019600  -999.250000 2.7780590057 2.9448640347 2.1197240353 2.5314450264 64.255950928 -301.9981995  -999.250000  -999.250000 15.280005455  -999.250000  -999.250000 0.0000000000 0.0000000000 444.72290039 0.0000000000 18.020505905 0.0000000000 0.0000000000  -999.250000
 3997.1472168 8.5000000000 8.7147417068 0.0101506002 70.563102722 33.425308228 0.0000000000 0.2133685052 5.8597779274  -999.250000 2.7478280067 2.9095540047 2.1161470413 2.5019879341 69.930709839 -301.6341858  -999.250000  -999.250000 14.696411133  -999.250000  -999.250000 0.0000000000 0.0000000000 428.98388672 0.0000000000 17.411130905 0.0000000000 0.0000000000  -999.250000
