# LAS format log file from PETREL
# Project units are specified as depth units
#==================================================================
~Version information
VERS.   2.0:
WRAP.   NO:
#==================================================================
~Well
STRT .m      3460.8515625 :
STOP .m      4681.4233398 :
STEP .m     0.00000000 :
NULL .        -999.250000 :
COMP.           : COMPANY
WELL.  Torosa 1   : WELL
FLD.            : FIELD
LOC.            : LOCATION
SRVC.           : SERVICE COMPANY
DATE.  2017-10-02 11:49:47   : Log Export Date {yyyy-MM-dd HH:mm:ss}
PROV.           : PROVINCE
UWI.   Torosa 1   : UNIQUE WELL ID
API.            : API NUMBER
#==================================================================
~Curve
DEPT .m                   : DEPTH
BIT .in                   : BIT
CAL .in                   : CAL
DRHO .g/cm3               : DRHO
DTC .us/ft                : DTC
GR .gAPI                  : GR
NET .m                    : NET
NPHI .m3/m3               : NPHI
PEF .b/e                  : PEF
POTA .%                   : POTA
RESD .ohm.m               : RESD
RESM .ohm.m               : RESM
RESS .ohm.m               : RESS
RHOB .g/cm3               : RHOB
ROP .m/h                  : ROP
SP .mV                    : SP
THOR .ppm                 : THOR
URAN .ppm                 : URAN
WOB .kN                   : WOB
RFT .bar                  : RFT
Mobility .mD/cP           : Mobility
IC4 .%                    : IC4
NC5 .%                    : NC5
TGAS .%                   : TGAS
NC4 .%                    : NC4
C1 .%                     : C1
C3 .%                     : C3
IC5 .%                    : IC5
RCA ._                    : RCA
~Parameter
#==================================================================
~Ascii
# ...
 4449.9277344 8.5000000000 8.5723924637 0.0573562905 52.356399536 49.942138672 0.0000000000 0.0652205423 5.3565721512  -999.250000 134.46099854 130.02819824 11.074179649 2.7480990887 13.442472458 -331.2471008  -999.250000  -999.250000 14.195116997  -999.250000  -999.250000 5.0000000000 0.0000000000 775.75781250 6.9999995232 82.867187500 29.289060593 0.0000000000  -999.250000
 4450.0800781 8.5000000000 8.5260753632 0.0356027000 51.737899780 60.710479736 0.0000000000 0.0854854211 4.8398470879  -999.250000 56.101638794 54.761238098 10.215789795 2.7499020100 13.568003654 -330.7525940  -999.250000  -999.250000 14.008008003  -999.250000  -999.250000 5.0000000000 0.0000000000 735.80462646 6.9999995232 79.757812500 28.679683685 0.0000000000  -999.250000
 4450.2324219 8.5000000000 8.5158843994 0.0241515506 51.907798767 68.448089600 0.0000000000 0.0956769735 4.6616520882  -999.250000 39.664520264 40.778369904 10.614060402 2.7306740284 13.103175163 -330.6896973  -999.250000  -999.250000 14.023241997  -999.250000  -999.250000 5.0000000000 0.0000000000 666.94519043 6.9999995232 75.492187500 28.070310593 0.0000000000  -999.250000
 4450.3847656 8.5000000000 8.5777759552 0.0297248904 52.442699432 68.347717285 0.0000000000 0.0774431825 4.9695839882  -999.250000 93.799171448 90.914779663 11.645019531 2.7211160660 12.638346672 -331.0018005  -999.250000  -999.250000 14.038476944  -999.250000  -999.250000 5.0000000000 0.0000000000 656.84368896 6.9999995232 75.000000000 27.999998093 0.0000000000  -999.250000
 4450.5371094 8.5000000000 8.6733655930 0.0576835498 52.723899841 61.270610809 0.0000000000 0.0506595895 5.2926239967  -999.250000 168.31559753 150.24459839 11.419960022 2.7287619114 12.173518181 -331.6191101  -999.250000  -999.250000 14.053710938  -999.250000  -999.250000 5.0000000000 0.0000000000 654.55468750 6.9999995232 74.851562500 27.999998093 0.0000000000  -999.250000
 4450.6894531 8.5000000000 8.7442092896 0.0892265737 52.465400696 53.792388916 0.0000000000 0.0384410210 5.7926640511  -999.250000 129.53999329 118.23580170 11.539759636 2.6845040321 11.708689690 -331.2496033  -999.250000  -999.250000 14.068945885  -999.250000  -999.250000 5.0000000000 0.0000000000 652.72656250 6.9999995232 74.242187500 27.999998093 0.0000000000  -999.250000
 4450.8417969 8.5000000000 8.8763694763 0.1119038016 52.293899536 49.070690155 0.0000000000 0.0377499387 6.1302170753  -999.250000 105.61350250 103.74410248 13.131509781 2.6804649830 11.243861198 -330.8161926  -999.250000  -999.250000 14.084179878  -999.250000  -999.250000 5.0000000000 0.0000000000 650.16406250 6.9999995232 74.000000000 27.999998093 0.0000000000  -999.250000
 4450.9946289 8.5000000000 9.0788927078 0.1152336001 52.192100525 47.854629517 0.0000000000 0.0406497605 5.9454498291  -999.250000 261.15090942 235.98440552 15.036820412 2.7575449944 10.777543068 -331.0032959  -999.250000  -999.250000 14.099463463  -999.250000  -999.250000 5.0000000000 0.0000000000 647.10742188 6.9999995232 74.000000000 27.999998093 0.0000000000  -999.250000
 4451.1469727 8.5000000000 8.9978561401 0.0940919071 52.379001617 47.718780518 0.0000000000 0.0463152006 5.7643008232  -999.250000 303.59609985 290.41711426 14.088170052 2.7163240910 9.6617536545 -331.7507019  -999.250000  -999.250000 14.070605278  -999.250000  -999.250000 5.0000000000 0.0000000000 644.64843750 6.9999995232 74.000000000 27.999998093 0.0000000000  -999.250000
 4451.2993164 8.5000000000 8.6250171661 0.0674508363 52.515495300 54.891918182 0.0000000000 0.0585936308 5.3703889847  -999.250000 110.25559998 114.79740143 12.206089973 2.7686419487 8.5221738815 -332.6206055  -999.250000  -999.250000 14.040137291  -999.250000  -999.250000 5.0000000000 0.0000000000 642.21093750 6.9999995232 73.802734375 27.802732468 0.0000000000  -999.250000
 4451.4516602 8.5000000000 8.5499591827 0.0485701300 52.942600250 63.899070740 0.0000000000 0.0789771378 4.6421360970  -999.250000 42.274131775 46.041278839 10.828840256 2.7608320713 7.3825950623 -332.7485046  -999.250000  -999.250000 14.009668350  -999.250000  -999.250000 5.0000000000 0.0000000000 639.77349854 6.9999995232 73.193359375 27.193359375 0.0000000000  -999.250000
 4451.6040039 8.5000000000 8.4964752197 0.0746368617 52.599899292 73.391799927 0.0000000000 0.0944067016 4.7026357651  -999.250000 49.715900421 53.707511902 9.7684783936 2.7989299297 6.2430157661 -332.6278992  -999.250000  -999.250000 13.979199409  -999.250000  -999.250000 5.0000000000 0.0000000000 637.33599854 6.9999995232 73.000000000 27.000000000 0.0000000000  -999.250000
 4451.7563477 8.5000000000 8.5281896591 0.1252453029 53.023399353 78.899230957 0.0000000000 0.0964213684 4.8183889389  -999.250000 33.878730774 36.964740753 9.1846885681 2.6792581081 5.1034364700 -332.9981995  -999.250000  -999.250000 13.948730469  -999.250000  -999.250000 5.0000000000 0.0000000000 634.89843750 6.9999995232 73.000000000 27.000000000 0.0000000000  -999.250000
 4451.9086914 8.5000000000 8.9095849991 0.1637489945 52.838100433 77.442459106 0.0000000000 0.0840239078 6.0184998512  -999.250000 28.672130585 31.737699509 9.2784757614 2.5498769283 3.9638569355 -333.0599060  -999.250000  -999.250000 13.918261528  -999.250000  -999.250000 5.0000000000 0.0000000000 632.46093750 6.9999995232 73.000000000 27.000000000 0.0000000000  -999.250000
 4452.0610352 8.5000000000 9.1492910385 0.1739628017 53.145698547 69.823661804 0.0000000000 0.0592113398 6.5546789169  -999.250000 93.789741516 97.680809021 10.799349785 2.6396489143 3.7333970070 -332.6955872  -999.250000  -999.250000 14.113622665  -999.250000  -999.250000 5.0000000000 0.0000000000 630.51171875 6.9999995232 72.755859375 27.000000000 0.0000000000  -999.250000
 4452.2133789 8.5000000000 9.1728448868 0.1576440036 53.760799408 58.600608826 0.0000000000 0.0396536104 6.8826270103  -999.250000 157.86799622 161.50129700 12.136079788 2.6312599182 4.8629798889 -333.6849060  -999.250000  -999.250000 14.646825790  -999.250000  -999.250000 5.0000000000 0.0000000000 629.29296875 6.9999995232 72.146476746 27.000000000 0.0000000000  -999.250000
 4452.3662109 8.5000000000 9.0853672028 0.1431370974 53.708198547 53.665451050 0.0000000000 0.0310974792 6.7421817780  -999.250000 177.82229614 190.28089905 13.318360329 2.7110040188 5.9961833954 -334.2438049  -999.250000  -999.250000 15.181737900  -999.250000  -999.250000 5.0000000000 0.0000000000 628.07031250 6.9999995232 71.535148621 27.000000000 0.0000000000  -999.250000
 4452.5185547 8.5000000000 9.1621751785 0.1248337999 53.880901337 50.574069977 0.0000000000 0.0259117708 6.7152280807  -999.250000 224.13049316 213.50950623 13.325400352 2.7121739388 7.1257667542 -333.7585144  -999.250000  -999.250000 15.714941025  -999.250000  -999.250000 5.0000000000 0.0000000000 628.70709229 6.9999995232 71.445312500 27.148437500 0.0000000000  -999.250000
 4452.6708984 8.5000000000 9.1357469559 0.1054555997 53.881801605 47.776508331 0.0000000000 0.0228973497 6.2796359062  -999.250000 320.63250732 294.12930298 12.715849876 2.7216150761 8.2553491592 -334.6864014  -999.250000  -999.250000 16.248144150  -999.250000  -999.250000 5.0000000000 0.0000000000 642.72265625 6.9999995232 75.101562500 28.367185593 0.0000000000  -999.250000
 4452.8232422 8.5000000000 9.0441722870 0.0846364871 54.069499969 46.386940002 0.0000000000 0.0208313707 5.8343038559  -999.250000 314.85308838 263.27191162 12.768099785 2.7342040539 9.3849325180 -335.4309082  -999.250000  -999.250000 16.781347275  -999.250000  -999.250000 5.0000000000 0.0000000000 631.25000000 6.9999995232 74.656250000 28.414060593 0.0000000000  -999.250000
 4452.9755859 8.5000000000 8.9985170364 0.0635744333 53.368099213 47.117080688 0.0000000000 0.0227165893 5.3721151352  -999.250000 227.81950378 208.04330444 12.834630013 2.7377860546 10.514515877 -335.0665894  -999.250000  -999.250000 17.314550400  -999.250000  -999.250000 5.0000000000 0.0000000000 592.25006104 6.9999995232 69.781250000 27.195312500 0.0000000000  -999.250000
 4453.1279297 8.5000000000 8.9218902588 0.0565083511 53.141300201 47.603908539 0.0000000000 0.0248863306 5.1661210060  -999.250000 154.63819885 154.77420044 12.565730095 2.7019019127 11.316720009 -335.3676147  -999.250000  -999.250000 17.553514481  -999.250000  -999.250000 5.0000000000 0.0000000000 583.95312500 6.9999995232 69.511718750 27.511716843 0.0000000000  -999.250000
