# LAS format log file from PETREL
# Project units are specified as depth units
#==================================================================
~Version information
VERS.   2.0:
WRAP.   NO:
#==================================================================
~Well
STRT .m      3460.8515625 :
STOP .m      4681.4233398 :
STEP .m     0.00000000 :
NULL .        -999.250000 :
COMP.           : COMPANY
WELL.  Torosa 1   : WELL
FLD.            : FIELD
LOC.            : LOCATION
SRVC.           : SERVICE COMPANY
DATE.  2017-10-02 11:49:47   : Log Export Date {yyyy-MM-dd HH:mm:ss}
PROV.           : PROVINCE
UWI.   Torosa 1   : UNIQUE WELL ID
API.            : API NUMBER
#==================================================================
~Curve
DEPT .m                   : DEPTH
BIT .in                   : BIT
CAL .in                   : CAL
DRHO .g/cm3               : DRHO
DTC .us/ft                : DTC
GR .gAPI                  : GR
NET .m                    : NET
NPHI .m3/m3               : NPHI
PEF .b/e                  : PEF
POTA .%                   : POTA
RESD .ohm.m               : RESD
RESM .ohm.m               : RESM
RESS .ohm.m               : RESS
RHOB .g/cm3               : RHOB
ROP .m/h                  : ROP
SP .mV                    : SP
THOR .ppm                 : THOR
URAN .ppm                 : URAN
WOB .kN                   : WOB
RFT .bar                  : RFT
Mobility .mD/cP           : Mobility
IC4 .%                    : IC4
NC5 .%                    : NC5
TGAS .%                   : TGAS
NC4 .%                    : NC4
C1 .%                     : C1
C3 .%                     : C3
IC5 .%                    : IC5
RCA ._                    : RCA
~Parameter
#==================================================================
~Ascii
# ...
 3688.8420410 8.5000000000 8.5494976044 0.0045724451 79.932296753 51.333408356 0.0000000000 0.1855534017 3.9234559536  -999.250000 2.4334061146 2.6597869396 2.2811601162 2.5888929367 33.556335449 -339.2551880  -999.250000  -999.250000 28.194408417  -999.250000  -999.250000 0.0000000000 0.0000000000 0.0000000000 0.0000000000 0.0000000000 0.0000000000 0.0000000000  -999.250000
 3688.9943848 8.5000000000 8.5496292114 0.0061719161 78.975303650 48.126819611 0.0000000000 0.1763454974 3.8947060108  -999.250000 2.1918790340 2.3942890167 2.0842509270 2.5763258934 32.961555481 -340.0368042  -999.250000  -999.250000 28.971363068  -999.250000  -999.250000 0.0000000000 0.0000000000 0.0000000000 0.0000000000 0.0000000000 0.0000000000 0.0000000000  -999.250000
 3689.1467285 8.5000000000 8.5797586441 0.0039366200 77.192100525 50.678001404 0.0000000000 0.1741779000 3.8536889553  -999.250000 1.6837290525 1.8487349749 1.6598680019 2.5486929417 32.559333801 -336.5282898  -999.250000  -999.250000 28.677196503  -999.250000  -999.250000 0.0000000000 0.0000000000 0.0000000000 0.0000000000 0.0000000000 1.0270994902 0.0000000000  -999.250000
 3689.2993164 8.5000000000 8.5492334366 -0.000893920 75.920303345 50.875469208 0.0000000000 0.1798707992 3.9084360600  -999.250000 1.8465479612 2.0320930481 1.8096950054 2.5704300404 32.163845062 -337.7503967  -999.250000  -999.250000 28.341503143  -999.250000  -999.250000 0.0000000000 0.0000000000 0.0000000000 0.0000000000 0.0000000000 2.0952146053 0.0000000000  -999.250000
 3689.4516602 8.5000000000 8.5491008759 -0.004882641 76.610496521 49.596988678 0.0000000000 0.1596390009 4.0005970001  -999.250000 3.0956170559 3.3950459957 2.7905030251 2.6035439968 31.768991470 -339.0530090  -999.250000  -999.250000 28.006347656  -999.250000  -999.250000 0.0000000000 0.0000000000 0.0000000000 0.0000000000 0.0000000000 3.1616208553 0.0000000000  -999.250000
 3689.6040039 8.5000000000 8.5491008759 -0.006228090 76.607101440 48.162170410 0.0000000000 0.1500069946 3.9779748917  -999.250000 2.5683050156 2.7973051071 2.3601970673 2.5518469810 31.374135971 -338.7532959  -999.250000  -999.250000 27.671190262  -999.250000  -999.250000 0.0000000000 0.0000000000 0.0000000000 0.0000000000 0.0000000000 4.2280268669 0.0000000000  -999.250000
 3689.7563477 8.5000000000 8.5386457443 -0.005479865 76.111495972 49.652271271 0.0000000000 0.1441057026 3.8852539063  -999.250000 1.7589739561 1.8955800533 1.7145309448 2.5151379108 30.979282379 -338.9938049  -999.250000  -999.250000 27.336034775  -999.250000  -999.250000 0.0000000000 0.0000000000 0.0000000000 0.0000000000 0.0000000000 5.2944331169 0.0000000000  -999.250000
 3689.9086914 8.5000000000 8.5339717865 -0.004724042 73.144500732 48.109268188 0.0000000000 0.1527056992 4.0222768784  -999.250000 3.1426339149 3.3637919426 2.8427639008 2.5847928524 30.584428787 -338.1926880  -999.250000  -999.250000 27.000877380  -999.250000  -999.250000 0.0000000000 0.0000000000 0.0000000000 0.0000000000 0.0000000000 6.3608393669 0.0000000000  -999.250000
 3690.0612793 8.5000000000 8.5271320343 -0.004930959 71.791603088 45.740489960 0.0000000000 0.1399690956 4.1081180573  -999.250000 4.6418452263 5.0163931847 3.8311860561 2.6054608822 30.812189102 -338.2503967  -999.250000  -999.250000 26.438451767  -999.250000  -999.250000 0.0000000000 0.0000000000 0.0000000000 0.0000000000 0.0000000000 6.9387202263 0.0000000000  -999.250000
 3690.2136230 8.5000000000 8.5339717865 -0.005935337 72.313301086 45.128700256 0.0000000000 0.1340219975 4.0290908813  -999.250000 2.3217749596 2.5083169937 2.2357289791 2.5505359173 31.966762543 -338.3764954  -999.250000  -999.250000 25.539623260  -999.250000  -999.250000 0.0000000000 0.0000000000 0.0000000000 0.0000000000 0.0000000000 6.7863764763 0.0000000000  -999.250000
 3690.3659668 8.5000000000 8.5475158691 -0.006215744 72.455200195 48.768489838 0.0000000000 0.1397158951 3.8638908863  -999.250000 1.7272650003 1.8997650146 1.7328460217 2.5265409946 33.121337891 -338.7507019  -999.250000  -999.250000 24.640794754  -999.250000  -999.250000 0.0000000000 0.0000000000 0.0000000000 0.0000000000 0.0000000000 6.6340332031 0.0000000000  -999.250000
 3690.5183105 8.5000000000 8.5122671127 -0.003186414 71.461196899 48.840671539 0.0000000000 0.1570439041 3.9081919193  -999.250000 3.5431029797 3.8036649227 3.1416540146 2.6200549603 34.275909424 -339.2456055  -999.250000  -999.250000 23.741968155  -999.250000  -999.250000 0.0000000000 0.0000000000 0.0000000000 0.0000000000 0.0000000000 6.4816894531 0.0000000000  -999.250000
 3690.6708984 8.5000000000 8.5260753632 -0.000387659 71.326301575 45.172439575 0.0000000000 0.1364323944 3.9825310707  -999.250000 7.7117819786 8.4081935883 5.5667967796 2.6395359039 35.432334900 -339.0021973  -999.250000  -999.250000 22.841699600  -999.250000  -999.250000 0.0000000000 0.0000000000 0.0000000000 0.0000000000 0.0000000000 6.3291015625 0.0000000000  -999.250000
 3690.8232422 8.5000000000 8.5409412384 0.0011262840 75.183197021 39.996540070 0.0000000000 0.1099155992 4.0123801231  -999.250000 10.743869781 11.802860260 6.6591019630 2.6506419182 36.586906433 -339.1301880  -999.250000  -999.250000 21.942871094  -999.250000  -999.250000 0.0000000000 0.0000000000 0.0000000000 0.0000000000 0.0000000000 6.1767582893 0.0000000000  -999.250000
 3690.9755859 8.5000000000 8.5258111954 0.0000863166 75.656700134 38.420799255 0.0000000000 0.1036406010 3.9491209984  -999.250000 4.7110671997 5.1336297989 3.5606091022 2.5772418976 37.741481781 -340.1004028  -999.250000  -999.250000 21.044042587  -999.250000  -999.250000 0.0000000000 0.0000000000 0.0000000000 0.0000000000 0.0000000000 6.0244145393 0.0000000000  -999.250000
 3691.1279297 8.5000000000 8.5256786346 -0.000109081 76.001800537 40.901229858 0.0000000000 0.1272684038 3.6781129837  -999.250000 1.8202919960 1.9965039492 1.8201349974 2.5727241039 39.634757996 -336.9627991  -999.250000  -999.250000 20.337108612  -999.250000  -999.250000 0.0000000000 0.0000000000 0.0000000000 0.0000000000 0.0000000000 5.2324223518 0.0000000000  -999.250000
 3691.2805176 8.5000000000 8.4904298782 0.0003783115 75.283203125 44.427490234 0.0000000000 0.1485984027 3.7447600365  -999.250000 2.5254580975 2.7747321129 2.4494719505 2.5824949741 41.672264099 -338.0617981  -999.250000  -999.250000 19.665721893  -999.250000  -999.250000 0.0000000000 0.0000000000 0.0000000000 0.0000000000 0.0000000000 4.3168950081 0.0000000000  -999.250000
 3691.4328613 8.5000000000 8.5033140182 0.0004179887 75.411293030 44.303901672 0.0000000000 0.1434638947 3.8268599510  -999.250000 3.5547609329 3.9276919365 3.2309310436 2.6069819927 43.706512451 -339.0577087  -999.250000  -999.250000 18.995409012  -999.250000  -999.250000 0.0000000000 0.0000000000 0.0000000000 0.0000000000 0.0000000000 3.4028322697 0.0000000000  -999.250000
 3691.5852051 8.5000000000 8.4959468842 0.0005452046 76.198799133 46.112548828 0.0000000000 0.1410789043 3.8473229408  -999.250000 2.6380710602 2.9420258999 2.4739100933 2.5699040890 45.740760803 -339.2463074  -999.250000  -999.250000 18.325098038  -999.250000  -999.250000 0.0000000000 0.0000000000 0.0000000000 0.0000000000 0.0000000000 2.4887697697 0.0000000000  -999.250000
 3691.7375488 8.5000000000 8.5139017105 -0.000734283 76.624504089 47.705181122 0.0000000000 0.1539950967 3.8077290058  -999.250000 1.7665369511 1.9782860279 1.7768510580 2.5441501141 47.775012970 -338.8143005  -999.250000  -999.250000 17.654785156  -999.250000  -999.250000 0.0000000000 0.0000000000 0.0000000000 0.0000000000 0.0000000000 1.5747071505 0.0000000000  -999.250000
 3691.8898926 8.5000000000 8.5106811523 -0.000774699 77.649803162 50.369289398 0.0000000000 0.1764661074 3.7411360741  -999.250000 2.7306480408 3.0711688995 2.5743451118 2.5704190731 49.809261322 -338.6875000  -999.250000  -999.250000 16.984472275  -999.250000  -999.250000 0.0000000000 0.0000000000 0.0000000000 0.0000000000 0.0000000000 0.6606445909 0.0000000000  -999.250000
 3692.0424805 8.5000000000 8.5041074753 -0.000958548 77.465499878 47.109100342 0.0000000000 0.1697517037 3.9400789738  -999.250000 4.3839187622 4.9284329414 3.6309649944 2.5901529789 50.921340942 -338.5625000  -999.250000  -999.250000 16.449024200  -999.250000  -999.250000 0.0000000000 0.0000000000 0.0000000000 0.0000000000 0.0000000000 0.0000000000 0.0000000000  -999.250000
