# LAS format log file from PETREL
# Project units are specified as depth units
#==================================================================
~Version information
VERS.   2.0:
WRAP.   NO:
#==================================================================
~Well
STRT .m      3460.8515625 :
STOP .m      4681.4233398 :
STEP .m     0.00000000 :
NULL .        -999.250000 :
COMP.           : COMPANY
WELL.  Torosa 1   : WELL
FLD.            : FIELD
LOC.            : LOCATION
SRVC.           : SERVICE COMPANY
DATE.  2017-10-02 11:49:47   : Log Export Date {yyyy-MM-dd HH:mm:ss}
PROV.           : PROVINCE
UWI.   Torosa 1   : UNIQUE WELL ID
API.            : API NUMBER
#==================================================================
~Curve
DEPT .m                   : DEPTH
BIT .in                   : BIT
CAL .in                   : CAL
DRHO .g/cm3               : DRHO
DTC .us/ft                : DTC
GR .gAPI                  : GR
NET .m                    : NET
NPHI .m3/m3               : NPHI
PEF .b/e                  : PEF
POTA .%                   : POTA
RESD .ohm.m               : RESD
RESM .ohm.m               : RESM
RESS .ohm.m               : RESS
RHOB .g/cm3               : RHOB
ROP .m/h                  : ROP
SP .mV                    : SP
THOR .ppm                 : THOR
URAN .ppm                 : URAN
WOB .kN                   : WOB
RFT .bar                  : RFT
Mobility .mD/cP           : Mobility
IC4 .%                    : IC4
NC5 .%                    : NC5
TGAS .%                   : TGAS
NC4 .%                    : NC4
C1 .%                     : C1
C3 .%                     : C3
IC5 .%                    : IC5
RCA ._                    : RCA
~Parameter
#==================================================================
~Ascii
# ...
 4677.9179688 8.5000000000 3.7572000027 0.4164642990  -999.250000 72.856742859 0.0000000000  -999.250000 0.9862135053  -999.250000  -999.250000  -999.250000  -999.250000  -999.250000 29.568571091 -320.2481079  -999.250000  -999.250000 21.483592987  -999.250000  -999.250000 2.8359377384 0.0000000000 132.35937500 3.7539062500 23.097658157 11.589844704 0.0000000000  -999.250000
 4678.0703125 8.5000000000 3.7572000027 0.4139468074  -999.250000 72.737083435 0.0000000000  -999.250000 1.0279459953  -999.250000  -999.250000  -999.250000  -999.250000  -999.250000 28.715040207 -319.9996033  -999.250000  -999.250000 21.830469131  -999.250000  -999.250000 2.7890627384 0.0000000000 130.34375000 3.7187500000 22.734376907 11.367188454 0.0000000000  -999.250000
 4678.2226563 8.5000000000 3.7572000027 0.4118202925  -999.250000 70.189849854 0.0000000000  -999.250000 1.0791139603  -999.250000  -999.250000  -999.250000  -999.250000  -999.250000 30.224483490 -319.6896973  -999.250000  -999.250000 22.546483994  -999.250000  -999.250000 2.3320314884 0.0000000000 122.42187500 3.1093750000 19.992189407 9.9960947037 0.0000000000  -999.250000
 4678.3750000 8.5000000000 3.7572000027 0.4089331925  -999.250000 66.705520630 0.0000000000  -999.250000 1.1420459747  -999.250000  -999.250000  -999.250000  -999.250000  -999.250000 31.733924866 -319.7587891  -999.250000  -999.250000 23.262500763  -999.250000  -999.250000 1.8750001192 0.0000000000 114.50000000 2.5000000000 17.250001907 8.6250009537 0.0000000000  -999.250000
 4678.5278320 8.5000000000 3.7572000027 0.4061766863  -999.250000 65.917457581 0.0000000000  -999.250000 1.2168799639  -999.250000  -999.250000  -999.250000  -999.250000  -999.250000 33.248207092 -321.3114014  -999.250000  -999.250000 23.980810165  -999.250000  -999.250000 1.4165040255 0.0000000000 106.55273438 1.8886718750 14.499024391 7.2495121956 0.0000000000  -999.250000
 4678.6801758 8.5000000000 3.7572000027 0.4033234119  -999.250000 67.555267334 0.0000000000  -999.250000 1.3073710203  -999.250000  -999.250000  -999.250000  -999.250000  -999.250000 34.757648468 -322.6801147  -999.250000  -999.250000 24.696826935  -999.250000  -999.250000 0.9594727159 0.0000000000 98.630859375 1.2792968750 11.756836891 5.8784184456 0.0000000000  -999.250000
 4678.8325195 8.5000000000 3.7572000027 0.4009301066  -999.250000 69.045913696 0.0000000000  -999.250000 1.4197880030  -999.250000  -999.250000  -999.250000  -999.250000  -999.250000 36.267089844 -322.8106995  -999.250000  -999.250000 25.412841797  -999.250000  -999.250000 0.5024414659 0.0000000000 90.708984375 0.6699218750 9.0146493912 4.5073246956 0.0000000000  -999.250000
 4678.9848633 8.5000000000 3.7572000027 0.3977325857  -999.250000 72.422477722 0.0000000000  -999.250000 1.5621279478  -999.250000  -999.250000  -999.250000  -999.250000  -999.250000 37.776535034 -322.6268005  -999.250000  -999.250000 26.128858566  -999.250000  -999.250000 0.0454101600 0.0000000000 82.787109375 0.0605468750 6.2724614143 3.1362307072 0.0000000000  -999.250000
 4679.1372070 8.5000000000 3.7572000027 0.3943415880  -999.250000 84.013442993 0.0000000000  -999.250000 1.7401740551  -999.250000  -999.250000  -999.250000  -999.250000  -999.250000 39.691112518 -322.7467041  -999.250000  -999.250000 25.404199600  -999.250000  -999.250000 0.6860351563 0.0000000000 123.57373047 0.9604491591 11.899903297 5.8813481331 0.0000000000  -999.250000
 4679.2895508 8.5000000000 3.7572000027 0.3921580017  -999.250000 100.34249878 0.0000000000  -999.250000 1.9587780237  -999.250000  -999.250000  -999.250000  -999.250000  -999.250000 41.650390625 -322.3150940  -999.250000  -999.250000 24.520605087  -999.250000  -999.250000 1.4477539063 0.0000000000 169.73388672 2.0268552303 18.450685501 9.0805673599 0.0000000000  -999.250000
 4679.4418945 8.5000000000 3.7572000027 0.3907988071  -999.250000 120.43699646 0.0000000000  -999.250000 2.2158520222  -999.250000  -999.250000  -999.250000  -999.250000  -999.250000 43.609664917 -322.3117981  -999.250000  -999.250000 23.637012482  -999.250000  -999.250000 2.2094726563 0.0000000000 215.89404297 3.0932614803 25.001466751 12.279786110 0.0000000000  -999.250000
 4679.5942383 8.5000000000 3.7572000027 0.3939064145  -999.250000 135.28500366 0.0000000000  -999.250000 2.5082509518  -999.250000  -999.250000  -999.250000  -999.250000  -999.250000 45.568943024 -322.1856995  -999.250000  -999.250000 22.753417969  -999.250000  -999.250000 2.9711914063 0.0000000000 262.05419922 4.1596674919 31.552248001 15.479004860 0.0000000000  -999.250000
 4679.7465820 8.5000000000 3.7572000027 1.1056599617  -999.250000 138.59500122 0.0000000000  -999.250000 2.7900791168  -999.250000  -999.250000  -999.250000  -999.250000  -999.250000 47.528217316 -321.7500000  -999.250000  -999.250000 21.869823456  -999.250000  -999.250000 3.7329101563 0.0000000000 308.21435547 5.2260737419 38.103031158 18.678224564 0.0000000000  -999.250000
 4679.8994141 8.5000000000 3.7572000027 1.8225220442  -999.250000 128.25610352 0.0000000000  -999.250000 3.0142889023  -999.250000  -999.250000  -999.250000  -999.250000  -999.250000 49.493774414 -321.3164978  -999.250000  -999.250000 20.983398438  -999.250000  -999.250000 4.4970703125 0.0000000000 354.52246094 6.2958979607 44.674808502 21.887697220 0.0000000000  -999.250000
 4680.0517578 8.5000000000 3.7572000027  -999.250000  -999.250000 111.55979919 0.0000000000  -999.250000  -999.250000  -999.250000  -999.250000  -999.250000  -999.250000  -999.250000 49.846656799 -321.5621033  -999.250000  -999.250000 20.746776581  -999.250000  -999.250000 5.0517578125 0.0000000000 385.00000000 7.1035151482 49.310550690 24.207033157 0.0000000000  -999.250000
 4680.2041016 8.5000000000 3.7572000027  -999.250000  -999.250000 107.27649689 0.0000000000  -999.250000  -999.250000  -999.250000  -999.250000  -999.250000  -999.250000  -999.250000 47.077678680 -321.7460022  -999.250000  -999.250000 21.767480850  -999.250000  -999.250000 5.2041015625 0.0000000000 385.00000000 7.4082026482 50.224613190 24.816408157 0.0000000000  -999.250000
 4680.3564453 8.5000000000 3.7572000027  -999.250000  -999.250000 111.41290283 0.0000000000  -999.250000  -999.250000  -999.250000  -999.250000  -999.250000  -999.250000  -999.250000 44.308704376 -321.2419128  -999.250000  -999.250000 22.788183212  -999.250000  -999.250000 5.3564453125 0.0000000000 385.00000000 7.7128901482 51.138675690 25.425781250 0.0000000000  -999.250000
 4680.5087891 8.5000000000 3.7572000027  -999.250000  -999.250000 120.73750305 0.0000000000  -999.250000  -999.250000  -999.250000  -999.250000  -999.250000  -999.250000  -999.250000 41.539726257 -319.3941040  -999.250000  -999.250000 23.808887482  -999.250000  -999.250000 5.5087895393 0.0000000000 385.00000000 8.0175771713 52.052734375 26.035156250 0.0000000000  -999.250000
 4680.6611328 8.5000000000 3.7572000027  -999.250000  -999.250000 124.00260162 0.0000000000  -999.250000  -999.250000  -999.250000  -999.250000  -999.250000  -999.250000  -999.250000 38.770748138 -320.7460022  -999.250000  -999.250000 24.829589844  -999.250000  -999.250000 5.6611332893 0.0000000000 385.00000000 8.3222646713 52.966796875 26.644531250 0.0000000000  -999.250000
 4680.8134766 8.5000000000 3.7572000027  -999.250000  -999.250000 124.80999756 0.0000000000  -999.250000  -999.250000  -999.250000  -999.250000  -999.250000  -999.250000  -999.250000 36.001770020 -321.4331055  -999.250000  -999.250000 25.850294113  -999.250000  -999.250000 5.8134770393 0.0000000000 385.00000000 8.6269521713 53.880859375 27.253904343 0.0000000000  -999.250000
 4680.9658203 8.5000000000 3.7572000027  -999.250000  -999.250000 125.85179901 0.0000000000  -999.250000  -999.250000  -999.250000  -999.250000  -999.250000  -999.250000  -999.250000 33.232795715 -321.3753967  -999.250000  -999.250000 26.870996475  -999.250000  -999.250000 5.9658207893 0.0000000000 385.00000000 8.9316396713 54.794921875 27.863279343 0.0000000000  -999.250000
 4681.1181641 8.5000000000 3.7572000027  -999.250000  -999.250000 124.82409668 0.0000000000  -999.250000  -999.250000  -999.250000  -999.250000  -999.250000  -999.250000  -999.250000 32.274269104 -321.3750000  -999.250000  -999.250000 25.989257813  -999.250000  -999.250000 5.6455082893 0.0000000000 360.77636719 8.4091787338 51.100585938 25.991209030 0.0000000000  -999.250000
