# LAS format log file from PETREL
# Project units are specified as depth units
#==================================================================
~Version information
VERS.   2.0:
WRAP.   NO:
#==================================================================
~Well
STRT .m      3460.8515625 :
STOP .m      4681.4233398 :
STEP .m     0.00000000 :
NULL .        -999.250000 :
COMP.           : COMPANY
WELL.  Torosa 1   : WELL
FLD.            : FIELD
LOC.            : LOCATION
SRVC.           : SERVICE COMPANY
DATE.  2017-10-02 11:49:47   : Log Export Date {yyyy-MM-dd HH:mm:ss}
PROV.           : PROVINCE
UWI.   Torosa 1   : UNIQUE WELL ID
API.            : API NUMBER
#==================================================================
~Curve
DEPT .m                   : DEPTH
BIT .in                   : BIT
CAL .in                   : CAL
DRHO .g/cm3               : DRHO
DTC .us/ft                : DTC
GR .gAPI                  : GR
NET .m                    : NET
NPHI .m3/m3               : NPHI
PEF .b/e                  : PEF
POTA .%                   : POTA
RESD .ohm.m               : RESD
RESM .ohm.m               : RESM
RESS .ohm.m               : RESS
RHOB .g/cm3               : RHOB
ROP .m/h                  : ROP
SP .mV                    : SP
THOR .ppm                 : THOR
URAN .ppm                 : URAN
WOB .kN                   : WOB
RFT .bar                  : RFT
Mobility .mD/cP           : Mobility
IC4 .%                    : IC4
NC5 .%                    : NC5
TGAS .%                   : TGAS
NC4 .%                    : NC4
C1 .%                     : C1
C3 .%                     : C3
IC5 .%                    : IC5
RCA ._                    : RCA
~Parameter
#==================================================================
~Ascii
# ...
 4221.9370117 8.5000000000 8.5940961838 -0.005786697 89.213897705 111.07150269 0.0000000000 0.3075529933 2.8804709911  -999.250000 2.2050590515 2.4304680824 2.1290779114 2.5819280148 112.98577881 -340.1304932  -999.250000  -999.250000 25.752784729  -999.250000  -999.250000 7.9370117188 0.0000000000 1552.1424561 9.9370117188 168.60644531 73.992187500 0.0000000000  -999.250000
 4222.0898438 8.5000000000 8.5927753448 -0.006523626 89.386497498 112.65760040 0.0000000000 0.3158937991 2.9807500839  -999.250000 2.2116510868 2.4466629028 2.1361839771 2.5706660748 113.78631592 -340.8074036  -999.250000  -999.250000 25.993360519  -999.250000  -999.250000 8.0898437500 0.0000000000 1574.9842529 10.089843750 172.43750000 75.539062500 0.0000000000  -999.250000
 4222.2421875 8.5000000000 8.5914535522 -0.004865886 89.883102417 112.43229675 0.0000000000 0.3047313094 2.9127290249  -999.250000 2.2243859768 2.4822690487 2.1589848995 2.5880959034 111.96199036 -340.6264954  -999.250000  -999.250000 25.642969131  -999.250000  -999.250000 8.2421875000 0.0000000000 1590.2186279 10.242187500 174.87500000 76.453125000 0.0000000000  -999.250000
 4222.3945313 8.5000000000 8.5723924637 -0.004534792 90.448692322 110.10880280 0.0000000000 0.3227415085 2.9470450878  -999.250000 2.3070950508 2.5589859486 2.1808030605 2.5816240311 110.13766479 -340.6933899  -999.250000  -999.250000 25.292577744  -999.250000  -999.250000 8.3945312500 0.0000000000 1605.4530029 10.394531250 177.31250000 77.367187500 0.0000000000  -999.250000
 4222.5468750 8.5000000000 8.5938320160 -0.001532728 90.792098999 111.53420258 0.0000000000 0.3096725047 2.9173688889  -999.250000 2.3987109661 2.6575970650 2.2228200436 2.5745360851 108.31333923 -341.7228088  -999.250000  -999.250000 24.942188263  -999.250000  -999.250000 8.5468740463 0.0000000000 1620.6875000 10.546875000 179.75001526 78.281257629 0.0000000000  -999.250000
 4222.6992188 8.5000000000 8.5933036804 -0.000362565 90.330001831 112.56109619 0.0000000000 0.3011113107 2.9883420467  -999.250000 2.4816870689 2.7708899975 2.2719449997 2.5839209557 106.48901367 -338.2195129  -999.250000  -999.250000 24.591796875  -999.250000  -999.250000 8.6992177963 0.0000000000 1635.9218750 10.699218750 182.18751526 79.195320129 0.0000000000  -999.250000
 4222.8515625 8.5000000000 8.5823192596 -0.000912207 91.320701599 114.80130005 0.0000000000 0.2830316126 3.0602610111  -999.250000 2.4242930412 2.6982009411 2.2331581116 2.6003971100 104.66469574 -340.0497131  -999.250000  -999.250000 24.241405487  -999.250000  -999.250000 8.8515615463 0.0000000000 1651.1562500 10.851562500 184.62501526 80.109382629 0.0000000000  -999.250000
 4223.0039063 8.5000000000 8.5859355927 -0.002459749 91.451698303 114.52140045 0.0000000000 0.3021388948 2.9428489208  -999.250000 2.1262960434 2.3711409569 2.0265479088 2.5579369068 102.93199921 -339.7481995  -999.250000  -999.250000 23.897655487  -999.250000  -999.250000 8.9999990463 0.0000000000 1666.2734375 11.000000000 187.03907776 81.015632629 0.0000000000  -999.250000
 4223.1562500 8.5000000000 8.5938320160 -0.002505242 89.611396790 115.23940277 0.0000000000 0.3244074881 2.7731289864  -999.250000 2.0859489441 2.3243739605 2.0113489628 2.5710749626 104.68135071 -339.1308899  -999.250000  -999.250000 23.806249619  -999.250000  -999.250000 8.9999990463 0.0000000000 1676.9375000 11.000000000 188.56251526 81.625007629 0.0000000000  -999.250000
 4223.3085938 8.5000000000 8.5943603516 -0.001497488 87.905296326 113.33969879 0.0000000000 0.3131253123 2.8047740459  -999.250000 2.1397519112 2.3780369759 2.0760509968 2.5777609348 106.43070984 -339.5018005  -999.250000  -999.250000 23.714843750  -999.250000  -999.250000 8.9999990463 0.0000000000 1687.6015625 11.000000000 190.08595276 82.234382629 0.0000000000  -999.250000
 4223.4614258 8.5000000000 8.5861997604 -0.002042933 78.972404480 110.54060364 0.0000000000 0.2888646126 2.8994369507  -999.250000 2.2015359402 2.4330470562 2.1283400059 2.6055469513 108.18566895 -340.1856995  -999.250000  -999.250000 23.623144150  -999.250000  -999.250000 8.9999990463 0.0000000000 1698.2998047 11.000000000 191.61427307 82.845710754 0.0000000000  -999.250000
 4223.6137695 8.5000000000 8.5797586441 -0.003077201 73.199699402 109.55570221 0.0000000000 0.2767235935 2.9637711048  -999.250000 2.2203910351 2.4337389469 2.1691238880 2.5939600468 109.93502045 -340.5584106  -999.250000  -999.250000 23.531738281  -999.250000  -999.250000 8.9999990463 0.0000000000 1708.9639893 11.000000000 193.13769531 83.455085754 0.0000000000  -999.250000
 4223.7661133 8.5000000000 8.6015949249 -0.005528849 89.231903076 109.94100189 0.0000000000 0.2914937139 2.9716711044  -999.250000 2.1865251064 2.3869779110 2.1474320889 2.5409870148 111.68437195 -340.2536926  -999.250000  -999.250000 23.440330505  -999.250000  -999.250000 8.9999990463 0.0000000000 1719.6280518 11.000000000 194.66113281 84.064460754 0.0000000000  -999.250000
 4223.9184570 8.5000000000 8.6005382538 0.0012802180 88.391090393 111.01599884 0.0000000000 0.3144947886 3.0526409149  -999.250000 2.1648240089 2.3703110218 2.1266670227 2.5368568897 113.43372345 -340.5639954  -999.250000  -999.250000 23.348924637  -999.250000  -999.250000 8.9999990463 0.0000000000 1730.2921143 11.000000000 196.18457031 84.673835754 0.0000000000  -999.250000
 4224.0708008 8.5000000000 8.5865955353 0.0152343502 88.449897766 103.48860168 0.0000000000 0.3205237985 3.0254509449  -999.250000 2.1454350948 2.3359858990 2.1038661003 2.5246810913 114.14244080 -341.1153870  -999.250000  -999.250000 23.002635956  -999.250000  -999.250000 9.0707998276 0.0000000000 1739.3985596 11.070800781 197.49560547 85.212409973 0.0000000000  -999.250000
 4224.2231445 8.5000000000 8.5797586441 0.0215861797 89.173599243 88.335456848 0.0000000000 0.2894231081 3.5219368935  -999.250000 2.6176910400 2.8414330482 2.4064159393 2.6184120178 113.65261841 -340.0686951  -999.250000  -999.250000 22.362792969  -999.250000  -999.250000 9.2231435776 0.0000000000 1746.7110596 11.223144531 198.56201172 85.669441223 0.0000000000  -999.250000
 4224.3754883 8.5000000000 8.5933036804 0.0182400402 80.579498291 65.620407104 0.0000000000 0.1861176044 4.9938530922  -999.250000 10.304590225 11.109230042 5.2594809532 2.8289771080 113.16280365 -340.0610046  -999.250000  -999.250000 21.722948074  -999.250000  -999.250000 9.3754873276 0.0000000000 1754.0235596 11.375488281 199.62841797 86.126472473 0.0000000000  -999.250000
 4224.5278320 8.5000000000 8.5569972992 0.0112354504 86.046997070 48.857448578 0.0000000000 0.1431155950 6.4066319466  -999.250000 23.353120804 24.897399902 7.9639201164 3.3074879646 112.67298126 -339.8175964  -999.250000  -999.250000 21.083105087  -999.250000  -999.250000 9.5278320313 0.0000000000 1761.3359375 11.527832985 200.69482422 86.583496094 0.0000000000  -999.250000
 4224.6801758 8.5000000000 8.5571289063 0.0263134595 87.753303528 41.428791046 0.0000000000 0.1421923041 6.3558468819  -999.250000 21.028749466 22.403020859 7.7718558311 3.0386610031 112.18316650 -340.4323120  -999.250000  -999.250000 20.443262100  -999.250000  -999.250000 9.6801757813 0.0000000000 1768.6484375 11.680176735 201.76123047 87.040527344 0.0000000000  -999.250000
 4224.8330078 8.5000000000 8.6092252731 0.0373402908 88.992401123 51.064441681 0.0000000000 0.1591784060 5.1535801888  -999.250000 14.130949974 15.027779579 6.0987110138 2.8657729626 111.69178009 -340.1856995  -999.250000  -999.250000 19.801366806  -999.250000  -999.250000 9.8330078125 0.0000000000 1775.9843750 11.833008766 202.83105469 87.499023438 0.0000000000  -999.250000
 4224.9853516 8.5000000000 8.6465892792 0.0343753994 88.958602905 70.627029419 0.0000000000 0.1820690036 4.2557477951  -999.250000 3.1849429607 3.4762480259 2.8130869865 2.7187600136 111.20195770 -339.6271973  -999.250000  -999.250000 19.161523819  -999.250000  -999.250000 9.9853515625 0.0000000000 1783.2968750 11.985352516 203.89746094 87.956054688 0.0000000000  -999.250000
 4225.1376953 8.5000000000 8.6017265320 0.0148457102 88.700897217 91.783111572 0.0000000000 0.2249782979 3.1312460899  -999.250000 2.0988500118 2.2904989719 2.1204960346 2.5872769356 106.67343903 -339.4429932  -999.250000  -999.250000 18.604297638  -999.250000  -999.250000 10.000000000 0.0000000000 1791.5732422 12.137696266 204.96386719 88.550781250 0.0000000000  -999.250000
