# LAS format log file from PETREL
# Project units are specified as depth units
#==================================================================
~Version information
VERS.   2.0:
WRAP.   NO:
#==================================================================
~Well
STRT .m      3460.8515625 :
STOP .m      4681.4233398 :
STEP .m     0.00000000 :
NULL .        -999.250000 :
COMP.           : COMPANY
WELL.  Torosa 1   : WELL
FLD.            : FIELD
LOC.            : LOCATION
SRVC.           : SERVICE COMPANY
DATE.  2017-10-02 11:49:47   : Log Export Date {yyyy-MM-dd HH:mm:ss}
PROV.           : PROVINCE
UWI.   Torosa 1   : UNIQUE WELL ID
API.            : API NUMBER
#==================================================================
~Curve
DEPT .m                   : DEPTH
BIT .in                   : BIT
CAL .in                   : CAL
DRHO .g/cm3               : DRHO
DTC .us/ft                : DTC
GR .gAPI                  : GR
NET .m                    : NET
NPHI .m3/m3               : NPHI
PEF .b/e                  : PEF
POTA .%                   : POTA
RESD .ohm.m               : RESD
RESM .ohm.m               : RESM
RESS .ohm.m               : RESS
RHOB .g/cm3               : RHOB
ROP .m/h                  : ROP
SP .mV                    : SP
THOR .ppm                 : THOR
URAN .ppm                 : URAN
WOB .kN                   : WOB
RFT .bar                  : RFT
Mobility .mD/cP           : Mobility
IC4 .%                    : IC4
NC5 .%                    : NC5
TGAS .%                   : TGAS
NC4 .%                    : NC4
C1 .%                     : C1
C3 .%                     : C3
IC5 .%                    : IC5
RCA ._                    : RCA
~Parameter
#==================================================================
~Ascii
# ...
 4372.8129883 8.5000000000 8.3018970490 0.0008135284 72.995002747 90.280937195 0.0000000000 0.1493376046 3.3754179478  -999.250000 18.760719299 16.711280823 6.7906618118 2.4410490990 32.259086609 -306.5632019  -999.250000  -999.250000 4.2488279343 6608.6088867 1399.5544434 85.251960754 0.0000000000 19152.203125 90.251945496 2099.0236816 514.75579834 0.0000000000 1.0000000000
 4372.9658203 8.5000000000 8.3311004639 0.0105246799 71.830902100 79.600097656 0.0000000000 0.1383070052 3.4584660530  -999.250000 23.163129807 20.823930740 6.9378108978 2.5107240677 31.045652390 -306.5614014  -999.250000  -999.250000 3.8820312023 6607.9101563 1425.8923340 85.863281250 0.0000000000 19215.781250 90.863281250 2106.3593750 516.58984375 0.0000000000 1.0000000000
 4373.1181641 8.5000000000 8.3312320709 0.0168402698 70.241500854 75.617492676 0.0000000000 0.1446855962 3.1189908981  -999.250000 32.936080933 30.119590759 8.2469167709 2.6076109409 33.011177063 -306.3859863  -999.250000  -999.250000 3.9063475132 6607.2133789 1452.1459961 86.000000000 0.0000000000 19185.097656 91.000000000 2108.0000000 517.00000000 0.0000000000 1.0000000000
 4373.2705078 8.5000000000 8.3916206360 0.0111141698 70.741600037 91.363502502 0.0000000000 0.1679888964 2.5007269382  -999.250000 34.289230347 32.778900146 8.9809246063 2.6226050854 35.895114899 -308.0610046  -999.250000  -999.250000 4.0434570313 6606.5170898 1478.3997803 86.000000000 0.0000000000 19107.765625 91.000000000 2108.0000000 517.00000000 0.0000000000 1.0000000000
 4373.4228516 8.5000000000 8.4127969742 0.0011174270 71.189002991 125.89810181 0.0000000000 0.1921330988 2.2791030407  -999.250000 28.951990128 28.542640686 8.9137306213 2.5977580547 38.779048920 -309.4923096  -999.250000  -999.250000 4.1805663109 6605.8203125 1504.6534424 86.000000000 0.0000000000 18905.453125 91.000000000 2108.0000000 517.00000000 0.0000000000 1.0000000000
 4373.5751953 8.5000000000 8.4364824295 -0.000250449 71.967498779 161.85710144 0.0000000000 0.2165647000 2.2582581043  -999.250000 25.946979523 25.718620300 8.6346483231 2.5800809860 41.662982941 -309.6250000  -999.250000  -999.250000 4.3176755905 6605.1235352 1530.9071045 86.300781250 0.0000000000 18557.863281 91.000000000 2095.9687500 515.19531250 0.0000000000 1.0000000000
 4373.7275391 8.5000000000 8.4478635788 0.0018501030 72.561500549 181.49659729 0.0000000000 0.2139288038 2.2685379982  -999.250000 24.319320679 23.538959503 8.6519041061 2.5713980198 44.546920776 -309.7434082  -999.250000  -999.250000 4.4547848701 6604.4272461 1557.1608887 86.910156250 0.0000000000 18061.222656 91.000000000 2071.5937500 511.53906250 0.0000000000 1.0000000000
 4373.8798828 8.5000000000 8.4224090576 0.0021467630 73.885002136 181.18179321 0.0000000000 0.2150857002 2.1927030087  -999.250000 23.484569550 21.794649124 8.8520851135 2.5685589314 47.430850983 -308.7459106  -999.250000  -999.250000 4.5918941498 6603.7304688 1583.4145508 87.000000000 0.0000000000 17426.906250 91.000000000 2052.9335938 508.92187500 0.0000000000 1.0000000000
 4374.0322266 8.5000000000 8.4366149902 0.0023977789 75.132896423 169.43559265 0.0000000000 0.2123375982 2.3167610168  -999.250000 26.710460663 23.469869614 9.0045852661 2.6110739708 50.614002228 -307.0650940  -999.250000  -999.250000 4.7999019623 6603.0336914 1609.6683350 87.000000000 0.0000000000 16749.960938 91.000000000 2038.8710938 507.00000000 0.0000000000 1.0000000000
 4374.1845703 8.5000000000 8.3782081604 0.0001290968 75.357604980 154.62219238 0.0000000000 0.2144640982 2.3541920185  -999.250000 35.835491180 28.787509918 9.4736518860 2.6187529564 54.912414551 -305.8172913  -999.250000  -999.250000 5.2721676826 6602.3374023 1635.9219971 87.000000000 0.0000000000 16002.868164 91.000000000 2038.2615967 507.00000000 0.0000000000 1.0000000000
 4374.3374023 8.5000000000 8.3803720474 -0.001189946 76.269096375 124.33429718 0.0000000000 0.1967466027 3.2092831135  -999.250000 85.797737122 50.854259491 10.090909958 2.6499991417 59.224609375 -305.3797913  -999.250000  -999.250000 5.7459473610 6601.6386719 1662.2598877 87.000000000 0.0000000000 15304.073242 91.000000000 2037.9998779 507.00000000 0.0000000000 1.0000000000
 4374.4897461 8.5000000000 8.3458337784 -0.002322817 78.825798035 89.377357483 0.0000000000 0.1542100012 4.0498418808  -999.250000 112.46269989 57.302520752 8.8078193665 2.5527160168 63.523021698 -305.7528992  -999.250000  -999.250000 6.2182130814 6600.9418945 1688.5135498 87.000000000 0.0000000000 14645.338867 91.000000000 2037.9998779 507.00000000 0.0000000000 1.0000000000
 4374.6420898 8.5000000000 8.3164978027 -0.006388339 78.616500854 58.249900818 1.0000000000 0.1034891009 2.8962860107  -999.250000 104.32610321 56.321659088 8.3175325394 2.2565360069 67.821434021 -306.6199036  -999.250000  -999.250000 6.6904788017 6600.2451172 1714.7672119 87.000000000 0.0000000000 14373.656250 91.000000000 2037.9998779 507.00000000 0.0000000000 1.0000000000
 4374.7944336 8.5000000000 8.3166303635 -0.008956793 78.859199524 39.487529755 1.0000000000 0.0802296028 2.8448150158  -999.250000 94.780921936 54.991710663 8.2840623856 2.2285420895 72.119842529 -306.6210022  -999.250000  -999.250000 7.1627440453 6599.5488281 1741.0209961 84.511718750 0.0000000000 14213.440430 88.511718750 1951.7987061 488.51562500 0.0000000000 1.0000000000
 4374.9467773 8.5000000000 8.3162336349 -0.010919280 79.232803345 34.783550262 1.0000000000 0.0809742287 2.6536750793  -999.250000 53.058750153 34.119491577 6.6187009811 2.1867918968 76.418258667 -305.9375000  -999.250000  -999.250000 7.6350097656 6598.8520508 1767.2746582 75.980468750 0.0000000000 14256.096680 79.980468750 1656.2519531 425.14062500 0.0000000000 1.0000000000
 4375.0991211 8.5000000000 8.3029537201 -0.009235232 77.671798706 36.572799683 1.0000000000 0.0998986736 2.8133790493  -999.250000 20.581329346 15.247779846 4.2647252083 2.2078020573 74.840293884 -305.2492981  -999.250000  -999.250000 7.5224609375 6598.8579102 1709.9765625 72.207031250 0.0000000000 14441.487305 76.603515625 1534.7617188 399.03515625 0.0000000000 1.0000000000
 4375.2514648 8.5000000000 8.3158378601 -0.005548601 76.833099365 40.839641571 1.0000000000 0.1216681004 2.8940138817  -999.250000 29.741760254 24.003459930 5.4733448029 2.3103630543 70.107048035 -304.4407959  -999.250000  -999.250000 7.0958986282 6599.0595703 1629.3760986 71.000000000 0.0000000000 14704.708984 76.000007629 1506.9941406 393.00000000 0.0000000000 1.0000000000
 4375.4038086 8.5000000000 8.3162336349 -0.002053661 75.165000916 52.605369568 1.0000000000 0.1276876926 3.0827929974  -999.250000 48.765369415 40.762969971 7.5270490646 2.4395570755 65.373794556 -304.1889954  -999.250000  -999.250000 6.6693358421 6599.2612305 1548.7756348 71.000000000 0.0000000000 15090.444336 76.000007629 1506.3847656 393.00000000 0.0000000000 1.0000000000
 4375.5566406 8.5000000000 8.3325538635 0.0018776390 74.275596619 75.523887634 0.0000000000 0.1287506968 2.9478940964  -999.250000 46.322021484 39.670711517 7.2121968269 2.4898889065 60.625370026 -304.1955872  -999.250000  -999.250000 6.2414064407 6599.4633789 1467.9167480 71.000000000 0.0000000000 15495.993164 76.000007629 1506.0000000 393.00000000 0.0000000000 1.0000000000
 4375.7089844 8.5000000000 8.3916206360 0.0020537269 75.067497253 99.132331848 0.0000000000 0.1337642074 2.7024459839  -999.250000 36.113590240 31.990930557 6.2197031975 2.4775669575 55.892116547 -305.5526123  -999.250000  -999.250000 5.8148436546 6599.6650391 1387.3162842 71.000000000 0.0000000000 15931.694336 76.000007629 1506.0000000 393.00000000 0.0000000000 1.0000000000
 4375.8613281 8.5000000000 8.3699159622 0.0009307716 75.267196655 111.96019745 0.0000000000 0.1426364928 2.6940701008  -999.250000 43.234771729 37.742881775 6.3534011841 2.5428628922 51.158866882 -305.2452087  -999.250000  -999.250000 5.3882813454 6599.8662109 1306.7156982 72.335937500 0.0000000000 16371.850586 76.890632629 1544.2968750 401.46093750 0.0000000000 1.0000000000
 4376.0136719 8.5000000000 8.3833293915 -0.000226956 74.067298889 112.52300262 0.0000000000 0.1412615031 3.0984139442  -999.250000 92.201812744 75.117370605 9.2787437439 2.5734119415 46.845462799 -304.1278992  -999.250000  -999.250000 4.9986329079 6600.0678711 1226.1152344 74.492187500 0.0000000000 16811.023438 78.437500000 1606.0001221 415.11718750 0.0000000000 1.0000000000
