# LAS format log file from PETREL
# Project units are specified as depth units
#==================================================================
~Version information
VERS.   2.0:
WRAP.   NO:
#==================================================================
~Well
STRT .m      3460.8515625 :
STOP .m      4681.4233398 :
STEP .m     0.00000000 :
NULL .        -999.250000 :
COMP.           : COMPANY
WELL.  Torosa 1   : WELL
FLD.            : FIELD
LOC.            : LOCATION
SRVC.           : SERVICE COMPANY
DATE.  2017-10-02 11:49:47   : Log Export Date {yyyy-MM-dd HH:mm:ss}
PROV.           : PROVINCE
UWI.   Torosa 1   : UNIQUE WELL ID
API.            : API NUMBER
#==================================================================
~Curve
DEPT .m                   : DEPTH
BIT .in                   : BIT
CAL .in                   : CAL
DRHO .g/cm3               : DRHO
DTC .us/ft                : DTC
GR .gAPI                  : GR
NET .m                    : NET
NPHI .m3/m3               : NPHI
PEF .b/e                  : PEF
POTA .%                   : POTA
RESD .ohm.m               : RESD
RESM .ohm.m               : RESM
RESS .ohm.m               : RESS
RHOB .g/cm3               : RHOB
ROP .m/h                  : ROP
SP .mV                    : SP
THOR .ppm                 : THOR
URAN .ppm                 : URAN
WOB .kN                   : WOB
RFT .bar                  : RFT
Mobility .mD/cP           : Mobility
IC4 .%                    : IC4
NC5 .%                    : NC5
TGAS .%                   : TGAS
NC4 .%                    : NC4
C1 .%                     : C1
C3 .%                     : C3
IC5 .%                    : IC5
RCA ._                    : RCA
~Parameter
#==================================================================
~Ascii
# ...
 3843.0708008 8.5000000000 8.5045032501 0.0057874322 83.401298523 82.503463745 0.0000000000 0.2677246034 4.3264269829  -999.250000 2.7024919987 2.9034650326 2.3701848984 2.6171469688 67.505493164 -332.1268005  -999.250000  -999.250000 11.034521103  -999.250000  -999.250000 0.0000000000 0.0000000000 0.9291992188 0.0000000000 0.0000000000 0.0000000000 0.0000000000  -999.250000
 3843.2231445 8.5000000000 8.4912233353 0.0054005068 83.815498352 83.752113342 0.0000000000 0.2660565972 4.4028978348  -999.250000 2.5572030544 2.7489409447 2.2673759460 2.6067140102 68.675064087 -332.3099060  -999.250000  -999.250000 11.323974609  -999.250000  -999.250000 0.0000000000 0.0000000000 0.7768554688 0.0000000000 0.0000000000 0.0000000000 0.0000000000  -999.250000
 3843.3754883 8.5000000000 8.5148267746 0.0046874648 83.794891357 82.765441895 0.0000000000 0.2748185098 4.4007878304  -999.250000 2.7453699112 2.9518690109 2.4166560173 2.6081259251 69.844627380 -332.0646973  -999.250000  -999.250000 11.613427162  -999.250000  -999.250000 0.0000000000 0.0000000000 0.6245117188 0.0000000000 0.0000000000 0.0000000000 0.0000000000  -999.250000
 3843.5280762 8.5000000000 8.5150899887 0.0023617570 83.696800232 84.144920349 0.0000000000 0.2861090899 4.3451547623  -999.250000 2.7103140354 2.9185891151 2.4108181000 2.5910990238 71.016067505 -332.1867981  -999.250000  -999.250000 11.903345108  -999.250000  -999.250000 0.0000000000 0.0000000000 0.4719238281 0.0000000000 0.0000000000 0.0000000000 0.0000000000  -999.250000
 3843.6804199 8.5000000000 8.5244894028 0.0032908621 83.625701904 89.013320923 0.0000000000 0.3064194918 4.3072609901  -999.250000 2.5410079956 2.7284049988 2.2833468914 2.5956580639 72.185638428 -332.1860046  -999.250000  -999.250000 12.192797661  -999.250000  -999.250000 0.0000000000 0.0000000000 0.3195800781 0.0000000000 0.0000000000 0.0000000000 0.0000000000  -999.250000
 3843.8327637 8.5000000000 8.4933862686 0.0051941569 83.488800049 93.164352417 0.0000000000 0.3148354888 4.2352538109  -999.250000 2.4217240810 2.6030929089 2.2096691132 2.5971550941 73.355209351 -331.9400940  -999.250000  -999.250000 12.482251167  -999.250000  -999.250000 0.0000000000 0.0000000000 0.1672363281 0.0000000000 0.0000000000 0.0000000000 0.0000000000  -999.250000
 3843.9851074 8.5000000000 8.5156192780 0.0049292040 83.238403320 93.301322937 0.0000000000 0.3143224120 4.4330148697  -999.250000 2.4019858837 2.5779531002 2.1941020489 2.6114869118 74.524772644 -332.1228027  -999.250000  -999.250000 12.771704674  -999.250000  -999.250000 0.0000000000 0.0000000000 0.0148925781 0.0000000000 0.0000000000 0.0000000000 0.0000000000  -999.250000
 3844.1376953 8.5000000000 8.5048990250 0.0043953052 83.223999023 90.198883057 0.0000000000 0.3150430918 4.4559822083  -999.250000 2.5508379936 2.7354269028 2.3007419109 2.6097879410 75.894989014 -331.9403992  -999.250000  -999.250000 12.772460938  -999.250000  -999.250000 0.0000000000 0.0000000000 0.2753906250 0.0000000000 0.0000000000 0.0000000000 0.0000000000  -999.250000
 3844.2900391 8.5000000000 8.5046348572 0.0012497770 82.923103333 87.854598999 0.0000000000 0.3101280928 4.4335007668  -999.250000 2.5738890171 2.7643899918 2.3145270348 2.6087119579 77.284477234 -332.2510986  -999.250000  -999.250000 12.741991997  -999.250000  -999.250000 0.0000000000 0.0000000000 0.5800781250 0.0000000000 0.0000000000 0.0000000000 0.0000000000  -999.250000
 3844.4423828 8.5000000000 8.4931221008 0.0005657768 82.679489136 88.156196594 0.0000000000 0.3041068912 4.4716420174  -999.250000 2.7449688911 2.9462130070 2.4342100620 2.6114079952 78.673965454 -332.7414856  -999.250000  -999.250000 12.711524010  -999.250000  -999.250000 0.0000000000 0.0000000000 0.8847656250 0.0000000000 0.0000000000 0.0000000000 0.0000000000  -999.250000
 3844.5947266 8.5000000000 8.4821376801 0.0017948881 82.628700256 89.391990662 0.0000000000 0.2895235121 4.3587999344  -999.250000 2.5393769741 2.7222530842 2.2936398983 2.6011381149 80.063453674 -331.8212891  -999.250000  -999.250000 12.681055069  -999.250000  -999.250000 0.0000000000 0.0000000000 1.1894531250 0.0000000000 0.0000000000 0.0000000000 0.0000000000  -999.250000
 3844.7473145 8.5000000000 8.4904298782 0.0060782740 82.905197144 86.440818787 0.0000000000 0.2863616049 4.3548350334  -999.250000 2.4188730717 2.6075088978 2.2072699070 2.6065731049 81.455169678 -332.3724060  -999.250000  -999.250000 12.650537491  -999.250000  -999.250000 0.0000000000 0.0000000000 1.4946289063 0.0000000000 0.0000000000 0.0000000000 0.0000000000  -999.250000
 3844.8996582 8.5000000000 8.4940471649 0.0107014198 83.115890503 83.343963623 0.0000000000 0.2902092040 4.4953618050  -999.250000 2.7139608860 2.9365599155 2.4312510490 2.6126189232 82.844657898 -332.5000000  -999.250000  -999.250000 12.620068550  -999.250000  -999.250000 0.0000000000 0.0000000000 1.7993164063 0.0000000000 0.0000000000 0.0000000000 0.0000000000  -999.250000
 3845.0520020 8.5000000000 8.5148267746 0.0119225699 83.779502869 81.566268921 0.0000000000 0.2833650112 4.5144991875  -999.250000 2.7064499855 2.9187550545 2.4024899006 2.6136929989 83.800796509 -332.6202087  -999.250000  -999.250000 12.573999405  -999.250000  -999.250000 0.0000000000 0.0000000000 3.6640625000 0.0000000000 0.0000000000 0.0000000000 0.0000000000  -999.250000
 3845.2043457 8.5000000000 8.5180473328 0.0100114597 84.419197083 86.093521118 0.0000000000 0.2932958007 4.4419898987  -999.250000 2.5861589909 2.7868890762 2.3163340092 2.6284039021 83.920753479 -331.9411926  -999.250000  -999.250000 12.497827530  -999.250000  -999.250000 0.0000000000 0.0000000000 8.5390625000 0.0000000000 0.0000000000 0.0000000000 0.0000000000  -999.250000
 3845.3566895 8.5000000000 8.5184440613 0.0062501840 84.683601379 88.609230042 0.0000000000 0.2802559137 4.4436330795  -999.250000 2.8662259579 3.0966880322 2.5185580254 2.6249220371 84.040702820 -331.8812866  -999.250000  -999.250000 12.421655655  -999.250000  -999.250000 0.0000000000 0.0000000000 13.414062500 0.0000000000 0.0000000000 0.0000000000 0.0000000000  -999.250000
 3845.5092773 8.5000000000 8.5176515579 0.0041050599 85.171600342 92.493591309 0.0000000000 0.2754476070 4.2771501541  -999.250000 2.7327229977 2.9387860298 2.4256060123 2.6139190197 84.160850525 -332.8699036  -999.250000  -999.250000 12.345361710  -999.250000  -999.250000 0.0000000000 0.0000000000 18.296875000 0.0000000000 0.0000000000 0.0000000000 0.0000000000  -999.250000
 3845.6616211 8.5000000000 8.5331783295 0.0035185011 84.526702881 91.945632935 0.0000000000 0.2739304006 4.2266149521  -999.250000 2.4979391098 2.6858000755 2.2653720379 2.6154689789 84.280807495 -332.9985046  -999.250000  -999.250000 12.269189835  -999.250000  -999.250000 0.0000000000 0.0000000000 23.171875000 0.0000000000 0.0000000000 0.0000000000 0.0000000000  -999.250000
 3845.8139648 8.5000000000 8.5266036987 0.0047712461 83.911697388 96.304496765 0.0000000000 0.2853913009 4.2340731621  -999.250000 2.4097440243 2.5864989758 2.2127749920 2.6068699360 84.400764465 -332.8742981  -999.250000  -999.250000 12.193017960  -999.250000  -999.250000 0.0000000000 0.0000000000 28.046875000 0.0000000000 0.0000000000 0.0000000000 0.0000000000  -999.250000
 3845.9663086 8.5000000000 8.5263395309 0.0041795662 82.968109131 94.474159241 0.0000000000 0.3008545935 4.2585477829  -999.250000 2.3118090630 2.4900259972 2.1585340500 2.6006100178 84.520721436 -332.6278992  -999.250000  -999.250000 12.116846085  -999.250000  -999.250000 0.0000000000 0.0000000000 32.921875000 0.0000000000 0.0000000000 0.0000000000 0.0000000000  -999.250000
 3846.1188965 8.5000000000 8.5118713379 0.0021294381 82.288696289 95.370536804 0.0000000000 0.3117051125 4.3607249260  -999.250000 2.4128050804 2.5999529362 2.2168800831 2.6036369801 84.672073364 -332.8753967  -999.250000  -999.250000 12.028662682  -999.250000  -999.250000 0.0000000000 0.0000000000 52.428955078 0.0000000000 0.7133789659 0.0000000000 0.0000000000  -999.250000
 3846.2712402 8.5000000000 8.5262069702 -0.000905307 82.680809021 95.337638855 0.0000000000 0.3241766095 4.3118100166  -999.250000 2.3941280842 2.5865509510 2.1882119179 2.5987560749 84.832015991 -333.1860046  -999.250000  -999.250000 11.937255859  -999.250000  -999.250000 0.0000000000 0.0000000000 76.042236328 0.0000000000 1.6274415255 0.0000000000 0.0000000000  -999.250000
