# LAS format log file from PETREL
# Project units are specified as depth units
#==================================================================
~Version information
VERS.   2.0:
WRAP.   NO:
#==================================================================
~Well
STRT .m      3460.8515625 :
STOP .m      4681.4233398 :
STEP .m     0.00000000 :
NULL .        -999.250000 :
COMP.           : COMPANY
WELL.  Torosa 1   : WELL
FLD.            : FIELD
LOC.            : LOCATION
SRVC.           : SERVICE COMPANY
DATE.  2017-10-02 11:49:47   : Log Export Date {yyyy-MM-dd HH:mm:ss}
PROV.           : PROVINCE
UWI.   Torosa 1   : UNIQUE WELL ID
API.            : API NUMBER
#==================================================================
~Curve
DEPT .m                   : DEPTH
BIT .in                   : BIT
CAL .in                   : CAL
DRHO .g/cm3               : DRHO
DTC .us/ft                : DTC
GR .gAPI                  : GR
NET .m                    : NET
NPHI .m3/m3               : NPHI
PEF .b/e                  : PEF
POTA .%                   : POTA
RESD .ohm.m               : RESD
RESM .ohm.m               : RESM
RESS .ohm.m               : RESS
RHOB .g/cm3               : RHOB
ROP .m/h                  : ROP
SP .mV                    : SP
THOR .ppm                 : THOR
URAN .ppm                 : URAN
WOB .kN                   : WOB
RFT .bar                  : RFT
Mobility .mD/cP           : Mobility
IC4 .%                    : IC4
NC5 .%                    : NC5
TGAS .%                   : TGAS
NC4 .%                    : NC4
C1 .%                     : C1
C3 .%                     : C3
IC5 .%                    : IC5
RCA ._                    : RCA
~Parameter
#==================================================================
~Ascii
# ...
 3537.9660645 8.5000000000 8.6393547058 0.0003486919 87.363189697 65.130088806 0.0000000000 0.1871969998 3.8394320011  -999.250000 1.7481189966 1.8325760365 1.6750160456 2.5751149654  -999.250000 -333.6882019  -999.250000  -999.250000 7.9830322266  -999.250000  -999.250000  -999.250000  -999.250000  -999.250000  -999.250000  -999.250000  -999.250000  -999.250000  -999.250000
 3538.1184082 8.5000000000 8.6836881638 0.0022682340 87.594200134 69.346702576 0.0000000000 0.2076386958 3.7695469856  -999.250000 1.5986969471 1.6919100285 1.5315220356 2.5491940975  -999.250000 -333.4466858  -999.250000  -999.250000 7.9289550781  -999.250000  -999.250000  -999.250000  -999.250000  -999.250000  -999.250000  -999.250000  -999.250000  -999.250000  -999.250000
 3538.2707520 8.5000000000 8.7068462372 0.0013817180 87.094696045 70.805343628 0.0000000000 0.2112433016 3.7102589607  -999.250000 1.6114109755 1.7234250307 1.5514039993 2.5265519619  -999.250000 -334.7430115  -999.250000  -999.250000 7.8375487328  -999.250000  -999.250000  -999.250000  -999.250000  -999.250000  -999.250000  -999.250000  -999.250000  -999.250000  -999.250000
 3538.4230957 8.5000000000 8.7205228806 0.0018677480 87.134399414 70.768943787 0.0000000000 0.2156147957 3.6899719238  -999.250000 1.7983959913 1.9375890493 1.7128789425 2.5228700638  -999.250000 -334.8797913  -999.250000  -999.250000 7.7461423874  -999.250000  -999.250000  -999.250000  -999.250000  -999.250000  -999.250000  -999.250000  -999.250000  -999.250000  -999.250000
 3538.5756836 8.5000000000 8.7304000854 0.0013367309 87.346900940 69.260726929 0.0000000000 0.2180321962 3.6371550560  -999.250000 2.1654551029 2.3432509899 2.0110421181 2.5334329605  -999.250000 -335.8168945  -999.250000  -999.250000 7.6545901299  -999.250000  -999.250000  -999.250000  -999.250000  -999.250000  -999.250000  -999.250000  -999.250000  -999.250000  -999.250000
 3538.7280273 8.5000000000 8.7518405914 0.0008285224 86.313591003 67.751632690 0.0000000000 0.2081692964 3.6695289612  -999.250000 1.8607480526 2.0072360039 1.7619069815 2.5521690845  -999.250000 -337.4684143  -999.250000  -999.250000 7.5631837845  -999.250000  -999.250000  -999.250000  -999.250000  -999.250000  -999.250000  -999.250000  -999.250000  -999.250000  -999.250000
 3538.8803711 8.5000000000 8.7514438629 0.0029950121 85.439498901 65.421028137 0.0000000000 0.2014670968 3.6247398853  -999.250000 1.8786220551 2.0211811066 1.7845180035 2.5597169399  -999.250000 -333.8250122  -999.250000  -999.250000 7.4717774391  -999.250000  -999.250000  -999.250000  -999.250000  -999.250000  -999.250000  -999.250000  -999.250000  -999.250000  -999.250000
 3539.0327148 8.5000000000 8.7452659607 0.0057949531 81.589897156 64.359779358 0.0000000000 0.2004109025 3.7419159412  -999.250000 1.9148490429 2.0493450165 1.8128060102 2.5581929684  -999.250000 -332.2734985  -999.250000  -999.250000 7.2167968750  -999.250000  -999.250000  -999.250000  -999.250000  -999.250000  -999.250000  -999.250000  -999.250000  -999.250000  -999.250000
 3539.1853027 8.5000000000 8.7589435577 0.0101139396 80.303497314 65.654136658 0.0000000000 0.1988359988 3.9189600945  -999.250000 1.7776390314 1.8840149641 1.6743170023 2.5698440075  -999.250000 -334.6736145  -999.250000  -999.250000 6.3623046875  -999.250000  -999.250000  -999.250000  -999.250000  -999.250000  -999.250000  -999.250000  -999.250000  -999.250000  -999.250000
 3539.3376465 8.5000000000 8.7384281158 0.0078667868 78.405998230 66.975067139 0.0000000000 0.1952279061 3.8247220516  -999.250000 2.0820879936 2.2008130550 1.9054650068 2.5452458858  -999.250000 -334.7445068  -999.250000  -999.250000 5.5091795921  -999.250000  -999.250000  -999.250000  -999.250000  -999.250000  -999.250000  -999.250000  -999.250000  -999.250000  -999.250000
 3539.4899902 8.5000000000 8.7505197525 0.0050797900 77.514198303 65.531616211 0.0000000000 0.2018252015 3.5842609406  -999.250000 3.0735449791 3.2292239666 2.6382980347 2.5609230995  -999.250000 -333.8804932  -999.250000  -999.250000 4.6560544968  -999.250000  -999.250000  -999.250000  -999.250000  -999.250000  -999.250000  -999.250000  -999.250000  -999.250000  -999.250000
 3539.6423340 8.5000000000 8.6631736755 0.0005937290 76.222999573 62.900588989 0.0000000000 0.2038493007 3.6136610508  -999.250000 4.3134617805 4.5322031975 3.4554018974 2.5685310364  -999.250000 -333.9382019  -999.250000  -999.250000 3.8029296398  -999.250000  -999.250000  -999.250000  -999.250000  -999.250000  -999.250000  -999.250000  -999.250000  -999.250000  -999.250000
 3539.7949219 8.5000000000 8.6375055313 0.0006947002 75.174003601 59.308799744 0.0000000000 0.1829577982 3.5968329906  -999.250000 5.0038018227 5.2659339905 3.8648569584 2.6018741131  -999.250000 -334.1224060  -999.250000  -999.250000 2.9484374523  -999.250000  -999.250000  -999.250000  -999.250000  -999.250000  -999.250000  -999.250000  -999.250000  -999.250000  -999.250000
 3539.9472656 8.5000000000 8.5715990067 0.0025920491 74.803901672 58.329509735 0.0000000000 0.1541648060 3.7931408882  -999.250000 4.9885888100 5.2528371811 3.8104000092 2.6110460758  -999.250000 -333.8757019  -999.250000  -999.250000 2.0953123569  -999.250000  -999.250000  -999.250000  -999.250000  -999.250000  -999.250000  -999.250000  -999.250000  -999.250000  -999.250000
 3540.0996094 8.5000000000 8.5509500504 0.0038843041 74.720802307 59.989429474 0.0000000000 0.1411240995 3.7055160999  -999.250000 4.2355828285 4.4564089775 3.3336420059 2.5936861038 12.822381020 -333.7525940  -999.250000  -999.250000 1.9892578125  -999.250000  -999.250000 0.0000000000 0.0000000000 117.80470276 0.0000000000 6.2988286018 2.0996093750 0.0000000000  -999.250000
 3540.2519531 8.5000000000 8.5823183060 0.0030462600 74.707901001 61.185791016 0.0000000000 0.1535575986 3.4727189541  -999.250000 3.1730749607 3.2986121178 2.6715540886 2.5908780098 13.767031670 -334.0625000  -999.250000  -999.250000 2.2787108421  -999.250000  -999.250000 0.0000000000 0.0000000000 115.97657776 0.0000000000 6.7558593750 2.2519531250 0.0000000000  -999.250000
 3540.4042969 8.5000000000 8.5868606567 -0.000273022 74.008201599 63.203628540 0.0000000000 0.1750486046 3.4987850189  -999.250000 3.3130700588 3.3626658916 2.7625739574 2.5791571140 14.711683273 -334.3786926  -999.250000  -999.250000 2.5681641102  -999.250000  -999.250000 0.0000000000 0.0000000000 114.14845276 0.0000000000 7.2128906250 2.4042968750 0.0000000000  -999.250000
 3540.5568848 8.5000000000 8.5863323212 -0.003274231 73.623901367 57.569210052 0.0000000000 0.1735953987 3.5642340183  -999.250000 3.4228010178 3.4545550346 2.7983748913 2.5662550926 15.657848358 -335.3039856  -999.250000  -999.250000 2.8580811024  -999.250000  -999.250000 0.0000000000 0.0000000000 112.31739044 0.0000000000 7.6706538200 2.5568850040 0.0000000000  -999.250000
 3540.7092285 8.5000000000 8.5783052444 -0.003562534 73.654899597 54.006408691 0.0000000000 0.1486739069 3.7885890007  -999.250000 4.6799612045 4.6982011795 3.7727611065 2.6005868912 16.602499008 -334.8106995  -999.250000  -999.250000 3.1475341320  -999.250000  -999.250000 0.0000000000 0.0000000000 110.48926544 0.0000000000 8.1276845932 2.7092287540 0.0000000000  -999.250000
 3540.8615723 8.5000000000 8.5642309189 -0.003027397 73.444297791 51.351940155 0.0000000000 0.1306948960 3.9102809429  -999.250000 4.1481480598 4.1179428101 3.3550829887 2.6267120838 17.547151566 -334.0062866  -999.250000  -999.250000 3.4369874001  -999.250000  -999.250000 0.0000000000 0.0000000000 108.66114044 0.0000000000 8.5847158432 2.8615725040 0.0000000000  -999.250000
 3541.0139160 8.5000000000 8.5506858826 -0.001029671 73.216400146 51.793018341 0.0000000000 0.1295042932 4.2014040947  -999.250000 3.3441629410 3.2725510597 2.7903299332 2.7017719746 18.342050552 -334.2489014  -999.250000  -999.250000 3.6930420399  -999.250000  -999.250000 0.0000000000 0.0000000000 106.24854279 0.0000000000 8.9304189682 2.9721682072 0.0000000000  -999.250000
 3541.1665039 8.5000000000 8.5823183060 -0.001280686 71.739501953 54.728988647 0.0000000000 0.1393862963 3.6906709671  -999.250000 3.7284090519 3.6181280613 3.1435871124 2.5992109776 17.646192551 -334.3088074  -999.250000  -999.250000 3.6167480946  -999.250000  -999.250000 0.0000000000 0.0000000000 98.008796692 0.0000000000 8.1674795151 2.6669924259 0.0000000000  -999.250000
