# LAS format log file from PETREL
# Project units are specified as depth units
#==================================================================
~Version information
VERS.   2.0:
WRAP.   NO:
#==================================================================
~Well
STRT .m      3460.8515625 :
STOP .m      4681.4233398 :
STEP .m     0.00000000 :
NULL .        -999.250000 :
COMP.           : COMPANY
WELL.  Torosa 1   : WELL
FLD.            : FIELD
LOC.            : LOCATION
SRVC.           : SERVICE COMPANY
DATE.  2017-10-02 11:49:47   : Log Export Date {yyyy-MM-dd HH:mm:ss}
PROV.           : PROVINCE
UWI.   Torosa 1   : UNIQUE WELL ID
API.            : API NUMBER
#==================================================================
~Curve
DEPT .m                   : DEPTH
BIT .in                   : BIT
CAL .in                   : CAL
DRHO .g/cm3               : DRHO
DTC .us/ft                : DTC
GR .gAPI                  : GR
NET .m                    : NET
NPHI .m3/m3               : NPHI
PEF .b/e                  : PEF
POTA .%                   : POTA
RESD .ohm.m               : RESD
RESM .ohm.m               : RESM
RESS .ohm.m               : RESS
RHOB .g/cm3               : RHOB
ROP .m/h                  : ROP
SP .mV                    : SP
THOR .ppm                 : THOR
URAN .ppm                 : URAN
WOB .kN                   : WOB
RFT .bar                  : RFT
Mobility .mD/cP           : Mobility
IC4 .%                    : IC4
NC5 .%                    : NC5
TGAS .%                   : TGAS
NC4 .%                    : NC4
C1 .%                     : C1
C3 .%                     : C3
IC5 .%                    : IC5
RCA ._                    : RCA
~Parameter
#==================================================================
~Ascii
# ...
 4600.8037109 8.5000000000 9.3006429672 0.1591040045 52.949478149 57.085689545 0.0000000000 0.0407188199 6.4623532295 2.6800000668 493.48330688 335.61660767 12.027130127 2.7215790749 48.412700653 -334.6481018 0.9843000174 1.4201999903 35.638183594  -999.250000  -999.250000 4.0000000000 0.0000000000 222.10353088 5.1962890625 30.981449127 16.588867188 0.0000000000  -999.250000
 4600.9560547 8.5000000000 8.9902582169 0.1382575035 53.029689789 56.537010193 0.0000000000 0.0359882191 6.4397649765 2.4800000191 368.88848877 216.87179565 10.618619919 2.6798470020 51.401596069 -339.2593079 0.8827999830 1.5182000399 36.384666443  -999.250000  -999.250000 4.0000000000 0.0000000000 218.14259338 5.0439453125 30.219732285 16.131835938 0.0000000000  -999.250000
 4601.1083984 8.5000000000 9.0916767120 0.1271612942 53.109909058 57.106250763 0.0000000000 0.0311370995 6.8123497963 2.3499999046 361.83081055 228.24079895 9.7200403214 2.5690550804 54.440280914 -334.9591980 1.0563999414 1.4246000051 36.491600037  -999.250000  -999.250000 3.8916015625 0.0000000000 212.88087463 4.8916015625 28.916021347 15.458007813 0.0000000000  -999.250000
 4601.2607422 8.5000000000 9.1883726120 0.1258452982 53.190109253 58.092189789 0.0000000000 0.0288395695 6.7924900055 2.3499999046 938.68048096 337.87231445 8.6475362778 2.6752109528 57.499153137 -334.2572937 1.0441000462 1.5356999636 36.339256287  -999.250000  -999.250000 3.7392578125 0.0000000000 207.09181213 4.7392578125 27.392581940 14.696289063 0.0000000000  -999.250000
 4601.4130859 8.5000000000 9.0723190308 0.1164556965 53.270320892 60.926269531 0.0000000000 0.0307249893 6.5823879242 2.4600000381 723.35650635 452.86151123 8.4745836258 2.6862959862 60.558021545 -334.7879028 1.0505000353 1.7009999752 36.186912537  -999.250000  -999.250000 3.5869140625 0.0000000000 201.30274963 4.5869140625 25.869144440 13.934570313 0.0000000000  -999.250000
 4601.5654297 8.5000000000 9.1209306717 0.0966178104 53.350540161 63.718158722 0.0000000000 0.0334551595 6.5656809807 2.5199999809 734.33728027 336.69760132 8.9467658997 2.6669330597 63.616889954 -331.2091980 0.9578999877 1.7843999863 36.034568787  -999.250000  -999.250000 3.4345705509 0.0000000000 195.51367188 4.4345703125 24.345705032 13.172851563 0.0000000000  -999.250000
 4601.7177734 8.5000000000 8.9880609512 0.0804848224 53.430744171 65.184097290 0.0000000000 0.0380261503 6.1363167763 2.4700000286 699.47937012 244.72410583 8.8221349716 2.7363200188 66.675758362 -331.2445068 1.0180000067 1.7331000566 35.882225037  -999.250000  -999.250000 3.2822268009 0.0000000000 189.72460938 4.2822265625 22.822267532 12.411132813 0.0000000000  -999.250000
 4601.8706055 8.5000000000 9.1110038757 0.0717281774 53.510959625 65.070953369 0.0000000000 0.0420563892 5.8202061653 2.4400000572 302.85018921 225.57029724 9.0991802216 2.7416551113 69.744438171 -330.3728027 0.9642000198 1.6866999865 35.729393005  -999.250000  -999.250000 3.1293947697 0.0000000000 183.91699219 4.1293945313 21.293945313 11.646972656 0.0000000000  -999.250000
 4602.0229492 8.5000000000 8.8472156525 0.0729620531 53.591171265 62.036048889 0.0000000000 0.0366102085 5.5733079910 2.4600000381 12549.269531 400.74688721 9.4612550735 2.7203440666 71.679939270 -329.1415100 1.0207999945 1.7914999723 35.400341034  -999.250000  -999.250000 3.0000002384 0.0000000000 178.70166016 4.0000000000 19.931152344 10.977050781 0.0000000000  -999.250000
 4602.1752930 8.5000000000 8.7442092896 0.0754816309 53.671379089 60.436321259 0.0000000000 0.0321408696 5.7717280388 2.4000000954 13520.940430 195.30430603 8.6906375885 2.6186718941 67.281562805 -330.6875000 1.2247999907 1.8930000067 34.074951172  -999.250000  -999.250000 3.0000002384 0.0000000000 176.72119141 4.0000000000 19.474121094 10.824707031 0.0000000000  -999.250000
 4602.3276367 8.5000000000 8.6009340286 0.0696367994 53.751590729 60.287528992 0.0000000000 0.0302221105 6.0147280693 2.3099999428 530.40972900 157.33030701 8.0823183060 2.7178559303 62.883190155 -332.2580872 1.5154999495 2.0313000679 32.749557495  -999.250000  -999.250000 3.0000002384 0.0000000000 174.74072266 4.0000000000 19.017089844 10.672363281 0.0000000000  -999.250000
 4602.4799805 8.5000000000 8.5925111771 0.0507947095 53.831798553 60.366550446 0.0000000000 0.0285604708 5.6489191055 2.1900000572 444.48141479 213.64830017 7.5851402283 2.7353768349 58.484813690 -335.1694946 1.5462000370 2.1981999874 31.424169540  -999.250000  -999.250000 3.0000002384 0.0000000000 172.76025391 4.0000000000 18.560058594 10.520019531 0.0000000000  -999.250000
 4602.6323242 8.5000000000 8.5935678482 0.0350178853 53.899398804 60.451000214 0.0000000000 0.0265021008 5.4391851425 2.1800000668 354.74938965 203.77630615 6.3164110184 2.7242488861 54.086437225 -335.0723877 1.5774999857 2.0992999077 30.098777771  -999.250000  -999.250000 3.0000002384 0.0000000000 170.77978516 4.0000000000 18.103027344 10.367675781 0.0000000000  -999.250000
 4602.7846680 8.5000000000 8.6393547058 0.0302519388 53.432598114 60.636398315 0.0000000000 0.0274628494 5.3244829178 2.2599999905 320.58419800 176.40589905 5.7988891602 2.7032330036 49.688064575 -336.6158142 1.3696000576 2.4512999058 28.773387909  -999.250000  -999.250000 3.0000002384 0.0000000000 168.79931641 4.0000000000 17.645996094 10.215332031 0.0000000000  -999.250000
 4602.9370117 8.5000000000 8.6618518829 0.0350678712 52.209701538 65.867118835 0.0000000000 0.0309420396 5.4014029503 2.4200000763 681.29827881 167.37049866 5.8342051506 2.7105109692 45.289688110 -336.6304932 1.9426000118 2.6333000660 27.447998047  -999.250000  -999.250000 3.0000002384 0.0000000000 166.81884766 4.0000000000 17.188964844 10.062988281 0.0000000000  -999.250000
 4603.0898438 8.5000000000 8.7139492035 0.0408313610 52.529499054 71.518516541 0.0000000000 0.0374102108 5.4592061043 2.5499999523 248.50390625 131.58580017 5.9770979881 2.7049679756 43.170471191 -337.5610046 2.2818999290 2.6912000179 25.678125381  -999.250000  -999.250000 3.0000002384 0.0000000000 166.17968750 4.0000000000 17.000000000 10.000000000 0.0000000000  -999.250000
 4603.2421875 8.5000000000 8.6851415634 0.0526508391 53.727100372 72.506538391 0.0000000000 0.0453512408 5.6699218750 2.4500000477 114.49859619 72.645988464 5.5751709938 2.6634418964 42.660659790 -338.2558899 2.3817000389 2.5348000526 23.606248856  -999.250000  -999.250000 3.0000002384 0.0000000000 166.48437500 4.0000000000 17.000000000 10.000000000 0.0000000000  -999.250000
 4603.3945313 8.5000000000 8.6394872665 0.0620938987 54.228401184 70.140151978 0.0000000000 0.0513869002 5.5664429665 2.2500000000 208.00709534 75.123626709 6.2427291870 2.7285931110 42.150848389 -339.9111023 2.3721001148 2.3445999622 21.534374237  -999.250000  -999.250000 3.0000002384 0.0000000000 166.78906250 4.0000000000 17.000000000 10.000000000 0.0000000000  -999.250000
 4603.5468750 8.5000000000 8.6283712387 0.0614552498 52.990200043 66.545768738 0.0000000000 0.0473747589 5.6093750000 2.1700000763 178.21420288 108.46150208 5.5134592056 2.7335689068 41.641036987 -337.1111145 2.2446999550 2.4565000534 19.462499619  -999.250000  -999.250000 3.0000002384 0.0000000000 167.09375000 4.0000000000 17.000000000 10.000000000 0.0000000000  -999.250000
 4603.6992188 8.5000000000 8.6847457886 0.0507390983 53.018798828 67.663803101 0.0000000000 0.0451759808 5.7773351669 2.2400000095 180.63119507 87.915458679 5.1737699509 2.7304549217 41.131225586 -331.9484863 2.4323999882 2.5485999584 17.390625000  -999.250000  -999.250000 3.0000002384 0.0000000000 167.39843750 4.0000000000 17.000000000 10.000000000 0.0000000000  -999.250000
 4603.8515625 8.5000000000 8.6223745346 0.0341437310 52.961498260 68.499771118 0.0000000000 0.0438162684 5.6004171371 2.2699999809 145.03999329 81.908180237 5.1569690704 2.6996839046 40.621410370 -328.6672058 2.7019000053 2.4584999084 15.318750381  -999.250000  -999.250000 3.0000002384 0.0000000000 167.70312500 4.0000000000 17.000000000 10.000000000 0.0000000000  -999.250000
 4604.0039063 8.5000000000 8.5614080429 0.0258651692 55.044601440 70.579223633 0.0000000000 0.0469456390 5.5319070816 2.3199999332 107.46130371 71.372177124 5.4649820328 2.7206959724 40.225658417 -332.5187073 3.0102999210 2.1558001041 13.309765816  -999.250000  -999.250000 3.0000002384 0.0000000000 168.00781250 4.0000000000 17.000000000 10.000000000 0.0000000000  -999.250000
