# LAS format log file from PETREL
# Project units are specified as depth units
#==================================================================
~Version information
VERS.   2.0:
WRAP.   NO:
#==================================================================
~Well
STRT .m      3460.8515625 :
STOP .m      4681.4233398 :
STEP .m     0.00000000 :
NULL .        -999.250000 :
COMP.           : COMPANY
WELL.  Torosa 1   : WELL
FLD.            : FIELD
LOC.            : LOCATION
SRVC.           : SERVICE COMPANY
DATE.  2017-10-02 11:49:47   : Log Export Date {yyyy-MM-dd HH:mm:ss}
PROV.           : PROVINCE
UWI.   Torosa 1   : UNIQUE WELL ID
API.            : API NUMBER
#==================================================================
~Curve
DEPT .m                   : DEPTH
BIT .in                   : BIT
CAL .in                   : CAL
DRHO .g/cm3               : DRHO
DTC .us/ft                : DTC
GR .gAPI                  : GR
NET .m                    : NET
NPHI .m3/m3               : NPHI
PEF .b/e                  : PEF
POTA .%                   : POTA
RESD .ohm.m               : RESD
RESM .ohm.m               : RESM
RESS .ohm.m               : RESS
RHOB .g/cm3               : RHOB
ROP .m/h                  : ROP
SP .mV                    : SP
THOR .ppm                 : THOR
URAN .ppm                 : URAN
WOB .kN                   : WOB
RFT .bar                  : RFT
Mobility .mD/cP           : Mobility
IC4 .%                    : IC4
NC5 .%                    : NC5
TGAS .%                   : TGAS
NC4 .%                    : NC4
C1 .%                     : C1
C3 .%                     : C3
IC5 .%                    : IC5
RCA ._                    : RCA
~Parameter
#==================================================================
~Ascii
# ...
 4144.8227539 8.5000000000 8.4601688385 0.0002979496 88.992103577 99.930587769 0.0000000000 0.2706489861 2.7043759823  -999.250000 2.1310310364 2.3214809895 2.0090489388 2.5545210838 79.180297852 -338.0588074  -999.250000  -999.250000 18.940479279  -999.250000  -999.250000 0.0000000000 0.0000000000 83.063476563 0.0000000000 8.0000000000 2.1772460938 0.0000000000  -999.250000
 4144.9750977 8.5000000000 8.4812126160 0.0005727518 89.014900208 101.80989838 0.0000000000 0.2682383955 2.7537291050  -999.250000 2.1133821011 2.3023750782 1.9925440550 2.5458550453 79.535171509 -338.1242981  -999.250000  -999.250000 19.077589035  -999.250000  -999.250000 0.0000000000 0.0000000000 82.149414063 0.0000000000 8.0000000000 2.0249023438 0.0000000000  -999.250000
 4145.1274414 8.5000000000 8.4664802551 0.0008559528 88.597007751 100.96350098 0.0000000000 0.2810089886 2.6961109638  -999.250000 2.1076850891 2.2929069996 1.9865909815 2.5524320602 78.309562683 -338.0628967  -999.250000  -999.250000 18.921583176  -999.250000  -999.250000 0.0000000000 0.0000000000 113.60546875 0.0000000000 8.7646484375 2.3823242188 0.0000000000  -999.250000
 4145.2797852 8.5000000000 8.4671401978 0.0030240039 88.502296448 98.049972534 0.0000000000 0.2779996991 2.7262599468  -999.250000 2.1040461063 2.2862451077 1.9862869978 2.5560679436 76.775131226 -338.0610046  -999.250000  -999.250000 18.708301544  -999.250000  -999.250000 0.0000000000 0.0000000000 151.38671875 0.0000000000 9.6787109375 2.8393554688 0.0000000000  -999.250000
 4145.4326172 8.5000000000 8.4596414566 0.0034373719 88.449401855 92.364410400 0.0000000000 0.2831108868 2.7028040886  -999.250000 2.1409239769 2.3236238956 2.0029449463 2.5519649982 75.235778809 -337.8099060  -999.250000  -999.250000 18.494337082  -999.250000  -999.250000 0.0000000000 0.0000000000 189.28906250 0.0000000000 10.595703125 3.2978515625 0.0000000000  -999.250000
 4145.5849609 8.5000000000 8.4588479996 0.0029047250 88.522598267 88.287872314 0.0000000000 0.2697902918 2.6778960228  -999.250000 2.1665990353 2.3501610756 2.0186319351 2.5568859577 73.701347351 -337.1333923  -999.250000  -999.250000 18.281055450  -999.250000  -999.250000 0.0000000000 0.0000000000 227.07031250 0.0000000000 11.509764671 3.7548828125 0.0000000000  -999.250000
 4145.7373047 8.5000000000 8.4802894592 0.0000255893 88.609298706 87.190612793 0.0000000000 0.2610740066 2.7494580746  -999.250000 2.1774790287 2.3592560291 2.0089941025 2.5361199379 72.166915894 -337.8688049  -999.250000  -999.250000 18.067773819  -999.250000  -999.250000 0.0000000000 0.0000000000 264.85156250 0.0000000000 12.423827171 4.2119140625 0.0000000000  -999.250000
 4145.8896484 8.5000000000 8.4601688385 -0.000748012 88.638702393 89.937271118 0.0000000000 0.2627798915 2.7812690735  -999.250000 2.1277589798 2.3014769554 1.9681420326 2.5290739536 70.632484436 -337.5657959  -999.250000  -999.250000 17.854492188  -999.250000  -999.250000 0.0000000000 0.0000000000 302.63281250 0.0000000000 13.337889671 4.6689453125 0.0000000000  -999.250000
 4146.0419922 8.5000000000 8.4597730637 -0.000480383 88.723899841 92.925582886 0.0000000000 0.2770802975 2.7997930050  -999.250000 2.2330949306 2.4149219990 2.0503630638 2.5325698853 71.313385010 -337.8135986  -999.250000  -999.250000 17.893165588  -999.250000  -999.250000 0.1259765774 0.0000000000 368.75878906 0.1259765774 16.813476563 6.0078125000 0.0000000000  -999.250000
 4146.1943359 8.5000000000 8.4521417618 -0.000261357 88.778099060 93.759712219 0.0000000000 0.2684871852 2.6670429707  -999.250000 2.3956499100 2.5889599323 2.1591351032 2.5217909813 77.815986633 -338.2463074  -999.250000  -999.250000 18.593946457  -999.250000  -999.250000 0.5830078721 0.0000000000 509.37207031 0.5830078721 27.020507813 9.6640615463 0.0000000000  -999.250000
 4146.3466797 8.5000000000 8.4802894592 -0.001425171 88.883110046 91.209381104 0.0000000000 0.2615101039 2.7128829956  -999.250000 2.2383539677 2.4188840389 2.0437150002 2.5286169052 84.318588257 -338.0668945  -999.250000  -999.250000 19.294727325  -999.250000  -999.250000 1.0400391817 0.0000000000 649.98535156 1.0400391817 37.227542877 13.320311546 0.0000000000  -999.250000
 4146.4990234 8.5000000000 8.4672727585 -0.002452195 88.896301270 88.291931152 0.0000000000 0.2563763857 2.7717061043  -999.250000 2.1469650269 2.3205931187 1.9654129744 2.5330829620 90.821189880 -338.6133118  -999.250000  -999.250000 19.995508194  -999.250000  -999.250000 1.4970704317 0.0000000000 790.59863281 1.4970704317 47.434574127 16.976560593 0.0000000000  -999.250000
 4146.6513672 8.5000000000 8.4689073563 -0.004183141 88.902000427 89.411979675 0.0000000000 0.2700959146 2.7653880119  -999.250000 2.1481709480 2.3198089600 1.9674270153 2.5323719978 97.323791504 -337.2033081  -999.250000  -999.250000 20.696289063  -999.250000  -999.250000 1.9541016817 0.0000000000 931.21191406 1.9541016817 57.641605377 20.632810593 0.0000000000  -999.250000
 4146.8041992 8.5000000000 8.4805526733 -0.004734346 89.102500916 91.571823120 0.0000000000 0.2646639049 2.8019280434  -999.250000 2.2173180580 2.3964390755 2.0221290588 2.5439279079 103.84723663 -338.4294128  -999.250000  -999.250000 21.399316788  -999.250000  -999.250000 2.4125978947 0.0000000000 1072.2758789 2.4125978947 67.881355286 24.300777435 0.0000000000  -999.250000
 4146.9565430 8.5000000000 8.4672727585 -0.004403899 89.410202026 94.536323547 0.0000000000 0.2657783926 2.8567409515  -999.250000 2.2391450405 2.4179959297 2.0361649990 2.5370819569 110.34983063 -338.3096008  -999.250000  -999.250000 22.100097656  -999.250000  -999.250000 2.8696291447 0.0000000000 1212.8891602 2.8696291447 78.088386536 27.957027435 0.0000000000  -999.250000
 4147.1088867 8.5000000000 8.4703607559 -0.002790785 89.705596924 96.821838379 0.0000000000 0.2611202896 2.8344330788  -999.250000 2.2016448975 2.3794209957 2.0063889027 2.5366458893 114.31245422 -337.6896973  -999.250000  -999.250000 22.615770340  -999.250000  -999.250000 3.2177736759 0.0000000000 1287.0815430 3.3266603947 87.750984192 31.395503998 0.0000000000  -999.250000
 4147.2612305 8.5000000000 8.4808168411 -0.001245832 90.013099670 97.963096619 0.0000000000 0.2688221931 2.8690900803  -999.250000 2.2096219063 2.3879148960 2.0123920441 2.5351281166 117.26136017 -337.4411926  -999.250000  -999.250000 23.057567596  -999.250000  -999.250000 3.5224611759 0.0000000000 1334.7651367 3.7836916447 97.196296692 34.747066498 0.0000000000  -999.250000
 4147.4135742 8.5000000000 8.4737138748 -0.001010019 90.126701355 98.528030396 0.0000000000 0.2631453872 2.8417420387  -999.250000 2.1715199947 2.3465929031 1.9879590273 2.5334730148 120.21027374 -337.8139954  -999.250000  -999.250000 23.499364853  -999.250000  -999.250000 3.8271486759 0.0000000000 1382.4487305 4.2407231331 106.64160919 38.098628998 0.0000000000  -999.250000
 4147.5659180 8.5000000000 8.4818744659 -0.000889608 90.301696777 97.966178894 0.0000000000 0.2789934874 2.8786909580  -999.250000 2.1189889908 2.2931559086 1.9529119730 2.5209660530 123.15917969 -338.4346008  -999.250000  -999.250000 23.941162109  -999.250000  -999.250000 4.1318359375 0.0000000000 1430.1322021 4.6977543831 116.08691406 41.450195313 0.0000000000  -999.250000
 4147.7182617 8.5000000000 8.4738464355 -0.000848894 90.402397156 96.878852844 0.0000000000 0.2726419866 2.8569140434  -999.250000 2.0893878937 2.2608671188 1.9318259954 2.5270988941 126.10808563 -338.5628967  -999.250000  -999.250000 24.382959366  -999.250000  -999.250000 4.4365234375 0.0000000000 1477.8157959 5.1547856331 125.53222656 44.801757813 0.0000000000  -999.250000
 4147.8706055 8.5000000000 8.4918003082 -0.002063333 90.456703186 98.447723389 0.0000000000 0.2778908908 2.8198699951  -999.250000 2.0451359749 2.2134909630 1.8953410387 2.5267360210 129.05699158 -338.7485046  -999.250000  -999.250000 24.824756622  -999.250000  -999.250000 4.7412109375 0.0000000000 1525.4993896 5.6118168831 134.97753906 48.153320313 0.0000000000  -999.250000
 4148.0234375 8.5000000000 8.4824018478 -0.002283671 90.461395264 98.323997498 0.0000000000 0.2777619958 2.7948520184  -999.250000 2.0413470268 2.2114229202 1.8968180418 2.5435070992 131.40403748 -338.6960144  -999.250000  -999.250000 25.174219131  -999.250000  -999.250000 5.0468750000 0.0000000000 1568.7889404 6.0234379768 143.58593750 51.234375000 0.0000000000  -999.250000
